#Written by Robertson Geologging WinLogger V1.0/312
~VERSION INFORMATION
#------------------------------------------------------------------------------
 VERS. 2.0 : CWLS LOG ASCII STANDARD - VERSION 2.0
 WRAP. NO  : ONE LINE PER DEPTH STEP
~WELL INFORMATION
#MNEM.UNIT         DATA                                DESCRIPTION OF MNEMONIC
#------------------------------------------------------------------------------
 STRT.M         56.2000                            :   START DEPTH
 STOP.M        520.0000                            :   STOP DEPTH
 STEP.M          0.1000                            :   STEP VALUE
 NULL.        -999.2500                            :   NULL VALUE
 COMP.    I.M..C.                                  :   COMPANY NAME
 WELL.    Dawdon Shaft                             :   WELL NAME
 FLD.     Dawdon                                   :   FIELD NAME
 LOC.     N/A                                      :   LOCATION
 PROV.    N/A                                      :   PROVINCE
 SRVC.    N/A                                      :   SERVICE COMPANY NAME
 DATE.    30 Jan 04                                :   DATE
 UWI.     N/A                                      :   UNIQUE WELL IDENTIFIER
~PARAMETER INFORMATION
#MNEMO.UNIT         VALUE                 DESCRIPTION OF MNEMONIC
#------------------------------------------------------------------------------
~OTHER INFORMATION SECTION
#------------------------------------------------------------------------------
 TCGX extended range 1365
~CURVE INFORMATION
#MNEMO.UNIT         API CODE              CURVE DESCRIPTION
#------------------------------------------------------------------------------
 DEPTH.M                                 :   0     Depth
 COND.mS/cm                              :   1     Conductivity
 TEMP.DegC                               :   2     Temperature
 C@25.mS/cm                              :   3     Conductivity @25Deg
 DELT.DegC                               :   4     Delta T
 DC@25.mS/cm                             :   5     Delta C @25Deg
 OUT4.CPS                                :   6     Natural Gamma
#------------------------------------------------------------------------------
~A  DEPTH     COND      TEMP      C@25      DELT      DC@25     OUT4      
# ...
   146.60     15.44     12.73     26.04      0.04      0.45      0.00 
   146.70     15.47     12.73     26.08      0.04      0.45      0.41 
   146.80     15.51     12.73     26.13      0.03      0.46      0.41 
   146.90     15.55     12.73     26.18      0.04      0.46      0.41 
   147.00     15.59     12.73     26.24      0.04      0.46      0.82 
   147.10     15.63     12.75     26.27      0.03      0.47      0.82 
   147.20     15.67     12.74     26.33      0.02      0.48      0.76 
   147.30     15.71     12.75     26.38      0.03      0.46      0.35 
   147.40     15.75     12.75     26.42      0.02      0.48      0.00 
   147.50     15.79     12.74     26.48      0.02      0.48      0.82 
   147.60     15.83     12.76     26.51      0.03      0.47      0.82 
   147.70     15.86     12.75     26.57      0.02      0.48      0.41 
   147.80     15.90     12.76     26.61      0.03      0.47      0.00 
   147.90     15.94     12.77     26.65      0.04      0.46      0.00 
   148.00     15.98     12.77     26.69      0.04      0.45      0.35 
   148.10     16.01     12.77     26.74      0.02      0.46      0.00 
   148.20     16.05     12.78     26.77      0.04      0.43      0.35 
   148.30     16.09     12.79     26.82      0.04      0.43      0.35 
   148.40     16.12     12.79     26.86      0.04      0.42      1.24 
   148.50     16.16     12.79     26.91      0.05      0.42      1.24 
   148.60     16.20     12.80     26.95      0.04      0.43      0.41 
   148.70     16.24     12.80     26.99      0.04      0.41      0.41 
   148.80     16.27     12.80     27.04      0.04      0.43      0.00 
   148.90     16.31     12.81     27.07      0.04      0.42      0.41 
   149.00     16.35     12.82     27.10      0.06      0.40      0.82 
   149.10     16.38     12.82     27.15      0.05      0.41      0.41 
   149.20     16.42     12.84     27.17      0.06      0.39      0.00 
   149.30     16.45     12.84     27.22      0.05      0.39      0.00 
   149.40     16.49     12.85     27.25      0.05      0.39      0.00 
   149.50     16.53     12.85     27.30      0.06      0.39      0.00 
   149.60     16.57     12.85     27.35      0.05      0.39      0.00 
   149.70     16.60     12.85     27.39      0.05      0.40      0.00 
   149.80     16.64     12.86     27.43      0.06      0.38      0.71 
   149.90     16.68     12.86     27.48      0.05      0.41      1.59 
   150.00     16.72     12.87     27.52      0.05      0.41      1.24 
   150.10     16.76     12.89     27.54      0.07      0.39      0.00 
   150.20     16.80     12.88     27.61      0.04      0.43      0.35 
   150.30     16.84     12.89     27.65      0.05      0.43      0.71 
   150.40     16.88     12.89     27.69      0.05      0.44      0.35 
   150.50     16.92     12.89     27.75      0.05      0.44      0.41 
   150.60     16.97     12.90     27.80      0.05      0.44      0.82 
   150.70     17.01     12.91     27.82      0.06      0.43      0.00 
   150.80     17.05     12.91     27.88      0.05      0.45      0.00 
   150.90     17.09     12.91     27.94      0.05      0.45      0.00 
   151.00     17.13     12.92     27.98      0.05      0.47      0.82 
   151.10     17.18     12.92     28.04      0.03      0.50      0.82 
   151.20     17.22     12.92     28.09      0.04      0.48      1.18 
   151.30     17.27     12.94     28.13      0.05      0.48      0.71 
   151.40     17.31     12.94     28.19      0.05      0.49      0.35 
   151.50     17.36     12.94     28.25      0.04      0.51      0.00 
   151.60     17.41     12.94     28.31      0.04      0.51      0.00 
   151.70     17.46     12.95     28.36      0.03      0.53      0.82 
   151.80     17.50     12.95     28.42      0.04      0.53      0.41 
   151.90     17.55     12.96     28.47      0.04      0.54      0.00 
   152.00     17.60     12.96     28.54      0.03      0.55      0.00 
   152.10     17.64     12.97     28.59      0.05      0.53      0.35 
   152.20     17.69     12.98     28.63      0.05      0.53      0.35 
   152.30     17.74     12.99     28.67      0.05      0.54      0.35 
   152.40     17.79     12.98     28.74      0.04      0.56      1.53 
   152.50     17.84     12.97     28.83      0.04      0.57      0.76 
   152.60     17.90     13.00     28.87      0.05      0.56      1.18 
   152.70     17.95     13.00     28.93      0.06      0.56      0.41 
   152.80     18.00     13.00     28.99      0.05      0.57      0.00 
   152.90     18.06     13.00     29.06      0.05      0.58      0.41 
   153.00     18.11     13.01     29.13      0.05      0.58      0.35 
   153.10     18.16     13.00     29.20      0.03      0.62      0.41 
   153.20     18.22     13.01     29.25      0.04      0.62      0.76 
   153.30     18.27     13.02     29.32      0.03      0.64      0.35 
   153.40     18.33     13.01     29.41      0.03      0.65      0.00 
   153.50     18.38     13.01     29.47      0.04      0.63      0.35 
   153.60     18.43     13.02     29.53      0.02      0.66      0.71 
   153.70     18.49     13.01     29.62      0.01      0.69      0.71 
   153.80     18.54     13.02     29.69      0.01      0.68      0.35 
   153.90     18.60     13.02     29.74      0.02      0.67      0.76 
   154.00     18.66     13.02     29.82      0.02      0.68      0.71 
   154.10     18.72     13.04     29.87      0.03      0.67      0.35 
   154.20     18.77     13.04     29.94      0.03      0.68      0.00 
   154.30     18.83     13.04     30.01      0.03      0.68      0.00 
   154.40     18.88     13.05     30.07      0.04      0.66      0.00 
   154.50     18.94     13.04     30.16      0.03      0.68      0.41 
   154.60     18.99     13.06     30.20      0.04      0.66      0.00 
   154.70     19.04     13.05     30.28      0.04      0.65      0.41 
   154.80     19.09     13.05     30.35      0.03      0.66      0.41 
   154.90     19.14     13.05     30.41      0.03      0.66      0.41 
   155.00     19.21     13.06     30.48      0.04      0.66      0.41 
   155.10     19.26     13.06     30.55      0.02      0.67      0.35 
   155.20     19.31     13.06     30.61      0.02      0.67      1.88 
   155.30     19.37     13.07     30.67      0.02      0.66      1.18 
   155.40     19.42     13.06     30.75      0.02      0.67      0.35 
   155.50     19.47     13.08     30.80      0.03      0.65      0.76 
   155.60     19.52     13.07     30.87      0.01      0.67      1.18 
   155.70     19.57     13.07     30.95      0.02      0.66      1.59 
   155.80     19.63     13.08     31.00      0.03      0.64      0.76 
   155.90     19.68     13.08     31.07      0.03      0.65      0.00 
   156.00     19.73     13.09     31.11      0.03      0.64      0.00 
   156.10     19.79     13.09     31.18      0.04      0.63      0.00 
   156.20     19.84     13.09     31.26      0.03      0.64      0.41 
   156.30     19.89     13.09     31.34      0.02      0.66      0.41 
   156.40     19.95     13.09     31.40      0.03      0.64      0.82 
   156.50     20.00     13.09     31.47      0.02      0.66      1.24 
   156.60     20.05     13.10     31.52      0.03      0.64      0.41 
   156.70     20.10     13.10     31.59      0.03      0.64      0.00 
   156.80     20.16     13.11     31.65      0.03      0.63      0.41 
   156.90     20.21     13.11     31.70      0.03      0.63      0.41 
   157.00     20.26     13.11     31.77      0.01      0.65      0.00 
   157.10     20.31     13.11     31.84      0.02      0.65      0.00 
   157.20     20.36     13.12     31.89      0.03      0.62      1.18 
   157.30     20.40     13.12     31.96      0.03      0.61      1.94 
   157.40     20.45     13.12     32.01      0.02      0.61      0.35 
   157.50     20.50     13.12     32.08      0.02      0.61      0.82 
   157.60     20.55     13.13     32.13      0.02      0.60      2.00 
   157.70     20.59     13.13     32.19      0.03      0.59      1.65 
   157.80     20.64     13.12     32.26      0.01      0.61      0.82 
