#Written by Robertson Geologging WinLogger V1.0/311
~VERSION INFORMATION
#------------------------------------------------------------------------------
 VERS. 2.0 : CWLS LOG ASCII STANDARD - VERSION 2.0
 WRAP. NO  : ONE LINE PER DEPTH STEP
~WELL INFORMATION
#MNEM.UNIT         DATA                                DESCRIPTION OF MNEMONIC
#------------------------------------------------------------------------------
 STRT.M         57.1000                            :   START DEPTH
 STOP.M        520.1000                            :   STOP DEPTH
 STEP.M          0.1000                            :   STEP VALUE
 NULL.        -999.2500                            :   NULL VALUE
 COMP.    IMC                                      :   COMPANY NAME
 WELL.    THERESA SHAFT                            :   WELL NAME
 FLD.     DAWDON                                   :   FIELD NAME
 LOC.     N/A                                      :   LOCATION
 PROV.    N/A                                      :   PROVINCE
 SRVC.    N/A                                      :   SERVICE COMPANY NAME
 DATE.    03 Oct 03                                :   DATE
 UWI.     N/A                                      :   UNIQUE WELL IDENTIFIER
~PARAMETER INFORMATION
#MNEMO.UNIT         VALUE                 DESCRIPTION OF MNEMONIC
#------------------------------------------------------------------------------
~OTHER INFORMATION SECTION
#------------------------------------------------------------------------------
 TCDS 2822
~CURVE INFORMATION
#MNEMO.UNIT         API CODE              CURVE DESCRIPTION
#------------------------------------------------------------------------------
 DEPTH.M                                 :   0     Depth
 TEMP.DegC                               :   1     Temperature
 COND.uS/cm                              :   2     Conductivity
 DELT.DegC                               :   3     Delta T
 DELC.uS/cm                              :   4     Delta C
 NGAM.API                                :   5     Natural Gamma
#------------------------------------------------------------------------------
~A  DEPTH     TEMP      COND      DELT      DELC      NGAM      
# ...
   360.70     18.66  49916.29      0.25     11.83      2.12 
   360.80     18.70  49912.28      0.27      5.10      1.29 
   360.90     18.75  49905.55      0.30     -4.34      0.41 
   361.00     18.79  49897.42      0.33    -14.97      2.47 
   361.10     18.81  49892.32      0.33    -23.00      2.88 
   361.20     18.82  49886.68      0.32    -32.01      2.88 
   361.30     18.83  49878.00      0.31    -42.09      1.65 
   361.40     18.84  49865.09      0.29    -55.00      1.24 
   361.50     18.84  49849.14      0.26    -70.95      1.65 
   361.60     18.87  49831.90      0.25    -86.67      3.35 
   361.70     18.89  49815.20      0.23   -100.34      2.53 
   361.80     18.90  49799.25      0.20   -112.27      1.65 
   361.90     18.90  49784.62      0.15   -119.31      0.88 
   362.00     18.91  49774.10      0.11   -122.56      0.88 
   362.10     18.89  49765.86      0.08   -125.70      1.24 
   362.20     18.90  49759.79      0.08   -125.81      2.06 
   362.30     18.90  49753.71      0.07   -122.11      1.24 
   362.40     18.90  49749.92      0.06   -113.65      1.24 
   362.50     18.91  49746.56      0.07   -100.96      3.71 
   362.60     18.90  49744.17      0.03    -85.45      3.29 
   362.70     18.91  49742.66      0.02    -70.26      2.06 
   362.80     18.91  49741.14      0.01    -56.49      1.65 
   362.90     18.92  49741.14      0.02    -41.63      2.12 
   363.00     18.93  49741.14      0.02    -32.20      4.24 
   363.10     18.91  49740.49      0.02    -23.85      4.59 
   363.20     18.92  49739.40      0.01    -18.11      2.88 
   363.30     18.92  49738.97      0.01    -13.55      0.82 
   363.40     18.92  49737.34      0.02    -13.33      1.24 
   363.50     18.91  49734.96      0.00    -11.60      0.00 
   363.60     18.92  49733.22      0.02    -10.95      1.24 
   363.70     18.93  49731.71      0.02    -11.71      2.88 
   363.80     18.93  49731.81      0.01    -10.08      2.47 
   363.90     18.93  49730.84      0.01    -11.06      1.29 
   364.00     18.93  49730.84      0.00    -10.30      1.29 
   364.10     18.92  49730.84      0.01     -9.65      1.65 
   364.20     18.92  49731.49      0.00     -8.67      0.82 
   364.30     18.93  49732.36      0.01     -6.61      0.82 
   364.40     18.93  49734.31      0.01     -3.79      1.24 
   364.50     18.92  49734.96      0.01      0.00      0.82 
   364.60     18.92  49737.24     -0.01      3.14      1.65 
   364.70     18.91  49739.62     -0.01      7.05      1.65 
   364.80     18.91  49741.25     -0.02      9.43      0.82 
   364.90     18.92  49744.07     -0.01     13.23      1.24 
   365.00     18.91  49746.56     -0.02     15.72      1.65 
   365.10     18.93  49747.97      0.01     16.26      1.24 
   365.20     18.94  49750.24      0.02     18.00      0.41 
   365.30     18.93  49751.98      0.00     18.65      0.41 
   365.40     18.93  49753.50      0.01     19.19      0.41 
   365.50     18.94  49755.77      0.02     20.82      0.82 
   365.60     18.94  49757.18      0.02     19.95      1.24 
   365.70     18.95  49759.79      0.03     20.92      1.65 
   365.80     18.94  49761.52      0.03     20.27      2.06 
   365.90     18.93  49763.58      0.01     19.52      2.06 
   366.00     18.94  49765.42      0.03     19.62      0.82 
   366.10     18.95  49768.24      0.01     20.27      0.82 
   366.20     18.95  49769.22      0.02     18.97      1.65 
   366.30     18.94  49772.04      0.02     20.06      2.06 
   366.40     18.95  49775.29      0.02     21.58      1.65 
   366.50     18.94  49775.94      0.01     20.17      0.82 
   366.60     18.94  49778.98      0.00     21.03      0.82 
   366.70     18.94  49780.60     -0.01     21.36      2.47 
   366.80     18.95  49782.12      0.01     20.60      3.71 
   366.90     18.96  49783.64      0.02     19.30      2.06 
   367.00     18.96  49784.29      0.02     18.87      1.71 
   367.10     18.94  49787.00     -0.01     18.76      2.12 
   367.20     18.96  49787.87      0.00     17.89      2.12 
   367.30     18.95  49789.60      0.01     16.81      1.71 
   367.40     18.96  49790.47      0.01     15.18      0.41 
   367.50     18.97  49793.07      0.03     16.37      0.41 
   367.60     18.96  49793.83      0.02     14.86      1.24 
   367.70     18.96  49795.46      0.01     14.86      1.65 
   367.80     18.95  49796.98      0.00     14.86      1.24 
   367.90     18.95  49797.74     -0.01     14.10      2.12 
   368.00     18.95  49798.50     -0.01     13.34      3.35 
   368.10     18.96  49800.99      0.03     13.99      1.65 
   368.20     18.95  49800.23     -0.01     12.36      1.24 
   368.30     18.95  49801.53      0.00     11.93      2.06 
   368.40     18.96  49802.29     -0.00     11.82      2.06 
   368.50     18.95  49803.05     -0.02      9.98      1.65 
   368.60     18.95  49803.05     -0.01      9.22      2.06 
   368.70     18.96  49803.92      0.00      8.46      2.88 
   368.80     18.96  49805.44      0.01      9.22      1.71 
   368.90     18.96  49804.57      0.01      6.83      3.82 
   369.00     18.96  49804.68      0.01      5.42      2.94 
   369.10     18.98  49805.54      0.01      5.31      0.41 
   369.20     18.98  49806.30      0.02      6.18      0.41 
   369.30     18.97  49806.41      0.02      4.88      1.65 
   369.40     18.97  49806.85      0.02      5.31      2.88 
   369.50     18.96  49807.61      0.01      5.31      0.00 
   369.60     18.97  49808.36      0.02      6.07      0.82 
   369.70     18.97  49809.88      0.00      6.72      1.65 
   369.80     18.97  49810.64      0.01      6.72      0.41 
   369.90     18.97  49811.62      0.01      7.70      1.24 
   370.00     18.96  49810.97      0.00      4.77      1.65 
   370.10     18.98  49811.62      0.00      5.31      1.35 
   370.20     18.99  49811.62      0.01      4.34      1.71 
   370.30     18.98  49813.14      0.01      5.21      0.76 
   370.40     18.98  49812.59      0.01      4.99      0.41 
   370.50     18.98  49813.14      0.02      4.01      0.41 
   370.60     19.00  49813.24      0.03      4.12      1.24 
   370.70     18.99  49814.44      0.02      4.55      0.82 
   370.80     18.98  49814.44      0.01      3.58      1.24 
   370.90     18.98  49815.20      0.01      4.34      1.24 
   371.00     18.98  49814.87      0.02      3.90      1.24 
   371.10     18.99  49814.11      0.01      2.49      0.82 
   371.20     18.99  49814.65     -0.00      2.49      1.29 
   371.30     18.99  49815.63      0.01      2.49      1.76 
   371.40     19.00  49815.20      0.01      2.60      2.53 
   371.50     18.99  49816.61      0.00      2.71      3.29 
   371.60     18.99  49815.63     -0.01      1.63      2.88 
   371.70     18.99  49816.39      0.00      1.19      0.41 
   371.80     19.00  49817.47      0.02      2.28      1.65 
   371.90     18.99  49816.71      0.01      2.06      2.12 
   372.00     18.99  49817.69      0.01      3.58      2.53 
   372.10     19.00  49817.91      0.01      3.25      2.47 
   372.20     19.00  49817.69      0.01      3.04      2.06 
   372.30     18.99  49817.91      0.00      2.28      1.65 
   372.40     18.99  49818.67     -0.00      3.47      1.24 
   372.50     18.99  49818.23      0.01      1.63      1.24 
   372.60     18.99  49819.43     -0.00      3.25      1.24 
   372.70     19.00  49820.19      0.01      3.80      1.24 
   372.80     18.99  49819.43     -0.00      2.71      1.65 
   372.90     19.00  49820.94      0.01      4.23      2.06 
   373.00     19.00  49819.86      0.00      2.17      3.29 
   373.10     19.00  49821.27     -0.00      3.36      1.24 
   373.20     19.00  49820.73     -0.00      3.04      1.65 
   373.30     19.00  49821.70      0.01      3.04      2.06 
   373.40     19.00  49821.70      0.00      3.04      1.65 
   373.50     19.00  49821.70      0.01      3.47      0.82 
   373.60     18.99  49822.03      0.01      2.60      0.00 
   373.70     18.99  49823.55     -0.01      4.12      0.41 
   373.80     18.99  49822.90     -0.01      2.71      1.65 
