#Written by Robertson Geologging WinLogger V1.0/312
~VERSION INFORMATION
#------------------------------------------------------------------------------
 VERS. 2.0 : CWLS LOG ASCII STANDARD - VERSION 2.0
 WRAP. NO  : ONE LINE PER DEPTH STEP
~WELL INFORMATION
#MNEM.UNIT         DATA                                DESCRIPTION OF MNEMONIC
#------------------------------------------------------------------------------
 STRT.M         56.2000                            :   START DEPTH
 STOP.M        520.0000                            :   STOP DEPTH
 STEP.M          0.1000                            :   STEP VALUE
 NULL.        -999.2500                            :   NULL VALUE
 COMP.    I.M..C.                                  :   COMPANY NAME
 WELL.    Dawdon Shaft                             :   WELL NAME
 FLD.     Dawdon                                   :   FIELD NAME
 LOC.     N/A                                      :   LOCATION
 PROV.    N/A                                      :   PROVINCE
 SRVC.    N/A                                      :   SERVICE COMPANY NAME
 DATE.    30 Jan 04                                :   DATE
 UWI.     N/A                                      :   UNIQUE WELL IDENTIFIER
~PARAMETER INFORMATION
#MNEMO.UNIT         VALUE                 DESCRIPTION OF MNEMONIC
#------------------------------------------------------------------------------
~OTHER INFORMATION SECTION
#------------------------------------------------------------------------------
 TCGX extended range 1365
~CURVE INFORMATION
#MNEMO.UNIT         API CODE              CURVE DESCRIPTION
#------------------------------------------------------------------------------
 DEPTH.M                                 :   0     Depth
 COND.mS/cm                              :   1     Conductivity
 TEMP.DegC                               :   2     Temperature
 C@25.mS/cm                              :   3     Conductivity @25Deg
 DELT.DegC                               :   4     Delta T
 DC@25.mS/cm                             :   5     Delta C @25Deg
 OUT4.CPS                                :   6     Natural Gamma
#------------------------------------------------------------------------------
~A  DEPTH     COND      TEMP      C@25      DELT      DC@25     OUT4      
# ...
   112.70      6.05     11.86     14.64      0.01     -0.02      0.41 
   112.80      6.05     11.85     14.65     -0.01      0.02      0.41 
   112.90      6.05     11.86     14.65      0.00      0.00      0.41 
   113.00      6.05     11.85     14.65      0.00     -0.01      0.00 
   113.10      6.05     11.86     14.65      0.01     -0.02      0.41 
   113.20      6.05     11.85     14.66     -0.00      0.00      0.00 
   113.30      6.05     11.84     14.66     -0.01      0.01      0.41 
   113.40      6.05     11.85     14.66      0.00     -0.00      0.82 
   113.50      6.05     11.85     14.64      0.00     -0.01      0.82 
   113.60      6.05     11.84     14.67     -0.01      0.01      1.24 
   113.70      6.05     11.84     14.67     -0.03      0.04      0.41 
   113.80      6.05     11.85     14.65      0.00     -0.00      0.00 
   113.90      6.05     11.84     14.67     -0.02      0.02      0.00 
   114.00      6.05     11.85     14.65      0.01     -0.00      0.41 
   114.10      6.05     11.84     14.66     -0.01      0.01      0.41 
   114.20      6.05     11.85     14.66      0.00     -0.00      0.00 
   114.30      6.05     11.86     14.64      0.01     -0.02      0.41 
   114.40      6.05     11.86     14.65      0.01     -0.01      0.00 
   114.50      6.05     11.85     14.65      0.00      0.00      0.00 
   114.60      6.05     11.85     14.66      0.01     -0.01      0.35 
   114.70      6.05     11.85     14.65      0.01     -0.01      0.71 
   114.80      6.05     11.84     14.66     -0.00      0.00      0.76 
   114.90      6.05     11.85     14.66      0.01     -0.01      0.41 
   115.00      6.05     11.86     14.65      0.01     -0.01      0.41 
   115.10      6.05     11.84     14.66      0.00     -0.00      0.41 
   115.20      6.05     11.84     14.66     -0.01      0.01      0.00 
   115.30      6.05     11.84     14.66     -0.01      0.02      0.41 
   115.40      6.04     11.84     14.66     -0.02      0.01      0.82 
   115.50      6.05     11.84     14.67     -0.01      0.02      1.24 
   115.60      6.05     11.84     14.67     -0.00      0.01      1.18 
   115.70      6.05     11.84     14.66     -0.01      0.00      0.35 
   115.80      6.05     11.85     14.65      0.00     -0.00      0.41 
   115.90      6.05     11.85     14.66      0.00      0.00      0.41 
   116.00      6.05     11.84     14.67     -0.02      0.02      0.82 
   116.10      6.05     11.84     14.67     -0.00      0.00      0.82 
   116.20      6.05     11.84     14.67     -0.01      0.01      0.00 
   116.30      6.05     11.84     14.66     -0.00      0.00      0.41 
   116.40      6.05     11.84     14.67     -0.00      0.01      0.41 
   116.50      6.05     11.85     14.66      0.01     -0.01      0.76 
   116.60      6.05     11.84     14.66     -0.00     -0.00      1.18 
   116.70      6.05     11.84     14.67     -0.00      0.01      0.00 
   116.80      6.05     11.84     14.66     -0.01      0.01      0.41 
   116.90      6.05     11.84     14.67     -0.01      0.01      0.82 
   117.00      6.05     11.84     14.66      0.01     -0.00      0.41 
   117.10      6.05     11.84     14.66      0.00     -0.01      0.76 
   117.20      6.05     11.84     14.67      0.00     -0.00      0.76 
   117.30      6.05     11.84     14.66      0.00     -0.01      0.35 
   117.40      6.05     11.84     14.67     -0.00      0.00      0.82 
   117.50      6.05     11.84     14.67     -0.01      0.01      0.41 
   117.60      6.05     11.84     14.67     -0.00      0.01      0.82 
   117.70      6.05     11.83     14.68     -0.00      0.01      0.82 
   117.80      6.06     11.85     14.67      0.00      0.01      0.41 
   117.90      6.08     11.84     14.71     -0.00      0.04      0.41 
   118.00      6.09     11.85     14.71      0.01      0.04      1.24 
   118.10      6.10     11.87     14.70      0.03      0.04      1.65 
   118.20      6.10     11.87     14.70      0.03      0.04      1.24 
   118.30      6.11     11.88     14.71      0.04      0.04      0.41 
   118.40      6.12     11.89     14.71      0.05      0.04      0.82 
   118.50      6.13     11.90     14.70      0.06      0.03      0.00 
   118.60      6.13     11.91     14.69      0.08      0.03      0.00 
   118.70      6.14     11.93     14.69      0.09      0.02      0.00 
   118.80      6.15     11.94     14.68      0.09      0.01      0.41 
   118.90      6.15     11.94     14.69      0.10     -0.03      0.41 
   119.00      6.16     11.96     14.66      0.11     -0.04      0.00 
   119.10      6.16     11.95     14.68      0.08     -0.01      0.00 
   119.20      6.16     11.97     14.67      0.10     -0.03      0.41 
   119.30      6.17     11.96     14.68      0.08     -0.03      0.41 
   119.40      6.17     11.97     14.68      0.09     -0.04      0.00 
   119.50      6.18     11.98     14.68      0.08     -0.02      0.41 
   119.60      6.18     11.96     14.71      0.04      0.02      0.41 
   119.70      6.19     11.96     14.71      0.04      0.02      0.00 
   119.80      6.20     11.98     14.71      0.04      0.02      0.82 
   119.90      6.20     11.97     14.72      0.04      0.02      0.82 
   120.00      6.21     11.97     14.73      0.01      0.06      0.00 
   120.10      6.22     11.98     14.72      0.03      0.04      0.41 
   120.20      6.22     11.99     14.72      0.02      0.05      0.82 
   120.30      6.23     11.99     14.73      0.03      0.05      0.82 
   120.40      6.24     11.99     14.74      0.02      0.06      0.41 
   120.50      6.25     11.99     14.76      0.01      0.07      0.82 
   120.60      6.26     12.01     14.76      0.05      0.05      0.82 
   120.70      6.28     12.01     14.78      0.04      0.08      0.41 
   120.80      6.30     12.03     14.78      0.05      0.07      0.00 
   120.90      6.31     12.03     14.79      0.06      0.08      0.00 
   121.00      6.33     12.04     14.80      0.07      0.08      0.35 
   121.10      6.35     12.04     14.82      0.06      0.10      0.71 
   121.20      6.36     12.05     14.84      0.06      0.12      0.35 
   121.30      6.38     12.05     14.86      0.06      0.13      0.41 
   121.40      6.40     12.04     14.89      0.05      0.16      0.82 
   121.50      6.42     12.05     14.92      0.06      0.16      0.41 
   121.60      6.44     12.06     14.93      0.06      0.17      0.00 
   121.70      6.46     12.07     14.96      0.06      0.17      0.00 
   121.80      6.48     12.07     14.98      0.04      0.20      0.35 
   121.90      6.50     12.07     15.01      0.03      0.22      1.18 
   122.00      6.52     12.08     15.03      0.04      0.22      1.24 
   122.10      6.54     12.07     15.06      0.03      0.23      0.41 
   122.20      6.57     12.08     15.07      0.03      0.23      0.35 
   122.30      6.58     12.08     15.10      0.02      0.24      0.35 
   122.40      6.61     12.08     15.12      0.04      0.22      0.00 
   122.50      6.63     12.09     15.15      0.03      0.24      0.35 
   122.60      6.65     12.09     15.19      0.02      0.25      0.00 
   122.70      6.68     12.09     15.21      0.03      0.25      0.00 
   122.80      6.70     12.09     15.23      0.03      0.25      0.41 
   122.90      6.72     12.09     15.26      0.03      0.26      0.41 
   123.00      6.75     12.10     15.29      0.03      0.26      0.41 
   123.10      6.77     12.09     15.33      0.02      0.27      0.41 
   123.20      6.79     12.11     15.34      0.03      0.26      0.00 
   123.30      6.81     12.10     15.38      0.02      0.28      0.82 
   123.40      6.84     12.11     15.41      0.03      0.28      1.24 
   123.50      6.87     12.11     15.45      0.02      0.29      0.35 
   123.60      6.89     12.12     15.47      0.03      0.28      0.35 
   123.70      6.91     12.12     15.50      0.02      0.29      0.41 
   123.80      6.94     12.12     15.52      0.03      0.29      0.41 
   123.90      6.96     12.12     15.57      0.02      0.29      0.35 
