#Written by Robertson Geologging WinLogger V1.0/370
~VERSION INFORMATION
#------------------------------------------------------------------------------
 VERS. 2.0 : CWLS LOG ASCII STANDARD - VERSION 2.0
 WRAP. NO  : ONE LINE PER DEPTH STEP
~WELL INFORMATION
#MNEM.UNIT         DATA                                DESCRIPTION OF MNEMONIC
#------------------------------------------------------------------------------
 STRT.M         37.0600                            :   START DEPTH
 STOP.M        510.0000                            :   STOP DEPTH
 STEP.M          0.0100                            :   STEP VALUE
 NULL.        -999.2500                            :   NULL VALUE
 COMP.    WHITE YOUN GREEN                         :   COMPANY NAME
 WELL.    DAWDON SHAFT                             :   WELL NAME
 FLD.     DAWDON                                   :   FIELD NAME
 LOC.     N/A                                      :   LOCATION
 PROV.    N/A                                      :   PROVINCE
 SRVC.    N/A                                      :   SERVICE COMPANY NAME
 DATE.    13 Dec 06                                :   DATE
 UWI.     N/A                                      :   UNIQUE WELL IDENTIFIER
~PARAMETER INFORMATION
#MNEMO.UNIT         VALUE                 DESCRIPTION OF MNEMONIC
#------------------------------------------------------------------------------
~OTHER INFORMATION SECTION
#------------------------------------------------------------------------------
 lLOGGING DOWN
~CURVE INFORMATION
#MNEMO.UNIT         API CODE              CURVE DESCRIPTION
#------------------------------------------------------------------------------
 DEPTH.M                                 :   0     Depth
 TEMP.DegC                               :   1     Temperature
 CN25.mS/cm                              :   2     Conductivity@25DegC
 COND.mS/cm                              :   3     Conductivity
 DELT.DegC                               :   4     Delta T
 DELC.mS/cm                              :   5     Delta C
 NGAM.CPS                                :   6     Natural Gamma
#------------------------------------------------------------------------------
~A  DEPTH     TEMP      CN25      COND      DELT      DELC      NGAM      
    37.06      0.00     15.89      0.00      0.00      0.00      0.00 
    37.07      0.00     15.89      0.00      0.00      0.00      0.00 
    37.08      0.00     15.89      0.00      0.00      0.00      0.00 
    37.09      0.00     15.89      0.00      0.00      0.00      0.00 
    37.10      0.00     15.89      0.00      0.00      0.00      0.00 
    37.11      0.00     15.89      0.00      0.00      0.00      0.00 
    37.12      0.00     15.89      0.00      0.00      0.00      0.00 
    37.13      0.00     15.89      0.00      0.00      0.00      0.00 
    37.14      0.00     15.89      0.00      0.00      0.00      0.00 
    37.15      0.00     15.89      0.00      0.00      0.00      0.00 
    37.16      0.00     15.89      0.00      0.00      0.00      0.00 
    37.17      0.00     15.89      0.00      0.00      0.00      0.00 
    37.18      0.00     15.89      0.00      0.00      0.00      0.00 
    37.19      0.00     15.89      0.00      0.00      0.00      0.00 
    37.20      0.00     15.89      0.00      0.00      0.00      0.00 
    37.21      0.00     15.89      0.00      0.00      0.00      0.00 
    37.22      0.00     15.89      0.00      0.00      0.00      0.00 
    37.23      0.00     15.89      0.00      0.00      0.00      0.00 
    37.24      0.00     15.89      0.00      0.00      0.00      0.00 
    37.25      0.00     15.89      0.00      0.00      0.00      0.00 
    37.26      0.00     15.89      0.00      0.00      0.00      0.00 
    37.27      0.00     15.89      0.00      0.00      0.00      0.00 
    37.28      0.00     15.89      0.00      0.00      0.00      0.00 
    37.29      0.00     15.89      0.00      0.00      0.00      0.00 
    37.30      0.00     15.89      0.00      0.00      0.00      0.00 
    37.31      0.00     15.89      0.00      0.00      0.00      0.00 
    37.32      0.00     15.89      0.00      0.00      0.00      0.00 
    37.33      0.00     15.89      0.00      0.00      0.00      0.00 
    37.34      0.00     15.89      0.00      0.00      0.00      0.00 
    37.35      0.00     15.89      0.00      0.00      0.00      0.00 
    37.36      0.00     15.89      0.00      0.00      0.00      0.00 
    37.37      0.00     15.89      0.00      0.00      0.00      0.00 
    37.38      0.00     15.89      0.00      0.00      0.00      0.00 
    37.39      0.00     15.89      0.00      0.00      0.00      0.00 
    37.40      0.00     15.89      0.00      0.00      0.00      0.00 
    37.41      0.00     15.89      0.00      0.00      0.00      0.00 
    37.42      0.00     15.89      0.00      0.00      0.00      0.00 
    37.43      0.00     15.89      0.00      0.00      0.00      0.00 
    37.44      0.00     15.89      0.00      0.00      0.00      0.00 
    37.45      0.00     15.89      0.00      0.00      0.00      0.00 
    37.46      0.00     15.89      0.00      0.00      0.00      0.00 
    37.47      0.00     15.89      0.00      0.00      0.00      0.00 
    37.48      0.00     15.89      0.00      0.00      0.00      0.00 
    37.49      0.00     15.89      0.00      0.00      0.00      0.00 
    37.50      0.00     15.89      0.00      0.00      0.00      0.00 
    37.51      0.00     15.89      0.00      0.00      0.00      0.00 
    37.52      0.00     15.89      0.00      0.00      0.00      0.00 
    37.53      0.00     15.89      0.00      0.00      0.00      0.00 
    37.54      0.00     15.89      0.00      0.00      0.00      0.00 
    37.55      0.00     15.89      0.00      0.00      0.00      0.00 
    37.56      0.00     15.89      0.00      0.00      0.00      0.00 
    37.57      0.00     15.89      0.00      0.00      0.00      0.00 
    37.58      0.00     15.89      0.00      0.00      0.00      0.00 
    37.59      0.00     15.89      0.00      0.00      0.00      0.00 
    37.60      0.00     15.89      0.00      0.00      0.00      0.00 
    37.61      0.00     15.89      0.00      0.00      0.00      0.00 
    37.62      0.00     15.89      0.00      0.00      0.00      0.00 
    37.63      0.00     15.89      0.00      0.00      0.00      0.00 
    37.64      0.00     15.89      0.00      0.00      0.00      0.00 
    37.65      0.00     15.89      0.00      0.00      0.00      0.00 
    37.66      0.00     15.89      0.00      0.00      0.00      0.00 
    37.67      0.00     15.89      0.00      0.00      0.00      0.00 
    37.68      0.00     15.89      0.00      0.00      0.00      0.00 
    37.69      0.00     15.89      0.00      0.00      0.00      0.00 
    37.70      0.00     15.89      0.00      0.00      0.00      0.00 
    37.71      0.00     15.89      0.00      0.00      0.00      0.00 
    37.72      0.00     15.89      0.00      0.00      0.00      0.00 
    37.73      0.00     15.89      0.00      0.00      0.00      0.00 
    37.74      0.00     15.89      0.00      0.00      0.00      0.00 
    37.75      0.00     15.89      0.00      0.00      0.00      0.00 
    37.76      0.00     15.89      0.00      0.00      0.00      0.00 
    37.77      0.00     15.89      0.00      0.00      0.00      0.00 
    37.78      0.00     15.89      0.00      0.00      0.00      0.00 
    37.79      0.00     15.89      0.00      0.00      0.00      0.00 
    37.80      0.00     15.89      0.00      0.00      0.00      0.00 
    37.81      0.00     15.89      0.00      0.00      0.00      0.00 
    37.82      0.00     15.89      0.00      0.00      0.00      0.00 
    37.83      0.00     15.89      0.00      0.00      0.00      0.00 
    37.84      0.00     15.89      0.00      0.00      0.00      0.00 
    37.85      0.00     15.89      0.00      0.00      0.00      0.00 
    37.86      0.00     15.89      0.00      0.00      0.00      0.00 
    37.87      0.00     15.89      0.00      0.00      0.00      0.00 
    37.88      0.00     15.89      0.00      0.00      0.00      0.00 
    37.89      0.00     15.89      0.00      0.00      0.00      0.00 
    37.90      0.00     15.89      0.00      0.00      0.00      0.00 
    37.91      0.00     15.89      0.00      0.00      0.00      0.00 
    37.92      0.00     15.89      0.00      0.00      0.00      0.00 
    37.93      0.00     15.89      0.00      0.00      0.00      0.00 
    37.94      0.00     15.89      0.00      0.00      0.00      0.00 
    37.95      0.00     15.89      0.00      0.00      0.00      0.00 
    37.96      0.00     15.89      0.00      0.00      0.00      0.00 
    37.97      0.00     15.89      0.00      0.00      0.00      0.00 
    37.98      0.00     15.89      0.00      0.00      0.00      0.00 
    37.99      0.00     15.89      0.00      0.00      0.00      0.00 
    38.00      0.00     15.89      0.00      0.00      0.00      0.00 
    38.01      0.00     15.89      0.00      0.00      0.00      0.00 
    38.02      0.00     15.89      0.00      0.00      0.00      0.00 
    38.03      0.00     15.89      0.00      0.00      0.00      0.00 
    38.04      0.00     15.89      0.00      0.00      0.00      0.00 
    38.05      0.00     15.89      0.00      0.00      0.00      0.00 
    38.06      0.00     15.89      0.00      0.00      0.00      0.00 
    38.07      0.00     15.89      0.00      0.00      0.00      0.00 
    38.08      0.00     15.89      0.00      0.00      0.00      0.00 
    38.09      0.00     15.89      0.00      0.00      0.00      0.00 
    38.10      0.00     15.89      0.00      0.00      0.00      0.00 
    38.11      0.00     15.89      0.00      0.00      0.00      0.00 
    38.12      0.00     15.89      0.00      0.00      0.00      0.00 
    38.13      0.00     15.89      0.00      0.00      0.00      0.00 
    38.14      0.00     15.89      0.00      0.00      0.00      0.00 
    38.15      0.00     15.89      0.00      0.00      0.00      0.00 
    38.16      0.00     15.89      0.00      0.00      0.00      0.00 
    38.17      0.00     15.89      0.00      0.00      0.00      0.00 
    38.18      0.00     15.89      0.00      0.00      0.00      0.00 
