#Written by Robertson Geologging WinLogger V1.0/406
~VERSION INFORMATION
#------------------------------------------------------------------------------
 VERS. 2.0 : CWLS LOG ASCII STANDARD - VERSION 2.0
 WRAP. NO  : ONE LINE PER DEPTH STEP
~WELL INFORMATION
#MNEM.UNIT         DATA                                DESCRIPTION OF MNEMONIC
#------------------------------------------------------------------------------
 STRT.M         40.0600                            :   START DEPTH
 STOP.M        498.0000                            :   STOP DEPTH
 STEP.M          0.0100                            :   STEP VALUE
 NULL.        -999.2500                            :   NULL VALUE
 COMP.    Coal Authority                           :   COMPANY NAME
 WELL.    Dawdon                                   :   WELL NAME
 FLD.     N/A                                      :   FIELD NAME
 LOC.     N/A                                      :   LOCATION
 PROV.    N/A                                      :   PROVINCE
 SRVC.    N/A                                      :   SERVICE COMPANY NAME
 DATE.    30 Sep 08                                :   DATE
 UWI.     N/A                                      :   UNIQUE WELL IDENTIFIER
~PARAMETER INFORMATION
#MNEMO.UNIT         VALUE                 DESCRIPTION OF MNEMONIC
#------------------------------------------------------------------------------
~OTHER INFORMATION SECTION
#------------------------------------------------------------------------------
 TCGS2822
~CURVE INFORMATION
#MNEMO.UNIT         API CODE              CURVE DESCRIPTION
#------------------------------------------------------------------------------
 DEPTH.M                                 :   0     Depth
 TEMP.DegC                               :   1     Temperature
 COND.uS/cm                              :   2     Conductivity
 DELT.DegC                               :   3     Delta T
 DELC.uS/cm                              :   4     Delta C
 NGAM.CPS                                :   5     Natural Gamma
#------------------------------------------------------------------------------
~A  DEPTH     TEMP      COND      DELT      DELC      NGAM      
# ...
   436.06     21.66  46606.23      0.03     19.98      8.00 
   436.07     21.67  46596.82      0.04      0.00      0.00 
   436.08     21.67  46596.82      0.03      0.00      8.00 
   436.09     21.66  46596.82      0.04      0.00      0.00 
   436.10     21.66  46586.24      0.05      0.00      0.00 
   436.11     21.65  46596.82      0.03      0.00      0.00 
   436.12     21.66  46596.82      0.04     19.98      0.00 
   436.13     21.65  46596.82      0.03      0.00      0.00 
   436.14     21.63  46606.23      0.02      9.40      0.00 
   436.15     21.63  46586.24      0.01      0.00      0.00 
   436.16     21.63  46608.58      0.02     11.75      0.00 
   436.17     21.63  46596.82      0.00      0.00      8.00 
   436.18     21.63  46596.82     -0.01     10.58      0.00 
   436.19     21.64  46596.82     -0.01      0.00      0.00 
   436.20     21.63  46596.82     -0.02      0.00      0.00 
   436.21     21.64  46596.82      0.00      0.00      8.00 
   436.22     21.65  46596.82      0.01     10.58      0.00 
   436.23     21.65  46596.82      0.02      0.00      8.00 
   436.24     21.65  46596.82      0.01      0.00     16.00 
   436.25     21.63  46596.82      0.00     10.58      8.00 
   436.26     21.63  46596.82      0.00     10.58      0.00 
   436.27     21.64  46596.82      0.00      0.00      0.00 
   436.28     21.63  46596.82     -0.01      0.00      0.00 
   436.29     21.64  46596.82     -0.00      0.00      0.00 
   436.30     21.64  46606.23     -0.00     19.98      0.00 
   436.31     21.63  46596.82     -0.02      0.00      8.00 
   436.32     21.64  46596.82      0.01      0.00      8.00 
   436.33     21.64  46596.82     -0.01      0.00      8.00 
   436.34     21.64  46586.24     -0.01    -10.58      0.00 
   436.35     21.64  46596.82     -0.02     10.58      0.00 
   436.36     21.63  46606.23     -0.03      9.40      8.00 
   436.37     21.63  46596.82     -0.02     10.58      0.00 
   436.38     21.63  46596.82     -0.02      0.00      0.00 
   436.39     21.64  46596.82      0.00      0.00      0.00 
   436.40     21.64  46596.82      0.00      0.00      0.00 
   436.41     21.64  46606.23      0.01      9.40      0.00 
   436.42     21.65  46596.82      0.02      0.00      0.00 
   436.43     21.64  46596.82      0.01      0.00      0.00 
   436.44     21.65  46596.82      0.02      0.00      0.00 
   436.45     21.65  46596.82      0.02      0.00      8.00 
   436.46     21.63  46586.24      0.02    -10.58      0.00 
   436.47     21.64  46605.05      0.03     18.81      7.00 
   436.48     21.64  46596.82      0.02      0.00      0.00 
   436.49     21.65  46596.82      0.02     10.58      0.00 
   436.50     21.65  46596.82      0.01      0.00      0.00 
   436.51     21.64  46596.82      0.01      0.00      0.00 
   436.52     21.63  46606.23      0.01      9.40      0.00 
   436.53     21.63  46596.82      0.00      0.00      0.00 
   436.54     21.62  46596.82     -0.01      0.00      0.00 
   436.55     21.63  46596.82     -0.01      0.00     16.00 
   436.56     21.64  46596.82     -0.02      0.00      8.00 
   436.57     21.63  46596.82     -0.02      0.00      8.00 
   436.58     21.63  46596.82     -0.02      0.00      0.00 
   436.59     21.62  46596.82     -0.02      0.00      0.00 
   436.60     21.62  46596.82     -0.03      0.00      0.00 
   436.61     21.63  46606.23     -0.03     19.98      0.00 
   436.62     21.64  46596.82     -0.01      0.00      0.00 
   436.63     21.64  46596.82     -0.01      0.00      0.00 
   436.64     21.63  46596.82     -0.01      0.00      8.00 
   436.65     21.64  46606.23      0.00      9.40      8.00 
   436.66     21.64  46596.82     -0.01      0.00      0.00 
   436.67     21.63  46596.82     -0.01      0.00      0.00 
   436.68     21.64  46606.23     -0.01      9.40      0.00 
   436.69     21.63  46596.82     -0.02      0.00      0.00 
   436.70     21.63  46586.24     -0.02    -10.58      0.00 
   436.71     21.62  46606.23     -0.04      9.40      0.00 
   436.72     21.62  46596.82     -0.04      0.00      0.00 
   436.73     21.62  46606.23     -0.04     19.98      0.00 
   436.74     21.62  46596.82     -0.04      0.00      0.00 
   436.75     21.62  46596.82     -0.03      0.00     16.00 
   436.76     21.62  46606.23     -0.03      9.40      0.00 
   436.77     21.61  46596.82     -0.03      0.00      8.00 
   436.78     21.60  46596.82     -0.04      0.00      0.00 
   436.79     21.60  46606.23     -0.05      0.00      0.00 
   436.80     21.60  46596.82     -0.05      0.00      0.00 
   436.81     21.62  46605.05     -0.03      8.23      7.00 
   436.82     21.64  46596.82     -0.02      0.00      0.00 
   436.83     21.65  46596.82      0.00      0.00      0.00 
   436.84     21.66  46596.82      0.01      0.00      8.00 
   436.85     21.65  46596.82      0.01     10.58      0.00 
   436.86     21.65  46606.23      0.02      0.00      0.00 
   436.87     21.64  46596.82      0.00      0.00      0.00 
   436.88     21.63  46606.23      0.00      9.40      0.00 
   436.89     21.63  46596.82     -0.01      0.00      0.00 
   436.90     21.64  46596.82     -0.02      0.00     16.00 
   436.91     21.64  46606.23     -0.01      9.40      0.00 
   436.92     21.65  46605.05     -0.00      8.23      0.00 
   436.93     21.65  46596.82     -0.01      0.00      0.00 
   436.94     21.63  46606.23     -0.01      0.00      0.00 
   436.95     21.63  46586.24     -0.01    -10.58      8.00 
   436.96     21.63  46596.82      0.00      0.00      0.00 
   436.97     21.62  46606.23     -0.01     19.98      8.00 
   436.98     21.62  46596.82     -0.01      0.00      8.00 
   436.99     21.63  46606.23     -0.01      9.40      0.00 
   437.00     21.62  46606.23     -0.02      9.40      0.00 
   437.01     21.62  46596.82     -0.01      0.00      0.00 
   437.02     21.61  46606.23     -0.03      9.40      0.00 
   437.03     21.61  46596.82     -0.03     -9.40      0.00 
   437.04     21.61  46606.23     -0.03     19.98      0.00 
   437.05     21.62  46606.23     -0.03      0.00      0.00 
   437.06     21.64  46596.82     -0.03      0.00      0.00 
   437.07     21.65  46596.82     -0.01      0.00      0.00 
   437.08     21.67  46606.23      0.00      9.40      0.00 
   437.09     21.65  46596.82     -0.01     10.58      0.00 
   437.10     21.65  46606.23     -0.00      9.40      0.00 
   437.11     21.64  46606.23     -0.02      9.40      8.00 
   437.12     21.63  46596.82     -0.02      0.00      8.00 
   437.13     21.64  46606.23      0.00      0.00      0.00 
   437.14     21.64  46606.23      0.01     19.98      0.00 
   437.15     21.65  46596.82      0.01    -11.75      0.00 
   437.16     21.65  46606.23      0.02      9.40      0.00 
   437.17     21.65  46606.23      0.01      9.40      8.00 
   437.18     21.65  46596.82      0.01      0.00      8.00 
   437.19     21.63  46596.82      0.00      0.00      0.00 
   437.20     21.62  46606.23     -0.02      9.40      0.00 
   437.21     21.62  46596.82     -0.03      0.00     16.00 
   437.22     21.62  46606.23     -0.03      9.40      0.00 
   437.23     21.62  46596.82     -0.02      0.00      0.00 
   437.24     21.63  46606.23      0.00      9.40      0.00 
   437.25     21.63  46608.58      0.00     11.75      0.00 
   437.26     21.64  46596.82      0.00      0.00      0.00 
   437.27     21.65  46606.23      0.02      9.40      0.00 
   437.28     21.65  46596.82      0.01      0.00      0.00 
   437.29     21.65  46606.23      0.01      0.00      0.00 
   437.30     21.65  46606.23      0.02      9.40      0.00 
   437.31     21.63  46596.82     -0.01      0.00      0.00 
   437.32     21.62  46596.82     -0.01      0.00      0.00 
   437.33     21.63  46606.23     -0.01     19.98      8.00 
   437.34     21.63  46596.82     -0.00      0.00      0.00 
   437.35     21.65  46606.23      0.01      0.00      0.00 
   437.36     21.66  46606.23      0.03      9.40      0.00 
   437.37     21.65  46596.82      0.02      0.00      0.00 
