#Written by Robertson Geologging WinLogger V1.0/311
~VERSION INFORMATION
#------------------------------------------------------------------------------
 VERS. 2.0 : CWLS LOG ASCII STANDARD - VERSION 2.0
 WRAP. NO  : ONE LINE PER DEPTH STEP
~WELL INFORMATION
#MNEM.UNIT         DATA                                DESCRIPTION OF MNEMONIC
#------------------------------------------------------------------------------
 STRT.M         57.1000                            :   START DEPTH
 STOP.M        520.1000                            :   STOP DEPTH
 STEP.M          0.1000                            :   STEP VALUE
 NULL.        -999.2500                            :   NULL VALUE
 COMP.    IMC                                      :   COMPANY NAME
 WELL.    THERESA SHAFT                            :   WELL NAME
 FLD.     DAWDON                                   :   FIELD NAME
 LOC.     N/A                                      :   LOCATION
 PROV.    N/A                                      :   PROVINCE
 SRVC.    N/A                                      :   SERVICE COMPANY NAME
 DATE.    03 Oct 03                                :   DATE
 UWI.     N/A                                      :   UNIQUE WELL IDENTIFIER
~PARAMETER INFORMATION
#MNEMO.UNIT         VALUE                 DESCRIPTION OF MNEMONIC
#------------------------------------------------------------------------------
~OTHER INFORMATION SECTION
#------------------------------------------------------------------------------
 TCDS 2822
~CURVE INFORMATION
#MNEMO.UNIT         API CODE              CURVE DESCRIPTION
#------------------------------------------------------------------------------
 DEPTH.M                                 :   0     Depth
 TEMP.DegC                               :   1     Temperature
 COND.uS/cm                              :   2     Conductivity
 DELT.DegC                               :   3     Delta T
 DELC.uS/cm                              :   4     Delta C
 NGAM.API                                :   5     Natural Gamma
#------------------------------------------------------------------------------
~A  DEPTH     TEMP      COND      DELT      DELC      NGAM      
# ...
   387.10     19.02  49851.53      0.01      0.87      1.35 
   387.20     19.01  49851.64     -0.02      0.87      1.35 
   387.30     19.01  49851.53     -0.01      0.76      0.47 
   387.40     19.01  49851.64     -0.01      0.87      1.35 
   387.50     19.02  49853.48     -0.00      2.82      0.88 
   387.60     19.02  49852.72      0.00      1.95      0.47 
   387.70     19.02  49853.37      0.01      2.60      1.82 
   387.80     19.03  49854.13      0.01      3.15      2.71 
   387.90     19.01  49853.48     -0.01      1.74      2.71 
   388.00     19.02  49854.46     -0.01      2.82      1.76 
   388.10     19.02  49853.48     -0.01      1.95      1.29 
   388.20     19.02  49854.46      0.01      2.82      0.41 
   388.30     19.02  49854.13      0.01      2.60      1.35 
   388.40     19.02  49853.37      0.01      0.76      1.35 
   388.50     19.01  49854.24     -0.01      0.76      1.35 
   388.60     19.01  49854.24     -0.01      0.76      0.94 
   388.70     19.01  49855.00     -0.02      1.63      0.94 
   388.80     19.02  49854.24     -0.01      0.11      2.71 
   388.90     19.02  49854.35      0.01      0.87      2.65 
   389.00     19.02  49855.22      0.01      0.76      1.35 
   389.10     19.02  49855.11      0.00      0.76      2.35 
   389.20     19.02  49855.98     -0.00      1.63      3.76 
   389.30     19.02  49855.33      0.00      2.17      1.41 
   389.40     19.02  49855.33      0.01      1.08      0.94 
   389.50     19.03  49856.09      0.01      1.84      3.12 
   389.60     19.01  49856.09     -0.01      1.08      3.53 
   389.70     19.02  49856.95      0.02      1.95      1.76 
   389.80     19.02  49856.74     -0.00      2.49      0.41 
   389.90     19.02  49856.63     -0.00      2.28      0.47 
   390.00     19.02  49857.71     -0.00      2.49      0.94 
   390.10     19.02  49857.82     -0.00      2.71      1.88 
   390.20     19.01  49857.50     -0.00      2.39      1.41 
   390.30     19.01  49858.69     -0.01      2.49      0.00 
   390.40     19.02  49859.34     -0.00      3.15      0.00 
   390.50     19.02  49859.23     -0.00      3.25      0.41 
   390.60     19.02  49859.12      0.01      3.90      0.88 
   390.70     19.02  49860.21     -0.00      3.25      0.47 
   390.80     19.01  49860.32     -0.01      3.58      0.94 
   390.90     19.02  49859.45     -0.01      1.95      0.47 
   391.00     19.00  49860.21     -0.01      2.39      0.94 
   391.10     19.02  49859.56     -0.00      0.98      1.82 
   391.20     19.02  49859.45      0.01      1.08      2.65 
   391.30     19.01  49858.36      0.00     -1.19      2.18 
   391.40     19.02  49858.69      0.00     -0.65      1.88 
   391.50     19.02  49859.56     -0.00      0.33      3.18 
   391.60     19.02  49859.56      0.00      0.33      2.71 
   391.70     19.02  49858.80     -0.00     -0.65      3.65 
   391.80     19.02  49858.58      0.01     -0.87      1.35 
   391.90     19.03  49859.45      0.01      0.87      3.24 
   392.00     19.02  49859.34      0.02     -0.11      3.12 
   392.10     19.01  49859.45     -0.01      0.76      2.24 
   392.20     19.02  49859.34     -0.01      0.76      1.88 
   392.30     19.02  49859.45      0.00      0.98      0.47 
   392.40     19.01  49859.34     -0.01     -0.22      0.94 
   392.50     19.01  49859.45     -0.01     -0.11      2.29 
   392.60     19.01  49859.45     -0.01     -0.11      2.76 
   392.70     19.01  49859.34     -0.01     -0.33      1.35 
   392.80     19.01  49859.23     -0.00     -0.22      1.41 
   392.90     19.02  49859.34     -0.01     -0.11      1.35 
   393.00     19.02  49858.69      0.00      0.11      2.24 
   393.10     19.01  49858.58     -0.00     -0.87      1.82 
   393.20     19.02  49858.58      0.01      0.11      1.88 
   393.30     19.01  49857.93     -0.01     -1.52      0.94 
   393.40     19.02  49856.84      0.01     -2.49      0.00 
   393.50     19.02  49856.95      0.01     -2.60      0.94 
   393.60     19.03  49856.19      0.02     -3.25      1.35 
   393.70     19.00  49855.87     -0.01     -3.47      2.18 
   393.80     19.01  49856.09     -0.00     -3.25      2.18 
   393.90     19.01  49855.00     -0.00     -3.58      1.35 
   394.00     19.01  49855.33     -0.01     -3.47      1.76 
   394.10     19.02  49855.33      0.01     -3.25      2.24 
   394.20     19.01  49854.46     -0.01     -3.36      0.41 
   394.30     19.01  49854.46      0.00     -2.60      0.41 
   394.40     19.01  49854.24     -0.02     -2.60      2.24 
   394.50     19.02  49853.48     -0.01     -2.60      2.65 
   394.60     19.02  49854.35     -0.01     -1.84      1.76 
   394.70     19.01  49854.46      0.01     -2.17      2.35 
   394.80     19.02  49854.24      0.00     -1.84      2.76 
   394.90     19.01  49854.13     -0.00     -1.74      1.82 
   395.00     19.01  49853.48      0.00     -2.71      1.41 
   395.10     19.01  49854.35     -0.01     -0.98      2.71 
   395.20     19.01  49853.48     -0.01     -0.98      3.12 
   395.30     19.01  49853.27     -0.00     -1.19      2.18 
   395.40     19.00  49852.72     -0.01     -1.52      2.24 
   395.50     19.01  49852.61     -0.00     -0.87      1.82 
   395.60     19.01  49851.53     -0.01     -2.82      2.35 
   395.70     19.00  49850.77     -0.01     -2.71      0.94 
   395.80     19.02  49851.64      0.00     -1.63      0.47 
   395.90     19.01  49850.77     -0.00     -2.49      2.71 
   396.00     19.02  49850.77      0.01     -2.71      2.65 
   396.10     19.01  49849.58     -0.00     -4.77      0.88 
   396.20     19.00  49849.79     -0.00     -3.69      0.82 
   396.30     19.02  49849.90      0.01     -3.36      1.76 
   396.40     19.01  49847.95      0.01     -4.77      2.24 
   396.50     19.02  49848.17      0.01     -4.45      1.82 
   396.60     19.01  49847.95      0.00     -3.58      1.35 
   396.70     19.02  49846.87      0.01     -4.88      1.94 
   396.80     19.01  49846.43     -0.01     -5.21      0.88 
   396.90     19.02  49846.21      0.01     -4.56      1.29 
   397.00     19.01  49846.11     -0.01     -4.66      0.41 
   397.10     19.00  49846.11     -0.01     -3.47      0.82 
   397.20     19.01  49846.32      0.01     -3.47      0.82 
   397.30     19.01  49846.22     -0.01     -2.71      1.35 
   397.40     19.01  49845.24     -0.00     -2.71      0.88 
   397.50     19.01  49845.24     -0.01     -3.80      1.41 
   397.60     19.02  49845.24      0.01     -3.58      0.47 
   397.70     19.02  49845.24      0.00     -2.60      0.00 
   397.80     19.01  49844.37      0.01     -3.04      0.00 
   397.90     19.01  49843.50     -0.01     -3.58      0.88 
   398.00     19.01  49844.26      0.01     -2.82      2.24 
   398.10     19.01  49843.94      0.01     -3.04      1.76 
   398.20     19.01  49842.74      0.00     -3.58      0.47 
   398.30     19.01  49843.50     -0.00     -2.49      0.47 
   398.40     19.02  49843.72      0.00     -1.52      0.41 
   398.50     19.00  49843.39     -0.01     -1.84      0.82 
   398.60     19.00  49843.72     -0.02     -1.41      1.29 
   398.70     19.01  49842.42     -0.01     -1.84      1.35 
   398.80     19.01  49843.50     -0.01     -0.76      2.65 
   398.90     19.01  49843.18      0.00     -0.33      2.71 
   399.00     19.01  49843.50     -0.00     -0.11      0.94 
   399.10     19.01  49843.61      0.00     -0.33      0.94 
   399.20     19.01  49842.42     -0.00     -1.95      0.88 
   399.30     19.01  49843.50      0.00      0.00      1.35 
   399.40     19.01  49842.53     -0.01     -2.06      2.76 
   399.50     19.01  49842.42      0.01      0.00      1.82 
   399.60     19.01  49843.61      0.00      0.11      0.47 
   399.70     19.01  49842.53      0.00      0.11      0.00 
   399.80     19.00  49842.31     -0.01     -1.19      1.35 
   399.90     19.00  49842.42     -0.01     -0.76      2.24 
   400.00     19.01  49843.18     -0.00     -0.22      1.35 
   400.10     19.02  49843.18      0.00     -0.33      0.47 
   400.20     19.01  49842.53      0.00      0.00      0.88 
