#Written by Robertson Geologging WinLogger V1.0/312
~VERSION INFORMATION
#------------------------------------------------------------------------------
 VERS. 2.0 : CWLS LOG ASCII STANDARD - VERSION 2.0
 WRAP. NO  : ONE LINE PER DEPTH STEP
~WELL INFORMATION
#MNEM.UNIT         DATA                                DESCRIPTION OF MNEMONIC
#------------------------------------------------------------------------------
 STRT.M         56.2000                            :   START DEPTH
 STOP.M        520.0000                            :   STOP DEPTH
 STEP.M          0.1000                            :   STEP VALUE
 NULL.        -999.2500                            :   NULL VALUE
 COMP.    I.M..C.                                  :   COMPANY NAME
 WELL.    Dawdon Shaft                             :   WELL NAME
 FLD.     Dawdon                                   :   FIELD NAME
 LOC.     N/A                                      :   LOCATION
 PROV.    N/A                                      :   PROVINCE
 SRVC.    N/A                                      :   SERVICE COMPANY NAME
 DATE.    30 Jan 04                                :   DATE
 UWI.     N/A                                      :   UNIQUE WELL IDENTIFIER
~PARAMETER INFORMATION
#MNEMO.UNIT         VALUE                 DESCRIPTION OF MNEMONIC
#------------------------------------------------------------------------------
~OTHER INFORMATION SECTION
#------------------------------------------------------------------------------
 TCGX extended range 1365
~CURVE INFORMATION
#MNEMO.UNIT         API CODE              CURVE DESCRIPTION
#------------------------------------------------------------------------------
 DEPTH.M                                 :   0     Depth
 COND.mS/cm                              :   1     Conductivity
 TEMP.DegC                               :   2     Temperature
 C@25.mS/cm                              :   3     Conductivity @25Deg
 DELT.DegC                               :   4     Delta T
 DC@25.mS/cm                             :   5     Delta C @25Deg
 OUT4.CPS                                :   6     Natural Gamma
#------------------------------------------------------------------------------
~A  DEPTH     COND      TEMP      C@25      DELT      DC@25     OUT4      
# ...
   451.70     79.02     21.99     79.10      0.01     -0.06      2.76 
   451.80     79.02     21.99     79.07      0.00     -0.03      2.82 
   451.90     79.01     21.99     79.07      0.00     -0.03      3.24 
   452.00     79.01     21.99     79.06      0.02     -0.09      2.88 
   452.10     79.01     22.00     79.04      0.01     -0.06      2.88 
   452.20     79.01     21.99     79.06      0.00     -0.03      1.65 
   452.30     79.00     22.01     78.99      0.02     -0.10      2.00 
   452.40     79.00     21.99     79.06      0.01     -0.06      2.35 
   452.50     79.00     22.00     79.03      0.02     -0.10      1.53 
   452.60     78.99     22.00     79.01      0.02     -0.08      2.00 
   452.70     78.99     22.00     79.03      0.01     -0.06      2.76 
   452.80     78.99     22.00     79.02      0.01     -0.05      1.53 
   452.90     78.98     22.01     78.99      0.02     -0.09      0.76 
   453.00     78.99     22.02     78.94      0.03     -0.11      1.12 
   453.10     78.99     22.02     78.95      0.03     -0.10      2.35 
   453.20     78.98     22.02     78.95      0.02     -0.08      2.82 
   453.30     78.98     22.01     78.96      0.01     -0.05      3.24 
   453.40     78.98     22.03     78.92      0.04     -0.14      2.41 
   453.50     78.98     22.04     78.88      0.04     -0.15      2.47 
   453.60     79.00     22.05     78.88      0.04     -0.13      3.65 
   453.70     79.01     22.05     78.90      0.05     -0.14      3.71 
   453.80     79.02     22.07     78.84      0.07     -0.18      4.00 
   453.90     79.04     22.07     78.84      0.06     -0.12      3.59 
   454.00     79.04     22.10     78.77      0.08     -0.19      1.18 
   454.10     79.04     22.11     78.73      0.09     -0.22      1.59 
   454.20     79.06     22.13     78.69      0.12     -0.29      1.18 
   454.30     79.06     22.13     78.68      0.12     -0.28      2.88 
   454.40     79.06     22.14     78.67      0.11     -0.26      2.88 
   454.50     79.08     22.14     78.66      0.10     -0.21      2.71 
   454.60     79.08     22.15     78.65      0.10     -0.23      5.41 
   454.70     79.09     22.16     78.63      0.11     -0.27      3.94 
   454.80     79.09     22.18     78.57      0.11     -0.25      2.41 
   454.90     79.10     22.18     78.59      0.11     -0.26      1.65 
   455.00     79.11     22.18     78.57      0.08     -0.17      1.65 
   455.10     79.11     22.19     78.57      0.08     -0.16      1.24 
   455.20     79.12     22.23     78.44      0.10     -0.24      3.18 
   455.30     79.12     22.23     78.46      0.09     -0.21      2.76 
   455.40     79.13     22.23     78.45      0.09     -0.21      1.65 
   455.50     79.13     22.25     78.39      0.11     -0.29      2.76 
   455.60     79.14     22.29     78.29      0.14     -0.37      2.35 
   455.70     79.15     22.30     78.25      0.14     -0.38      1.59 
   455.80     79.14     22.31     78.24      0.13     -0.34      0.41 
   455.90     79.15     22.32     78.19      0.15     -0.40      2.76 
   456.00     79.15     22.34     78.14      0.16     -0.44      5.24 
   456.10     79.14     22.34     78.13      0.14     -0.41      2.47 
   456.20     79.15     22.34     78.12      0.11     -0.31      0.41 
   456.30     79.15     22.34     78.14      0.11     -0.32      0.82 
   456.40     79.14     22.34     78.13      0.11     -0.32      2.06 
   456.50     79.15     22.34     78.12      0.09     -0.25      2.06 
   456.60     79.15     22.34     78.15      0.04     -0.13      1.53 
   456.70     79.14     22.33     78.14      0.04     -0.11      3.12 
   456.80     79.15     22.33     78.18      0.02     -0.05      3.18 
   456.90     79.14     22.32     78.17     -0.00     -0.00      3.47 
   457.00     79.14     22.33     78.16     -0.01      0.03      1.65 
   457.10     79.14     22.34     78.12      0.00     -0.02      3.12 
   457.20     79.14     22.34     78.12     -0.00     -0.01      3.71 
   457.30     79.14     22.33     78.15     -0.01      0.02      3.65 
   457.40     79.13     22.34     78.12     -0.00     -0.01      2.71 
   457.50     79.13     22.34     78.10      0.00     -0.03      0.76 
   457.60     79.13     22.33     78.15     -0.01      0.01      1.18 
   457.70     79.13     22.35     78.10      0.01     -0.06      2.06 
   457.80     79.12     22.34     78.09      0.01     -0.06      2.82 
   457.90     79.12     22.35     78.09      0.03     -0.10      2.41 
   458.00     79.12     22.34     78.10      0.01     -0.06      3.29 
   458.10     79.12     22.35     78.06      0.01     -0.05      4.53 
   458.20     79.12     22.32     78.14     -0.02      0.03      3.71 
   458.30     79.11     22.33     78.14     -0.00     -0.03      3.24 
   458.40     79.11     22.34     78.09     -0.00     -0.01      2.00 
   458.50     79.11     22.33     78.12     -0.01      0.02      3.53 
   458.60     79.10     22.32     78.15     -0.01     -0.00      1.65 
   458.70     79.10     22.34     78.08     -0.01      0.00      0.82 
   458.80     79.10     22.34     78.10      0.00     -0.03      2.47 
   458.90     79.10     22.34     78.08     -0.01      0.02      4.06 
   459.00     79.10     22.33     78.12     -0.01      0.00      2.35 
   459.10     79.10     22.34     78.09     -0.01      0.02      3.41 
   459.20     79.09     22.33     78.09      0.01     -0.07      2.71 
   459.30     79.09     22.33     78.10     -0.00     -0.01      1.65 
   459.40     79.09     22.33     78.10     -0.01     -0.00      1.59 
   459.50     79.09     22.34     78.07      0.01     -0.07      2.41 
   459.60     79.09     22.33     78.10      0.00     -0.03      4.71 
   459.70     79.09     22.34     78.08      0.00     -0.02      3.18 
   459.80     79.08     22.34     78.06     -0.00     -0.02      2.00 
   459.90     79.09     22.34     78.06      0.01     -0.03      3.06 
   460.00     79.08     22.34     78.07      0.01     -0.04      3.47 
   460.10     79.08     22.35     78.04      0.01     -0.05      4.00 
   460.20     79.08     22.34     78.06      0.01     -0.04      3.94 
   460.30     79.08     22.32     78.10     -0.01     -0.00      2.00 
   460.40     79.07     22.34     78.07      0.00     -0.03      1.65 
   460.50     79.07     22.32     78.10     -0.01      0.03      3.24 
   460.60     79.07     22.33     78.07      0.00     -0.03      3.29 
   460.70     79.07     22.33     78.09     -0.01      0.01      1.59 
   460.80     79.07     22.33     78.07     -0.01      0.01      1.59 
   460.90     79.06     22.33     78.06     -0.01      0.01      1.65 
   461.00     79.07     22.32     78.10     -0.01      0.02      0.82 
   461.10     79.07     22.33     78.07     -0.02      0.05      1.18 
   461.20     79.06     22.34     78.04     -0.00     -0.01      1.24 
   461.30     79.06     22.33     78.08      0.01     -0.04      1.65 
   461.40     79.06     22.33     78.07     -0.01      0.01      4.12 
   461.50     79.05     22.33     78.07      0.01     -0.04      4.88 
   461.60     79.06     22.33     78.06      0.00     -0.02      2.88 
   461.70     79.06     22.34     78.03      0.01     -0.04      2.82 
   461.80     79.06     22.33     78.06     -0.01      0.01      2.35 
   461.90     79.05     22.33     78.07     -0.00     -0.01      2.35 
   462.00     79.05     22.34     78.03      0.02     -0.06      2.06 
   462.10     79.05     22.33     78.06      0.00     -0.02      1.59 
   462.20     79.05     22.34     78.03     -0.00     -0.01      2.00 
   462.30     79.05     22.32     78.08     -0.01      0.01      1.65 
   462.40     79.05     22.33     78.05      0.00     -0.02      4.41 
   462.50     79.05     22.33     78.05      0.00     -0.02      3.71 
   462.60     79.04     22.34     78.02      0.00     -0.02      2.88 
   462.70     79.05     22.33     78.04     -0.00     -0.01      2.06 
   462.80     79.05     22.33     78.03      0.00     -0.02      3.12 
   462.90     79.04     22.32     78.06     -0.01      0.01      2.35 
