#Written by Robertson Geologging WinLogger V1.0/311
~VERSION INFORMATION
#------------------------------------------------------------------------------
 VERS. 2.0 : CWLS LOG ASCII STANDARD - VERSION 2.0
 WRAP. NO  : ONE LINE PER DEPTH STEP
~WELL INFORMATION
#MNEM.UNIT         DATA                                DESCRIPTION OF MNEMONIC
#------------------------------------------------------------------------------
 STRT.M         57.1000                            :   START DEPTH
 STOP.M        520.1000                            :   STOP DEPTH
 STEP.M          0.1000                            :   STEP VALUE
 NULL.        -999.2500                            :   NULL VALUE
 COMP.    IMC                                      :   COMPANY NAME
 WELL.    THERESA SHAFT                            :   WELL NAME
 FLD.     DAWDON                                   :   FIELD NAME
 LOC.     N/A                                      :   LOCATION
 PROV.    N/A                                      :   PROVINCE
 SRVC.    N/A                                      :   SERVICE COMPANY NAME
 DATE.    03 Oct 03                                :   DATE
 UWI.     N/A                                      :   UNIQUE WELL IDENTIFIER
~PARAMETER INFORMATION
#MNEMO.UNIT         VALUE                 DESCRIPTION OF MNEMONIC
#------------------------------------------------------------------------------
~OTHER INFORMATION SECTION
#------------------------------------------------------------------------------
 TCDS 2822
~CURVE INFORMATION
#MNEMO.UNIT         API CODE              CURVE DESCRIPTION
#------------------------------------------------------------------------------
 DEPTH.M                                 :   0     Depth
 TEMP.DegC                               :   1     Temperature
 COND.uS/cm                              :   2     Conductivity
 DELT.DegC                               :   3     Delta T
 DELC.uS/cm                              :   4     Delta C
 NGAM.API                                :   5     Natural Gamma
#------------------------------------------------------------------------------
~A  DEPTH     TEMP      COND      DELT      DELC      NGAM      
# ...
   149.50     12.94  16398.31      0.05    434.02      0.94 
   149.60     12.93  16437.98      0.03    419.50      0.94 
   149.70     12.95  16477.74      0.05    411.75      1.88 
   149.80     12.94  16524.04      0.04    406.72      1.88 
   149.90     12.95  16569.36      0.04    405.93      0.47 
   150.00     12.94  16613.24      0.05    405.42      0.00 
   150.10     12.96  16653.51      0.05    404.98      0.00 
   150.20     12.95  16690.15      0.03    405.80      0.00 
   150.30     12.97  16721.27      0.04    402.53      0.41 
   150.40     12.96  16755.12      0.02    394.84      0.47 
   150.50     12.98  16784.98      0.04    382.96      0.47 
   150.60     12.97  16816.12      0.04    375.16      0.00 
   150.70     12.97  16853.62      0.03    371.90      0.94 
   150.80     12.98  16896.04      0.04    368.19      1.82 
   150.90     12.98  16941.38      0.04    367.30      2.35 
   151.00     12.99  16978.36      0.05    361.32      0.94 
   151.10     12.99  17012.54      0.03    355.32      0.00 
   151.20     12.99  17051.91      0.04    357.95      0.47 
   151.30     13.01  17089.38      0.04    364.30      0.47 
   151.40     13.00  17124.67      0.04    366.56      0.47 
   151.50     13.02  17159.61      0.04    371.63      0.47 
   151.60     13.02  17191.10      0.05    371.16      0.00 
   151.70     13.01  17230.24      0.03    372.89      0.00 
   151.80     13.03  17271.39      0.05    370.27      0.00 
   151.90     13.02  17309.19      0.03    363.27      0.00 
   152.00     13.03  17349.54      0.03    367.45      0.47 
   152.10     13.04  17390.00      0.05    372.91      0.47 
   152.20     13.05  17424.18      0.06    369.27      0.00 
   152.30     13.05  17463.20      0.04    370.72      0.47 
   152.40     13.05  17511.34      0.05    382.85      0.47 
   152.50     13.06  17557.59      0.05    395.70      0.47 
   152.60     13.06  17594.81      0.04    399.89      0.47 
   152.70     13.08  17631.68      0.06    396.89      0.00 
   152.80     13.08  17669.38      0.05    393.43      0.47 
   152.90     13.09  17715.58      0.07    401.84      1.35 
   153.00     13.08  17752.94      0.06    398.84      0.94 
   153.10     13.09  17791.31      0.05    396.84      0.47 
   153.20     13.10  17841.20      0.04    413.28      0.00 
   153.30     13.10  17886.44      0.05    417.78      0.94 
   153.40     13.09  17924.21      0.04    407.57      1.41 
   153.50     13.10  17968.93      0.04    407.60      0.94 
   153.60     13.11  18018.97      0.05    421.05      0.47 
   153.70     13.12  18071.86      0.04    436.44      0.00 
   153.80     13.12  18122.85      0.04    448.17      0.00 
   153.90     13.12  18175.87      0.03    455.72      0.94 
   154.00     13.12  18229.37      0.04    473.42      1.41 
   154.10     13.14  18282.88      0.04    487.01      0.47 
   154.20     13.12  18336.33      0.02    489.83      0.47 
   154.30     13.14  18389.88      0.05    499.59      0.47 
   154.40     13.15  18439.68      0.05    511.46      0.94 
   154.50     13.15  18479.78      0.05    506.28      1.88 
   154.60     13.16  18521.26      0.05    497.26      0.94 
   154.70     13.14  18570.20      0.02    493.02      0.00 
   154.80     13.15  18623.83      0.02    494.84      0.00 
   154.90     13.16  18676.65      0.04    494.73      0.47 
   155.00     13.16  18744.65      0.04    509.88      0.00 
   155.10     13.17  18817.38      0.03    528.35      0.47 
   155.20     13.16  18875.88      0.04    534.14      0.94 
   155.30     13.17  18925.74      0.03    530.46      0.94 
   155.40     13.17  18960.26      0.02    515.99      0.00 
   155.50     13.18  19008.50      0.03    524.13      0.47 
   155.60     13.18  19064.58      0.03    538.72      0.47 
   155.70     13.19  19112.29      0.05    535.95      0.47 
   155.80     13.19  19165.19      0.04    536.03      0.47 
   155.90     13.19  19224.00      0.03    540.46      0.94 
   156.00     13.20  19290.49      0.04    538.20      2.29 
   156.10     13.19  19362.72      0.02    539.18      1.35 
   156.20     13.20  19431.30      0.04    550.09      0.00 
   156.30     13.20  19489.10      0.03    559.49      0.00 
   156.40     13.21  19530.20      0.04    565.34      0.47 
   156.50     13.21  19575.84      0.04    562.00      0.94 
   156.60     13.22  19635.17      0.03    565.25      0.94 
   156.70     13.22  19696.74      0.02    579.10      0.47 
   156.80     13.22  19760.65      0.03    589.66      0.00 
   156.90     13.22  19826.44      0.04    595.52      0.00 
   157.00     13.22  19883.27      0.02    585.86      0.88 
   157.10     13.24  19936.60      0.05    566.96      0.88 
   157.20     13.23  19986.43      0.03    549.78      1.41 
   157.30     13.24  20036.93      0.03    542.47      0.94 
   157.40     13.24  20079.93      0.02    546.68      0.94 
   157.50     13.25  20131.29      0.04    550.83      0.94 
   157.60     13.25  20188.69      0.04    548.16      0.47 
   157.70     13.25  20241.57      0.04    540.20      0.00 
   157.80     13.27  20289.64      0.05    521.58      0.00 
   157.90     13.26  20337.72      0.04    504.34      0.47 
   158.00     13.26  20398.82      0.04    509.35      0.47 
   158.10     13.27  20455.67      0.04    513.60      0.47 
   158.20     13.26  20508.17      0.03    516.27      0.94 
   158.30     13.25  20557.24      0.01    515.96      0.47 
   158.40     13.25  20604.76      0.01    520.66      0.00 
   158.50     13.26  20654.98      0.01    518.31      0.41 
   158.60     13.28  20710.89      0.03    517.57      0.41 
   158.70     13.26  20773.06      0.00    526.86      0.00 
   158.80     13.27  20832.84      0.01    538.56      0.47 
   158.90     13.28  20883.13      0.02    539.19      0.47 
   159.00     13.28  20934.56      0.02    529.61      0.94 
   159.10     13.28  20987.03      0.01    525.23      0.47 
   159.20     13.27  21030.66      0.01    517.10      0.88 
   159.30     13.29  21080.17      0.04    518.46      0.41 
   159.40     13.29  21130.73      0.04    521.14      0.00 
   159.50     13.28  21178.97      0.02    518.59      0.41 
   159.60     13.28  21222.65      0.00    505.61      0.41 
   159.70     13.30  21274.37      0.04    494.32      0.94 
   159.80     13.30  21330.77      0.02    492.54      0.47 
   159.90     13.30  21379.07      0.02    491.28      0.41 
   160.00     13.29  21437.48      0.02    497.52      0.47 
   160.10     13.30  21490.48      0.02    498.05      1.41 
   160.20     13.31  21534.15      0.04    497.25      0.47 
   160.30     13.29  21581.20      0.00    496.37      0.00 
   160.40     13.31  21635.09      0.02    498.86      0.00 
   160.50     13.31  21682.73      0.03    499.01      0.47 
   160.60     13.31  21724.11      0.02    496.80      0.00 
   160.70     13.31  21780.21      0.01    499.68      0.00 
   160.80     13.33  21836.88      0.03    500.60      0.47 
   160.90     13.32  21877.83      0.01    492.50      1.35 
   161.00     13.31  21911.57      0.02    467.83      0.00 
   161.10     13.33  21957.51      0.03    462.35      0.47 
   161.20     13.33  22007.87      0.02    469.04      0.41 
   161.30     13.33  22055.81      0.04    470.68      1.41 
   161.40     13.33  22105.63      0.02    465.86      0.94 
   161.50     13.34  22160.26      0.02    473.50      0.00 
   161.60     13.33  22220.54      0.03    492.59      0.47 
   161.70     13.32  22268.35      0.00    481.87      0.47 
   161.80     13.32  22309.97      0.00    468.87      0.00 
   161.90     13.33  22368.33      0.02    487.41      0.00 
   162.00     13.33  22424.27      0.01    509.51      0.88 
   162.10     13.34  22467.72      0.01    506.36      0.47 
   162.20     13.34  22513.53      0.01    501.81      0.00 
   162.30     13.33  22563.86     -0.00    503.37      0.41 
   162.40     13.34  22606.03      0.01    495.71      1.82 
   162.50     13.35  22659.51      0.01    493.71      1.88 
   162.60     13.35  22721.48      0.02    496.24      0.47 
