#Written by Robertson Geologging WinLogger V1.0/406
~VERSION INFORMATION
#------------------------------------------------------------------------------
 VERS. 2.0 : CWLS LOG ASCII STANDARD - VERSION 2.0
 WRAP. NO  : ONE LINE PER DEPTH STEP
~WELL INFORMATION
#MNEM.UNIT         DATA                                DESCRIPTION OF MNEMONIC
#------------------------------------------------------------------------------
 STRT.M         40.0600                            :   START DEPTH
 STOP.M        498.0000                            :   STOP DEPTH
 STEP.M          0.0100                            :   STEP VALUE
 NULL.        -999.2500                            :   NULL VALUE
 COMP.    Coal Authority                           :   COMPANY NAME
 WELL.    Dawdon                                   :   WELL NAME
 FLD.     N/A                                      :   FIELD NAME
 LOC.     N/A                                      :   LOCATION
 PROV.    N/A                                      :   PROVINCE
 SRVC.    N/A                                      :   SERVICE COMPANY NAME
 DATE.    30 Sep 08                                :   DATE
 UWI.     N/A                                      :   UNIQUE WELL IDENTIFIER
~PARAMETER INFORMATION
#MNEMO.UNIT         VALUE                 DESCRIPTION OF MNEMONIC
#------------------------------------------------------------------------------
~OTHER INFORMATION SECTION
#------------------------------------------------------------------------------
 TCGS2822
~CURVE INFORMATION
#MNEMO.UNIT         API CODE              CURVE DESCRIPTION
#------------------------------------------------------------------------------
 DEPTH.M                                 :   0     Depth
 TEMP.DegC                               :   1     Temperature
 COND.uS/cm                              :   2     Conductivity
 DELT.DegC                               :   3     Delta T
 DELC.uS/cm                              :   4     Delta C
 NGAM.CPS                                :   5     Natural Gamma
#------------------------------------------------------------------------------
~A  DEPTH     TEMP      COND      DELT      DELC      NGAM      
# ...
   100.78     11.39   5629.06     -0.02     -4.62      0.00 
   100.79     11.39   5629.06     -0.00      0.00      0.00 
   100.80     11.39   5633.68     -0.03      4.62      0.00 
   100.81     11.39   5629.06     -0.05      0.00      0.00 
   100.82     11.39   5629.06     -0.02     -4.62      0.00 
   100.83     11.38   5629.06     -0.03      0.00      0.00 
   100.84     11.37   5633.68     -0.02      4.62      0.00 
   100.85     11.37   5629.06      0.00      0.00      0.00 
   100.86     11.39   5629.06      0.01     -4.62      0.00 
   100.87     11.39   5629.06     -0.00      0.00      0.00 
   100.88     11.39   5633.68      0.00      4.62      0.00 
   100.89     11.39   5629.06      0.00      0.00      0.00 
   100.90     11.39   5629.06      0.00      7.39      0.00 
   100.91     11.40   5629.06      0.01      0.00      0.00 
   100.92     11.42   5633.68      0.01      0.00      0.00 
   100.93     11.41   5629.06      0.00      0.00      0.00 
   100.94     11.41   5629.06      0.01      0.00      0.00 
   100.95     11.40   5637.38     -0.00      8.31      0.00 
   100.96     11.40   5629.06     -0.01      0.00      0.00 
   100.97     11.40   5627.22     -0.02     -1.85      0.00 
   100.98     11.41   5637.38     -0.01      0.00      0.00 
   100.99     11.40   5629.06     -0.01      1.85      0.00 
   101.00     11.39   5627.22     -0.00     -1.85      0.00 
   101.01     11.40   5637.38      0.03      8.31      0.00 
   101.02     11.39   5627.22      0.02     -1.85      0.00 
   101.03     11.40   5632.76      0.04     -4.62      0.00 
   101.04     11.41   5633.68      0.03      4.62      0.00 
   101.05     11.40   5629.06     -0.00      1.85      0.00 
   101.06     11.38   5629.06     -0.03      0.00      0.00 
   101.07     11.37   5629.06     -0.05     -8.31      0.00 
   101.08     11.37   5633.68     -0.06      4.62      0.00 
   101.09     11.36   5629.06     -0.05      0.00      0.00 
   101.10     11.38   5629.06     -0.05      1.85      8.00 
   101.11     11.39   5629.06     -0.03     -8.31      0.00 
   101.12     11.38   5637.38     -0.04      8.31      0.00 
   101.13     11.39   5627.22     -0.04     -1.85      0.00 
   101.14     11.40   5629.06     -0.01      1.85      0.00 
   101.15     11.41   5637.38      0.00      8.31      0.00 
   101.16     11.41   5629.06      0.02     -8.31      0.00 
   101.17     11.42   5629.06      0.06      0.00      0.00 
   101.18     11.42   5633.68      0.06      4.62      0.00 
   101.19     11.41   5629.06      0.04      0.00      0.00 
   101.20     11.41   5629.06      0.05      0.00      0.00 
   101.21     11.41   5629.06      0.03     -4.62      0.00 
   101.22     11.41   5629.06      0.00      0.00      0.00 
   101.23     11.39   5637.38     -0.00      8.31      0.00 
   101.24     11.40   5629.06      0.00      0.00      0.00 
   101.25     11.40   5629.06      0.01      0.00      0.00 
   101.26     11.39   5633.68      0.02      0.00      0.00 
   101.27     11.40   5629.06      0.05      0.00      0.00 
   101.28     11.40   5629.06      0.02     -4.62      0.00 
   101.29     11.41   5629.06      0.01      0.00      8.00 
   101.30     11.41   5637.38      0.01      8.31      0.00 
   101.31     11.41   5629.06      0.00      0.00      0.00 
   101.32     11.40   5629.06      0.00      0.00      0.00 
   101.33     11.39   5629.06     -0.01      0.00      0.00 
   101.34     11.39   5633.68     -0.00      4.62      0.00 
   101.35     11.38   5629.06     -0.01     -8.31      0.00 
   101.36     11.40   5629.06      0.02      0.00      0.00 
   101.37     11.39   5637.38      0.03      8.31      0.00 
   101.38     11.41   5629.06      0.04      0.00      0.00 
   101.39     11.41   5629.06      0.04     -4.62      8.00 
   101.40     11.40   5629.06      0.02      0.00      0.00 
   101.41     11.40   5633.68      0.00      4.62      0.00 
   101.42     11.39   5629.06      0.00      0.00      0.00 
   101.43     11.39   5629.06     -0.00      0.00      0.00 
   101.44     11.40   5637.38      0.01      8.31      0.00 
   101.45     11.41   5629.06      0.02     -8.31      0.00 
   101.46     11.41   5627.22     -0.01     -1.85      0.00 
   101.47     11.40   5637.38     -0.00      8.31      0.00 
   101.48     11.39   5629.06     -0.02      1.85      0.00 
   101.49     11.38   5629.06     -0.01     -8.31      8.00 
   101.50     11.39   5633.68      0.01      4.62      0.00 
   101.51     11.40   5629.06      0.00      0.00      0.00 
   101.52     11.41   5629.06      0.00      0.00      0.00 
   101.53     11.42   5633.68      0.00      4.62      0.00 
   101.54     11.41   5629.06     -0.01     -4.62      0.00 
   101.55     11.41   5629.06     -0.01      0.00      0.00 
   101.56     11.41   5629.06      0.01      0.00      0.00 
   101.57     11.40   5633.68      0.01      4.62      0.00 
   101.58     11.40   5629.06      0.01     -8.31      8.00 
   101.59     11.40   5637.38      0.02     10.16      0.00 
   101.60     11.39   5629.06     -0.02      0.00      0.00 
   101.61     11.38   5629.06     -0.02      0.00      0.00 
   101.62     11.39   5627.22      0.00    -10.16      0.00 
   101.63     11.39   5629.06     -0.01      1.85      8.00 
   101.64     11.39   5629.06      0.00      0.00      0.00 
   101.65     11.39   5629.06      0.00     -8.31      0.00 
   101.66     11.39   5633.68     -0.02      4.62      0.00 
   101.67     11.40   5629.06     -0.00      1.85      0.00 
   101.68     11.40   5629.06      0.01      0.00      0.00 
   101.69     11.40   5637.38      0.00      0.00      0.00 
   101.70     11.38   5629.06      0.01      0.00      0.00 
   101.71     11.39   5629.06      0.00      1.85      8.00 
   101.72     11.39   5637.38      0.00      0.00      0.00 
   101.73     11.40   5627.22      0.00     -1.85      7.00 
   101.74     11.41   5629.06      0.02      1.85      0.00 
   101.75     11.39   5637.38      0.00      0.00      0.00 
   101.76     11.38   5629.06     -0.00      7.39      0.00 
   101.77     11.40   5629.06      0.01      0.00      0.00 
   101.78     11.39   5629.06     -0.00      0.00      0.00 
   101.79     11.38   5633.68     -0.01      0.00      0.00 
   101.80     11.39   5629.06      0.00      0.00      0.00 
   101.81     11.36   5637.38     -0.02      8.31      0.00 
   101.82     11.36   5629.06     -0.02      0.00      8.00 
   101.83     11.37   5629.06      0.00     -4.62      0.00 
   101.84     11.37   5629.06      0.00      0.00      0.00 
   101.85     11.39   5633.68      0.00      4.62      0.00 
   101.86     11.38   5629.06     -0.01      0.00      0.00 
   101.87     11.37   5637.38     -0.02      3.69      0.00 
   101.88     11.36   5629.06     -0.03      0.00      0.00 
   101.89     11.35   5627.22     -0.04     -1.85      7.00 
   101.90     11.37   5637.38     -0.03      8.31      0.00 
   101.91     11.39   5629.06     -0.02     -4.62      0.00 
   101.92     11.40   5633.68     -0.01      4.62      0.00 
   101.93     11.41   5629.06      0.00      0.00      0.00 
   101.94     11.42   5629.06      0.02     -8.31      0.00 
   101.95     11.43   5629.06      0.02      0.00      0.00 
   101.96     11.44   5633.68      0.03      6.47      0.00 
   101.97     11.43   5629.06      0.02     -8.31      0.00 
   101.98     11.41   5637.38      0.01      8.31      0.00 
   101.99     11.41   5629.06      0.02      1.85      0.00 
   102.00     11.40   5629.06      0.00     -8.31      0.00 
   102.01     11.42   5633.68      0.02      6.47      0.00 
   102.02     11.41   5629.06      0.01     -3.69      0.00 
   102.03     11.41   5629.06     -0.00     -4.62      0.00 
   102.04     11.41   5633.68      0.01      4.62      0.00 
   102.05     11.40   5629.06      0.02      0.00      0.00 
   102.06     11.39   5637.38      0.02      8.31      8.00 
   102.07     11.37   5629.06      0.00     -4.62      8.00 
   102.08     11.35   5633.68     -0.01      4.62      0.00 
   102.09     11.35   5629.06     -0.03      0.00      8.00 
