#Written by Robertson Geologging WinLogger V1.0/370
~VERSION INFORMATION
#------------------------------------------------------------------------------
 VERS. 2.0 : CWLS LOG ASCII STANDARD - VERSION 2.0
 WRAP. NO  : ONE LINE PER DEPTH STEP
~WELL INFORMATION
#MNEM.UNIT         DATA                                DESCRIPTION OF MNEMONIC
#------------------------------------------------------------------------------
 STRT.M         37.0600                            :   START DEPTH
 STOP.M        510.0000                            :   STOP DEPTH
 STEP.M          0.0100                            :   STEP VALUE
 NULL.        -999.2500                            :   NULL VALUE
 COMP.    WHITE YOUN GREEN                         :   COMPANY NAME
 WELL.    DAWDON SHAFT                             :   WELL NAME
 FLD.     DAWDON                                   :   FIELD NAME
 LOC.     N/A                                      :   LOCATION
 PROV.    N/A                                      :   PROVINCE
 SRVC.    N/A                                      :   SERVICE COMPANY NAME
 DATE.    13 Dec 06                                :   DATE
 UWI.     N/A                                      :   UNIQUE WELL IDENTIFIER
~PARAMETER INFORMATION
#MNEMO.UNIT         VALUE                 DESCRIPTION OF MNEMONIC
#------------------------------------------------------------------------------
~OTHER INFORMATION SECTION
#------------------------------------------------------------------------------
 lLOGGING DOWN
~CURVE INFORMATION
#MNEMO.UNIT         API CODE              CURVE DESCRIPTION
#------------------------------------------------------------------------------
 DEPTH.M                                 :   0     Depth
 TEMP.DegC                               :   1     Temperature
 CN25.mS/cm                              :   2     Conductivity@25DegC
 COND.mS/cm                              :   3     Conductivity
 DELT.DegC                               :   4     Delta T
 DELC.mS/cm                              :   5     Delta C
 NGAM.CPS                                :   6     Natural Gamma
#------------------------------------------------------------------------------
~A  DEPTH     TEMP      CN25      COND      DELT      DELC      NGAM      
# ...
   414.48     19.74     78.02     71.74      0.01     -0.04      2.06 
   414.49     19.74     78.02     71.74      0.01     -0.04      2.06 
   414.50     19.74     78.03     71.74      0.01     -0.04      1.65 
   414.51     19.73     78.03     71.74      0.01     -0.04      1.24 
   414.52     19.73     78.03     71.74      0.01     -0.03      1.24 
   414.53     19.74     78.03     71.74      0.01     -0.03      1.24 
   414.54     19.74     78.03     71.74      0.01     -0.03      1.24 
   414.55     19.74     78.02     71.74      0.01     -0.04      1.24 
   414.56     19.74     78.01     71.74      0.01     -0.05      1.24 
   414.57     19.74     78.01     71.74      0.01     -0.06      1.24 
   414.58     19.74     78.01     71.73      0.02     -0.07      1.24 
   414.59     19.74     78.01     71.73      0.02     -0.06      1.24 
   414.60     19.74     78.02     71.73      0.01     -0.05      0.82 
   414.61     19.74     78.01     71.73      0.01     -0.04      0.82 
   414.62     19.74     78.02     71.73      0.01     -0.04      1.24 
   414.63     19.74     78.02     71.74      0.01     -0.03      1.24 
   414.64     19.73     78.03     71.74      0.00     -0.02      2.06 
   414.65     19.73     78.03     71.73     -0.00     -0.01      1.65 
   414.66     19.73     78.04     71.74     -0.00     -0.00      1.65 
   414.67     19.73     78.05     71.74     -0.01      0.02      1.65 
   414.68     19.73     78.04     71.74     -0.01      0.02      1.65 
   414.69     19.73     78.05     71.74     -0.01      0.02      1.65 
   414.70     19.73     78.05     71.74     -0.01      0.02      2.06 
   414.71     19.73     78.05     71.74     -0.00      0.01      2.06 
   414.72     19.73     78.05     71.74     -0.00     -0.00      2.06 
   414.73     19.73     78.06     71.74     -0.00     -0.00      2.53 
   414.74     19.72     78.06     71.74     -0.00      0.00      2.53 
   414.75     19.72     78.07     71.74     -0.00      0.00      2.53 
   414.76     19.72     78.07     71.74     -0.01      0.01      2.12 
   414.77     19.72     78.07     71.74     -0.01      0.01      2.12 
   414.78     19.72     78.07     71.74     -0.01      0.01      2.12 
   414.79     19.72     78.07     71.74     -0.00      0.00      1.71 
   414.80     19.72     78.06     71.74     -0.00     -0.01      2.12 
   414.81     19.73     78.05     71.74      0.00     -0.02      1.29 
   414.82     19.73     78.05     71.74      0.01     -0.04      1.29 
   414.83     19.73     78.03     71.74      0.01     -0.04      1.29 
   414.84     19.74     78.02     71.74      0.01     -0.05      1.29 
   414.85     19.74     78.01     71.74      0.02     -0.06      1.29 
   414.86     19.74     78.01     71.74      0.02     -0.06      1.29 
   414.87     19.74     78.01     71.74      0.01     -0.05      0.88 
   414.88     19.74     78.01     71.74      0.01     -0.05      0.88 
   414.89     19.74     78.02     71.73      0.01     -0.04      1.29 
   414.90     19.74     78.02     71.73      0.01     -0.03      0.82 
   414.91     19.73     78.03     71.73      0.00     -0.02      0.82 
   414.92     19.73     78.03     71.73      0.00     -0.01      0.82 
   414.93     19.73     78.03     71.73     -0.00      0.00      0.82 
   414.94     19.73     78.03     71.73     -0.01      0.01      0.82 
   414.95     19.73     78.03     71.73     -0.01      0.01      0.82 
   414.96     19.73     78.04     71.73     -0.01      0.03      0.82 
   414.97     19.73     78.04     71.73     -0.01      0.03      0.82 
   414.98     19.73     78.04     71.73     -0.01      0.03      0.82 
   414.99     19.73     78.04     71.73     -0.01      0.03      0.82 
   415.00     19.73     78.04     71.74     -0.01      0.04      0.82 
   415.01     19.73     78.04     71.74     -0.01      0.04      0.82 
   415.02     19.73     78.04     71.74     -0.01      0.04      0.82 
   415.03     19.73     78.04     71.74     -0.01      0.04      0.82 
   415.04     19.73     78.04     71.74     -0.01      0.03      0.82 
   415.05     19.73     78.05     71.74     -0.01      0.03      1.24 
   415.06     19.73     78.05     71.74     -0.01      0.02      0.82 
   415.07     19.72     78.06     71.74     -0.01      0.01      1.24 
   415.08     19.72     78.06     71.73     -0.00      0.00      1.24 
   415.09     19.72     78.06     71.73      0.00     -0.01      1.65 
   415.10     19.73     78.05     71.74      0.01     -0.02      2.06 
   415.11     19.73     78.05     71.73      0.01     -0.03      2.06 
   415.12     19.73     78.05     71.73      0.01     -0.03      2.06 
   415.13     19.72     78.06     71.73      0.01     -0.03      2.06 
   415.14     19.72     78.07     71.73      0.00     -0.02      1.65 
   415.15     19.72     78.07     71.73      0.00     -0.02      1.65 
   415.16     19.72     78.07     71.73     -0.00     -0.01      1.65 
   415.17     19.72     78.06     71.73     -0.00     -0.00      1.65 
   415.18     19.73     78.05     71.73      0.00     -0.01      1.65 
   415.19     19.73     78.05     71.74      0.00     -0.01      1.65 
   415.20     19.73     78.05     71.74      0.00     -0.01      2.47 
   415.21     19.73     78.04     71.73     -0.00     -0.01      2.47 
   415.22     19.73     78.04     71.73     -0.00     -0.00      2.06 
   415.23     19.73     78.04     71.73     -0.00     -0.00      2.06 
   415.24     19.73     78.04     71.73     -0.00     -0.00      1.65 
   415.25     19.73     78.03     71.73     -0.00     -0.00      2.12 
   415.26     19.73     78.03     71.73     -0.00     -0.00      1.71 
   415.27     19.73     78.03     71.73     -0.00     -0.00      1.29 
   415.28     19.73     78.03     71.73      0.00     -0.01      1.29 
   415.29     19.73     78.03     71.73      0.00     -0.01      1.71 
   415.30     19.73     78.02     71.73      0.00     -0.01      1.71 
   415.31     19.73     78.03     71.73     -0.00     -0.00      1.71 
   415.32     19.73     78.03     71.73     -0.00      0.01      2.12 
   415.33     19.73     78.03     71.73     -0.01      0.02      2.12 
   415.34     19.73     78.04     71.73     -0.01      0.02      2.12 
   415.35     19.73     78.04     71.73     -0.01      0.02      2.12 
   415.36     19.73     78.04     71.73     -0.01      0.02      2.12 
   415.37     19.73     78.05     71.73     -0.01      0.03      1.71 
   415.38     19.72     78.06     71.73     -0.01      0.03      1.71 
   415.39     19.72     78.07     71.73     -0.02      0.05      1.71 
   415.40     19.72     78.08     71.73     -0.02      0.06      1.71 
   415.41     19.71     78.08     71.73     -0.03      0.07      1.71 
   415.42     19.71     78.09     71.73     -0.03      0.07      1.24 
   415.43     19.71     78.09     71.73     -0.02      0.06      1.24 
   415.44     19.71     78.09     71.73     -0.02      0.06      1.24 
   415.45     19.71     78.09     71.73     -0.02      0.06      1.65 
   415.46     19.71     78.08     71.73     -0.02      0.05      1.24 
   415.47     19.72     78.08     71.73     -0.02      0.05      1.24 
   415.48     19.72     78.07     71.73     -0.02      0.05      1.24 
   415.49     19.72     78.07     71.73     -0.02      0.04      0.82 
   415.50     19.72     78.06     71.73     -0.01      0.03      0.82 
   415.51     19.72     78.06     71.73     -0.01      0.03      0.82 
   415.52     19.72     78.06     71.73     -0.01      0.04      0.82 
   415.53     19.72     78.05     71.73     -0.01      0.03      0.82 
   415.54     19.72     78.05     71.73     -0.01      0.03      0.41 
   415.55     19.73     78.04     71.73     -0.01      0.03      0.41 
   415.56     19.73     78.03     71.73     -0.01      0.02      0.82 
   415.57     19.73     78.02     71.73     -0.01      0.01      0.82 
   415.58     19.74     78.02     71.73     -0.00      0.01      0.82 
   415.59     19.74     78.01     71.73     -0.00     -0.00      0.82 
   415.60     19.74     78.01     71.73     -0.00     -0.00      0.82 
