#Written by Robertson Geologging WinLogger V1.0/312
~VERSION INFORMATION
#------------------------------------------------------------------------------
 VERS. 2.0 : CWLS LOG ASCII STANDARD - VERSION 2.0
 WRAP. NO  : ONE LINE PER DEPTH STEP
~WELL INFORMATION
#MNEM.UNIT         DATA                                DESCRIPTION OF MNEMONIC
#------------------------------------------------------------------------------
 STRT.M         56.2000                            :   START DEPTH
 STOP.M        520.0000                            :   STOP DEPTH
 STEP.M          0.1000                            :   STEP VALUE
 NULL.        -999.2500                            :   NULL VALUE
 COMP.    I.M..C.                                  :   COMPANY NAME
 WELL.    Dawdon Shaft                             :   WELL NAME
 FLD.     Dawdon                                   :   FIELD NAME
 LOC.     N/A                                      :   LOCATION
 PROV.    N/A                                      :   PROVINCE
 SRVC.    N/A                                      :   SERVICE COMPANY NAME
 DATE.    30 Jan 04                                :   DATE
 UWI.     N/A                                      :   UNIQUE WELL IDENTIFIER
~PARAMETER INFORMATION
#MNEMO.UNIT         VALUE                 DESCRIPTION OF MNEMONIC
#------------------------------------------------------------------------------
~OTHER INFORMATION SECTION
#------------------------------------------------------------------------------
 TCGX extended range 1365
~CURVE INFORMATION
#MNEMO.UNIT         API CODE              CURVE DESCRIPTION
#------------------------------------------------------------------------------
 DEPTH.M                                 :   0     Depth
 COND.mS/cm                              :   1     Conductivity
 TEMP.DegC                               :   2     Temperature
 C@25.mS/cm                              :   3     Conductivity @25Deg
 DELT.DegC                               :   4     Delta T
 DC@25.mS/cm                             :   5     Delta C @25Deg
 OUT4.CPS                                :   6     Natural Gamma
#------------------------------------------------------------------------------
~A  DEPTH     COND      TEMP      C@25      DELT      DC@25     OUT4      
# ...
   237.00     57.02     16.08     71.49     -0.00      0.01      1.59 
   237.10     57.02     16.07     71.51     -0.01      0.03      2.29 
   237.20     57.02     16.09     71.47      0.00     -0.01      1.53 
   237.30     57.02     16.08     71.49      0.00     -0.01      0.82 
   237.40     57.02     16.08     71.50     -0.01      0.03      0.00 
   237.50     57.02     16.08     71.48     -0.00      0.01      1.59 
   237.60     57.03     16.09     71.47     -0.01      0.02      1.12 
   237.70     57.03     16.09     71.46      0.00      0.00      0.35 
   237.80     57.03     16.09     71.46     -0.00      0.02      0.82 
   237.90     57.02     16.09     71.46      0.01     -0.03      0.82 
   238.00     57.02     16.09     71.47      0.01     -0.03      0.82 
   238.10     57.03     16.10     71.45      0.02     -0.05      1.24 
   238.20     57.02     16.08     71.47     -0.01      0.02      1.18 
   238.30     57.03     16.08     71.49      0.00      0.00      1.47 
   238.40     57.02     16.09     71.49      0.01     -0.02      1.18 
   238.50     57.02     16.09     71.46      0.01     -0.01      1.65 
   238.60     57.02     16.08     71.47     -0.00      0.01      1.59 
   238.70     57.03     16.08     71.50     -0.01      0.04      0.35 
   238.80     57.03     16.09     71.48      0.00      0.00      1.18 
   238.90     57.02     16.09     71.48     -0.00      0.01      1.59 
   239.00     57.02     16.08     71.48     -0.01      0.01      1.06 
   239.10     57.03     16.09     71.48     -0.01      0.03      1.47 
   239.20     57.03     16.09     71.46      0.01     -0.03      2.71 
   239.30     57.02     16.08     71.47      0.00     -0.01      2.71 
   239.40     57.03     16.08     71.50     -0.01      0.03      1.18 
   239.50     57.03     16.09     71.48     -0.00      0.01      1.59 
   239.60     57.03     16.09     71.47      0.01     -0.02      1.18 
   239.70     57.02     16.09     71.46      0.01     -0.03      0.00 
   239.80     57.03     16.09     71.45      0.01     -0.01      0.82 
   239.90     57.03     16.08     71.49     -0.01      0.02      2.00 
   240.00     57.03     16.07     71.51     -0.01      0.03      2.76 
   240.10     57.02     16.08     71.49     -0.01      0.01      1.88 
   240.20     57.03     16.08     71.50     -0.01      0.05      1.47 
   240.30     57.03     16.09     71.47      0.01     -0.01      1.59 
   240.40     57.03     16.08     71.51     -0.00      0.02      1.65 
   240.50     57.03     16.09     71.47      0.00     -0.00      0.82 
   240.60     57.03     16.08     71.48     -0.00      0.02      0.76 
   240.70     57.03     16.09     71.47     -0.00      0.01      1.94 
   240.80     57.02     16.09     71.47     -0.00      0.00      1.53 
   240.90     57.03     16.10     71.45      0.01     -0.04      0.71 
   241.00     57.03     16.09     71.47      0.01     -0.04      0.82 
   241.10     57.03     16.09     71.48      0.01     -0.01      1.59 
   241.20     57.02     16.09     71.48      0.01     -0.02      2.24 
   241.30     57.03     16.09     71.48      0.00     -0.00      0.71 
   241.40     57.03     16.09     71.48      0.01     -0.02      0.00 
   241.50     57.03     16.09     71.48     -0.00      0.00      0.00 
   241.60     57.03     16.08     71.49     -0.00      0.01      0.76 
   241.70     57.03     16.09     71.48     -0.00      0.01      0.41 
   241.80     57.03     16.08     71.49     -0.00      0.02      0.35 
   241.90     57.03     16.08     71.49     -0.01      0.03      1.06 
   242.00     57.03     16.09     71.48     -0.00      0.00      1.76 
   242.10     57.03     16.10     71.44      0.01     -0.03      1.88 
   242.20     57.03     16.09     71.47     -0.00      0.00      1.53 
   242.30     57.03     16.09     71.48      0.00     -0.00      0.35 
   242.40     57.03     16.09     71.46      0.01     -0.01      1.18 
   242.50     57.03     16.08     71.48     -0.00      0.01      1.88 
   242.60     57.03     16.08     71.50     -0.00      0.01      0.71 
   242.70     57.03     16.09     71.46      0.01     -0.01      1.06 
   242.80     57.03     16.09     71.47      0.00     -0.01      1.47 
   242.90     57.03     16.09     71.47      0.01     -0.02      1.94 
   243.00     57.03     16.09     71.48     -0.00      0.01      2.24 
   243.10     57.03     16.09     71.47     -0.00      0.01      1.06 
   243.20     57.03     16.09     71.47      0.01     -0.02      0.71 
   243.30     57.03     16.09     71.48     -0.00      0.01      0.76 
   243.40     57.03     16.08     71.50     -0.01      0.03      1.18 
   243.50     57.03     16.09     71.48      0.01     -0.01      0.76 
   243.60     57.03     16.08     71.49      0.00     -0.00      0.41 
   243.70     57.03     16.09     71.47     -0.00      0.00      0.41 
   243.80     57.03     16.09     71.47      0.00      0.00      0.76 
   243.90     57.03     16.09     71.49     -0.00      0.02      1.47 
   244.00     57.03     16.08     71.49     -0.00     -0.00      1.82 
   244.10     57.03     16.10     71.46      0.00     -0.00      1.06 
   244.20     57.03     16.09     71.47     -0.00      0.01      0.35 
   244.30     57.03     16.09     71.47      0.01     -0.02      0.41 
   244.40     57.03     16.10     71.46      0.01     -0.05      1.12 
   244.50     57.03     16.09     71.47      0.00     -0.01      1.82 
   244.60     57.03     16.09     71.47      0.01     -0.01      1.41 
   244.70     57.03     16.09     71.48     -0.00      0.02      1.06 
   244.80     57.03     16.09     71.47      0.00     -0.00      0.35 
   244.90     57.03     16.09     71.47      0.01     -0.02      0.71 
   245.00     57.03     16.09     71.49      0.00      0.01      0.35 
   245.10     57.03     16.09     71.47     -0.01      0.01      0.71 
   245.20     57.03     16.09     71.48     -0.00      0.01      0.35 
   245.30     57.03     16.10     71.46      0.01     -0.01      1.47 
   245.40     57.03     16.10     71.44      0.01     -0.02      1.47 
   245.50     57.03     16.10     71.45      0.01     -0.03      0.71 
   245.60     57.03     16.10     71.44      0.01     -0.02      0.41 
   245.70     57.03     16.09     71.48      0.00      0.01      1.18 
   245.80     57.03     16.09     71.47     -0.00      0.00      1.12 
   245.90     57.03     16.09     71.48     -0.00      0.01      1.12 
   246.00     57.03     16.09     71.47      0.01     -0.01      0.35 
   246.10     57.03     16.08     71.50     -0.01      0.02      1.47 
   246.20     57.03     16.10     71.45      0.01     -0.04      1.82 
   246.30     57.03     16.09     71.47     -0.01      0.02      1.12 
   246.40     57.03     16.10     71.45     -0.01      0.02      1.12 
   246.50     57.03     16.09     71.47     -0.01      0.02      2.29 
   246.60     57.03     16.09     71.47     -0.01      0.02      1.18 
   246.70     57.03     16.08     71.49     -0.01      0.01      0.00 
   246.80     57.03     16.09     71.48      0.00     -0.00      1.88 
   246.90     57.03     16.09     71.49     -0.01      0.02      2.29 
   247.00     57.03     16.09     71.49     -0.01      0.01      0.76 
   247.10     57.03     16.09     71.48      0.00     -0.00      0.76 
   247.20     57.03     16.09     71.47     -0.01      0.02      0.71 
   247.30     57.03     16.09     71.49     -0.00      0.01      0.35 
   247.40     57.03     16.09     71.47     -0.01      0.02      0.76 
   247.50     57.04     16.09     71.47      0.00      0.01      1.88 
   247.60     57.03     16.09     71.47      0.00     -0.01      1.47 
   247.70     57.03     16.09     71.47      0.01     -0.03      1.47 
   247.80     57.03     16.09     71.48     -0.00      0.01      1.12 
   247.90     57.03     16.08     71.50     -0.00      0.01      0.71 
   248.00     57.03     16.09     71.49      0.00     -0.01      1.47 
   248.10     57.03     16.09     71.49     -0.00      0.01      0.76 
   248.20     57.03     16.10     71.46      0.01     -0.02      0.41 
