#Written by Robertson Geologging WinLogger V1.0/312
~VERSION INFORMATION
#------------------------------------------------------------------------------
 VERS. 2.0 : CWLS LOG ASCII STANDARD - VERSION 2.0
 WRAP. NO  : ONE LINE PER DEPTH STEP
~WELL INFORMATION
#MNEM.UNIT         DATA                                DESCRIPTION OF MNEMONIC
#------------------------------------------------------------------------------
 STRT.M         56.2000                            :   START DEPTH
 STOP.M        520.0000                            :   STOP DEPTH
 STEP.M          0.1000                            :   STEP VALUE
 NULL.        -999.2500                            :   NULL VALUE
 COMP.    I.M..C.                                  :   COMPANY NAME
 WELL.    Dawdon Shaft                             :   WELL NAME
 FLD.     Dawdon                                   :   FIELD NAME
 LOC.     N/A                                      :   LOCATION
 PROV.    N/A                                      :   PROVINCE
 SRVC.    N/A                                      :   SERVICE COMPANY NAME
 DATE.    30 Jan 04                                :   DATE
 UWI.     N/A                                      :   UNIQUE WELL IDENTIFIER
~PARAMETER INFORMATION
#MNEMO.UNIT         VALUE                 DESCRIPTION OF MNEMONIC
#------------------------------------------------------------------------------
~OTHER INFORMATION SECTION
#------------------------------------------------------------------------------
 TCGX extended range 1365
~CURVE INFORMATION
#MNEMO.UNIT         API CODE              CURVE DESCRIPTION
#------------------------------------------------------------------------------
 DEPTH.M                                 :   0     Depth
 COND.mS/cm                              :   1     Conductivity
 TEMP.DegC                               :   2     Temperature
 C@25.mS/cm                              :   3     Conductivity @25Deg
 DELT.DegC                               :   4     Delta T
 DC@25.mS/cm                             :   5     Delta C @25Deg
 OUT4.CPS                                :   6     Natural Gamma
#------------------------------------------------------------------------------
~A  DEPTH     COND      TEMP      C@25      DELT      DC@25     OUT4      
# ...
   203.10     56.90     16.02     71.51      0.01      0.01      3.29 
   203.20     56.90     16.03     71.49      0.01      0.01      2.35 
   203.30     56.91     16.03     71.50      0.01      0.00      0.82 
   203.40     56.90     16.03     71.49      0.01     -0.00      1.12 
   203.50     56.91     16.03     71.50      0.01     -0.01      0.76 
   203.60     56.91     16.03     71.49      0.00      0.02      0.82 
   203.70     56.91     16.03     71.50     -0.00      0.03      0.41 
   203.80     56.91     16.02     71.50     -0.00      0.03      0.35 
   203.90     56.92     16.03     71.50      0.00      0.02      0.76 
   204.00     56.92     16.03     71.49      0.01     -0.00      1.88 
   204.10     56.92     16.02     71.53     -0.00      0.03      0.71 
   204.20     56.92     16.04     71.48      0.01     -0.02      1.53 
   204.30     56.92     16.03     71.50      0.00      0.01      1.88 
   204.40     56.92     16.03     71.51     -0.00      0.03      0.76 
   204.50     56.92     16.03     71.52     -0.00      0.02      1.12 
   204.60     56.93     16.03     71.50      0.00      0.01      2.94 
   204.70     56.93     16.03     71.51     -0.00      0.02      4.18 
   204.80     56.93     16.03     71.51      0.01     -0.01      1.88 
   204.90     56.93     16.03     71.51     -0.00      0.02      1.94 
   205.00     56.93     16.03     71.51      0.00      0.02      1.53 
   205.10     56.93     16.04     71.50      0.01     -0.02      0.76 
   205.20     56.94     16.04     71.50     -0.00      0.03      1.12 
   205.30     56.93     16.04     71.49      0.01     -0.02      0.35 
   205.40     56.94     16.04     71.50      0.01     -0.02      0.41 
   205.50     56.94     16.03     71.53      0.00      0.01      0.00 
   205.60     56.93     16.04     71.50      0.00      0.01      0.00 
   205.70     56.94     16.03     71.52      0.00      0.01      0.76 
   205.80     56.94     16.03     71.52     -0.00      0.02      1.88 
   205.90     56.94     16.04     71.51      0.01     -0.00      0.76 
   206.00     56.94     16.03     71.51     -0.00      0.01      0.35 
   206.10     56.94     16.03     71.54     -0.01      0.03      0.00 
   206.20     56.94     16.03     71.53     -0.01      0.04      0.76 
   206.30     56.94     16.04     71.51     -0.00      0.02      2.35 
   206.40     56.94     16.04     71.50      0.01     -0.00      3.12 
   206.50     56.95     16.04     71.51      0.01     -0.01      2.76 
   206.60     56.95     16.04     71.51      0.00      0.01      2.24 
   206.70     56.94     16.04     71.50      0.01     -0.02      1.12 
   206.80     56.95     16.04     71.52      0.01     -0.00      0.76 
   206.90     56.95     16.03     71.53     -0.00      0.02      1.18 
   207.00     56.95     16.04     71.52      0.01     -0.00      1.24 
   207.10     56.95     16.03     71.53      0.01     -0.01      0.82 
   207.20     56.95     16.04     71.51      0.01     -0.03      2.00 
   207.30     56.95     16.04     71.52     -0.00      0.01      2.41 
   207.40     56.95     16.04     71.53     -0.00      0.03      1.24 
   207.50     56.95     16.05     71.50      0.01     -0.01      1.18 
   207.60     56.96     16.04     71.51      0.01     -0.00      1.18 
   207.70     56.95     16.04     71.52     -0.00      0.02      1.12 
   207.80     56.95     16.05     71.49      0.01     -0.03      0.76 
   207.90     56.96     16.04     71.52      0.01     -0.01      0.76 
   208.00     56.96     16.05     71.49      0.01     -0.02      0.76 
   208.10     56.96     16.04     71.53      0.01      0.00      0.35 
   208.20     56.96     16.04     71.51      0.00      0.00      0.35 
   208.30     56.96     16.04     71.52      0.00     -0.01      1.47 
   208.40     56.96     16.05     71.51      0.01     -0.01      1.82 
   208.50     56.96     16.05     71.49      0.01     -0.01      0.71 
   208.60     56.96     16.05     71.50      0.00     -0.00      0.41 
   208.70     56.96     16.05     71.51      0.01     -0.01      1.53 
   208.80     56.96     16.04     71.52     -0.00      0.02      2.76 
   208.90     56.96     16.05     71.50      0.01     -0.02      1.24 
   209.00     56.97     16.04     71.52     -0.01      0.03      0.00 
   209.10     56.97     16.05     71.49      0.02     -0.04      0.41 
   209.20     56.97     16.05     71.52      0.00      0.01      1.24 
   209.30     56.96     16.06     71.49      0.02     -0.04      1.47 
   209.40     56.97     16.05     71.49      0.01     -0.01      0.71 
   209.50     56.97     16.05     71.50     -0.00      0.01      0.41 
   209.60     56.97     16.05     71.50      0.00      0.00      2.00 
   209.70     56.97     16.05     71.52     -0.00      0.01      1.24 
   209.80     56.97     16.05     71.52      0.00      0.00      0.00 
   209.90     56.97     16.05     71.51     -0.00      0.01      0.35 
   210.00     56.97     16.05     71.51      0.01     -0.02      0.71 
   210.10     56.97     16.06     71.49      0.00      0.01      1.18 
   210.20     56.97     16.05     71.51      0.01     -0.01      1.12 
   210.30     56.98     16.05     71.52     -0.01      0.03      0.35 
   210.40     56.97     16.06     71.49      0.00     -0.01      1.53 
   210.50     56.97     16.06     71.50      0.00     -0.00      2.29 
   210.60     56.98     16.05     71.50      0.00     -0.01      1.59 
   210.70     56.98     16.06     71.48      0.02     -0.03      2.41 
   210.80     56.97     16.06     71.49      0.01     -0.02      1.12 
   210.90     56.98     16.06     71.50      0.01     -0.01      1.18 
   211.00     56.98     16.05     71.51      0.00      0.01      0.82 
   211.10     56.97     16.05     71.51     -0.01      0.02      1.59 
   211.20     56.98     16.06     71.49      0.01     -0.01      1.53 
   211.30     56.98     16.05     71.51      0.00      0.00      1.41 
   211.40     56.98     16.06     71.50      0.00      0.01      0.76 
   211.50     56.98     16.05     71.50     -0.00      0.01      0.82 
   211.60     56.98     16.06     71.51     -0.00      0.01      0.82 
   211.70     56.98     16.06     71.49      0.00      0.00      1.53 
   211.80     56.98     16.06     71.48      0.01     -0.01      1.12 
   211.90     56.98     16.07     71.48      0.01     -0.03      1.12 
   212.00     56.98     16.06     71.48      0.01     -0.03      2.35 
   212.10     56.98     16.06     71.49      0.01     -0.02      2.65 
   212.20     56.98     16.05     71.51     -0.01      0.02      1.82 
   212.30     56.98     16.05     71.52      0.00      0.00      1.59 
   212.40     56.98     16.06     71.49      0.00     -0.01      1.12 
   212.50     56.98     16.05     71.52      0.00      0.01      0.71 
   212.60     56.98     16.06     71.50      0.00     -0.00      0.41 
   212.70     56.98     16.06     71.48     -0.00      0.00      1.12 
   212.80     56.98     16.06     71.49      0.00      0.00      1.82 
   212.90     56.98     16.06     71.50     -0.00      0.03      1.53 
   213.00     56.98     16.06     71.50     -0.00      0.01      1.18 
   213.10     56.99     16.06     71.50      0.00     -0.00      0.76 
   213.20     56.99     16.07     71.49      0.01     -0.03      0.35 
   213.30     56.98     16.06     71.49      0.01     -0.02      1.47 
   213.40     56.99     16.06     71.51     -0.00      0.02      1.12 
   213.50     56.99     16.06     71.51      0.00      0.00      1.06 
   213.60     56.99     16.06     71.50      0.00     -0.01      1.41 
   213.70     56.98     16.07     71.46      0.01     -0.03      0.71 
   213.80     56.99     16.06     71.50     -0.00      0.01      1.47 
   213.90     56.99     16.06     71.49      0.00     -0.01      1.82 
   214.00     56.99     16.07     71.47      0.01     -0.03      1.06 
   214.10     56.99     16.07     71.47      0.01     -0.02      1.06 
   214.20     56.99     16.07     71.47      0.01     -0.02      0.35 
   214.30     56.99     16.07     71.48      0.01     -0.02      1.59 
