#Written by Robertson Geologging WinLogger V1.0/406
~VERSION INFORMATION
#------------------------------------------------------------------------------
 VERS. 2.0 : CWLS LOG ASCII STANDARD - VERSION 2.0
 WRAP. NO  : ONE LINE PER DEPTH STEP
~WELL INFORMATION
#MNEM.UNIT         DATA                                DESCRIPTION OF MNEMONIC
#------------------------------------------------------------------------------
 STRT.M         40.0600                            :   START DEPTH
 STOP.M        498.0000                            :   STOP DEPTH
 STEP.M          0.0100                            :   STEP VALUE
 NULL.        -999.2500                            :   NULL VALUE
 COMP.    Coal Authority                           :   COMPANY NAME
 WELL.    Dawdon                                   :   WELL NAME
 FLD.     N/A                                      :   FIELD NAME
 LOC.     N/A                                      :   LOCATION
 PROV.    N/A                                      :   PROVINCE
 SRVC.    N/A                                      :   SERVICE COMPANY NAME
 DATE.    30 Sep 08                                :   DATE
 UWI.     N/A                                      :   UNIQUE WELL IDENTIFIER
~PARAMETER INFORMATION
#MNEMO.UNIT         VALUE                 DESCRIPTION OF MNEMONIC
#------------------------------------------------------------------------------
~OTHER INFORMATION SECTION
#------------------------------------------------------------------------------
 TCGS2822
~CURVE INFORMATION
#MNEMO.UNIT         API CODE              CURVE DESCRIPTION
#------------------------------------------------------------------------------
 DEPTH.M                                 :   0     Depth
 TEMP.DegC                               :   1     Temperature
 COND.uS/cm                              :   2     Conductivity
 DELT.DegC                               :   3     Delta T
 DELC.uS/cm                              :   4     Delta C
 NGAM.CPS                                :   5     Natural Gamma
#------------------------------------------------------------------------------
~A  DEPTH     TEMP      COND      DELT      DELC      NGAM      
# ...
   344.98     17.28  45433.99      0.00     -9.35      0.00 
   344.99     17.28  45441.00      0.00     16.37      0.00 
   345.00     17.28  45433.99     -0.00      1.17      0.00 
   345.01     17.28  45433.99     -0.00      0.00      0.00 
   345.02     17.29  45443.34     -0.00      0.00      0.00 
   345.03     17.28  45441.00     -0.01      7.01      0.00 
   345.04     17.28  45433.99     -0.01     -7.01      8.00 
   345.05     17.27  45433.99     -0.02      0.00      0.00 
   345.06     17.25  45443.34     -0.03      9.35      0.00 
   345.07     17.26  45432.82     -0.01    -10.52      0.00 
   345.08     17.27  45433.99      0.01      0.00      8.00 
   345.09     17.28  45433.99      0.03     -7.01      0.00 
   345.10     17.29  45433.99      0.03      0.00      0.00 
   345.11     17.29  45441.00      0.03     16.37     14.00 
   345.12     17.28  45433.99      0.02     -9.35      0.00 
   345.13     17.28  45443.34      0.00     10.52      0.00 
   345.14     17.27  45432.82      0.00     -1.17      0.00 
   345.15     17.27  45433.99     -0.00     -9.35      0.00 
   345.16     17.28  45443.34      0.00      9.35      0.00 
   345.17     17.28  45433.99      0.01     -7.01      0.00 
   345.18     17.27  45441.00      0.00      7.01      7.00 
   345.19     17.28  45433.99      0.01     -9.35      0.00 
   345.20     17.27  45424.64      0.00     -9.35      8.00 
   345.21     17.27  45433.99     -0.01     -7.01      8.00 
   345.22     17.28  45443.34      0.01      9.35      0.00 
   345.23     17.26  45432.82      0.01     -1.17      0.00 
   345.24     17.26  45433.99      0.01      0.00      0.00 
   345.25     17.27  45433.99      0.00     -9.35      0.00 
   345.26     17.27  45443.34      0.00     10.52      0.00 
   345.27     17.27  45432.82     -0.00    -10.52      0.00 
   345.28     17.27  45443.34     -0.00      9.35      0.00 
   345.29     17.27  45433.99      0.01      0.00      0.00 
   345.30     17.28  45433.99      0.01     -9.35      0.00 
   345.31     17.28  45432.82      0.01     -1.17      0.00 
   345.32     17.28  45433.99      0.01     -9.35      8.00 
   345.33     17.28  45433.99      0.00      0.00      0.00 
   345.34     17.28  45443.34     -0.01      9.35      0.00 
   345.35     17.28  45433.99     -0.01      1.17      0.00 
   345.36     17.28  45432.82      0.00    -10.52      0.00 
   345.37     17.28  45443.34      0.02      9.35      0.00 
   345.38     17.28  45443.34      0.02      9.35      0.00 
   345.39     17.28  45433.99      0.02      0.00      0.00 
   345.40     17.27  45433.99      0.01      0.00      0.00 
   345.41     17.26  45443.34     -0.01      0.00      0.00 
   345.42     17.28  45432.82     -0.00     -1.17      0.00 
   345.43     17.27  45433.99     -0.02     -7.01      0.00 
   345.44     17.28  45433.99      0.00      0.00      0.00 
   345.45     17.27  45443.34      0.00      0.00      0.00 
   345.46     17.26  45433.99      0.00      0.00      0.00 
   345.47     17.28  45433.99      0.02      9.35      0.00 
   345.48     17.28  45432.82      0.01    -10.52      0.00 
   345.49     17.28  45443.34      0.00      9.35      0.00 
   345.50     17.29  45433.99      0.01      0.00      0.00 
   345.51     17.28  45443.34     -0.01      2.34      0.00 
   345.52     17.29  45433.99      0.00     -9.35      0.00 
   345.53     17.30  45433.99      0.03      0.00      8.00 
   345.54     17.28  45441.00      0.01      7.01      0.00 
   345.55     17.27  45424.64      0.00    -18.70      0.00 
   345.56     17.27  45443.34     -0.01     10.52      0.00 
   345.57     17.26  45433.99     -0.01     -9.35      0.00 
   345.58     17.27  45433.99     -0.01      0.00      8.00 
   345.59     17.28  45443.34     -0.00      9.35      0.00 
   345.60     17.28  45432.82      0.00      0.00      0.00 
   345.61     17.28  45443.34      0.00      0.00      8.00 
   345.62     17.28  45433.99      0.02      0.00      0.00 
   345.63     17.28  45433.99      0.02     -7.01      8.00 
   345.64     17.29  45443.34      0.03      9.35      0.00 
   345.65     17.28  45432.82      0.02    -10.52      0.00 
   345.66     17.27  45443.34      0.00      9.35      8.00 
   345.67     17.28  45424.64      0.01    -24.55      8.00 
   345.68     17.27  45441.00     -0.00      7.01      0.00 
   345.69     17.28  45433.99      0.01      0.00      0.00 
   345.70     17.29  45441.00      0.02     -2.34      0.00 
   345.71     17.29  45443.34      0.02     18.70      0.00 
   345.72     17.29  45441.00      0.03     -2.34      0.00 
   345.73     17.28  45443.34      0.00      9.35      0.00 
   345.74     17.28  45441.00      0.01      7.01      0.00 
   345.75     17.28  45433.99     -0.01     -7.01      0.00 
   345.76     17.27  45441.00     -0.02     -2.34      0.00 
   345.77     17.28  45443.34     -0.01      9.35      0.00 
   345.78     17.28  45441.00      0.00     -2.34      7.00 
   345.79     17.28  45433.99      0.00      0.00      0.00 
   345.80     17.28  45441.00      0.01      7.01      0.00 
   345.81     17.27  45443.34      0.00      0.00      0.00 
   345.82     17.27  45441.00     -0.01      7.01      0.00 
   345.83     17.28  45443.34     -0.01     10.52      0.00 
   345.84     17.26  45449.19     -0.03     15.20      0.00 
   345.85     17.27  45443.34     -0.01      9.35      0.00 
   345.86     17.27  45443.34     -0.01      9.35      0.00 
   345.87     17.26  45441.00     -0.01     -2.34      0.00 
   345.88     17.28  45443.34      0.01      9.35      0.00 
   345.89     17.28  45443.34      0.01      9.35      0.00 
   345.90     17.29  45433.99      0.01     -9.35      0.00 
   345.91     17.30  45441.00      0.02      7.01      7.00 
   345.92     17.30  45443.34      0.01      0.00      0.00 
   345.93     17.29  45433.99      0.00      0.00      0.00 
   345.94     17.28  45449.19      0.00     16.37      7.00 
   345.95     17.29  45443.34      0.02      9.35      0.00 
   345.96     17.29  45443.34      0.02      0.00      8.00 
   345.97     17.28  45441.00      0.01      7.01      7.00 
   345.98     17.28  45443.34     -0.00      2.34      8.00 
   345.99     17.28  45433.99     -0.01      0.00      0.00 
   346.00     17.28  45449.19     -0.01     15.20      0.00 
   346.01     17.28  45443.34     -0.01      0.00      0.00 
   346.02     17.28  45424.64     -0.00    -16.37      0.00 
   346.03     17.28  45449.19      0.00     15.20      7.00 
   346.04     17.27  45443.34      0.00      9.35      0.00 
   346.05     17.28  45433.99      0.02     -9.35      0.00 
   346.06     17.28  45449.19      0.02     16.37      0.00 
   346.07     17.28  45443.34      0.00      9.35      0.00 
   346.08     17.27  45441.00     -0.01      7.01      7.00 
   346.09     17.27  45443.34     -0.02      9.35      0.00 
   346.10     17.28  45441.00     -0.01      0.00      0.00 
   346.11     17.28  45443.34      0.00      9.35      8.00 
   346.12     17.28  45449.19      0.01      5.85      0.00 
   346.13     17.28  45443.34      0.01     10.52      0.00 
   346.14     17.28  45433.99      0.02      0.00      0.00 
   346.15     17.28  45441.00      0.01     -2.34      0.00 
   346.16     17.28  45443.34      0.00      9.35      0.00 
   346.17     17.28  45441.00      0.01      0.00      7.00 
   346.18     17.27  45443.34     -0.00      9.35      0.00 
   346.19     17.27  45441.00      0.00     16.37      0.00 
   346.20     17.28  45443.34      0.01      9.35      0.00 
   346.21     17.28  45449.19      0.01      5.85      0.00 
   346.22     17.29  45443.34      0.03     10.52      0.00 
   346.23     17.29  45433.99      0.03      0.00      0.00 
   346.24     17.28  45449.19      0.02     15.20      0.00 
   346.25     17.28  45433.99      0.02     -9.35      0.00 
   346.26     17.29  45441.00      0.02      8.18      0.00 
   346.27     17.28  45453.86      0.01     10.52      8.00 
   346.28     17.28  45441.00      0.01      7.01      7.00 
   346.29     17.27  45443.34     -0.01      9.35      0.00 
