#Written by Robertson Geologging WinLogger V1.0/312
~VERSION INFORMATION
#------------------------------------------------------------------------------
 VERS. 2.0 : CWLS LOG ASCII STANDARD - VERSION 2.0
 WRAP. NO  : ONE LINE PER DEPTH STEP
~WELL INFORMATION
#MNEM.UNIT         DATA                                DESCRIPTION OF MNEMONIC
#------------------------------------------------------------------------------
 STRT.M         56.2000                            :   START DEPTH
 STOP.M        520.0000                            :   STOP DEPTH
 STEP.M          0.1000                            :   STEP VALUE
 NULL.        -999.2500                            :   NULL VALUE
 COMP.    I.M..C.                                  :   COMPANY NAME
 WELL.    Dawdon Shaft                             :   WELL NAME
 FLD.     Dawdon                                   :   FIELD NAME
 LOC.     N/A                                      :   LOCATION
 PROV.    N/A                                      :   PROVINCE
 SRVC.    N/A                                      :   SERVICE COMPANY NAME
 DATE.    30 Jan 04                                :   DATE
 UWI.     N/A                                      :   UNIQUE WELL IDENTIFIER
~PARAMETER INFORMATION
#MNEMO.UNIT         VALUE                 DESCRIPTION OF MNEMONIC
#------------------------------------------------------------------------------
~OTHER INFORMATION SECTION
#------------------------------------------------------------------------------
 TCGX extended range 1365
~CURVE INFORMATION
#MNEMO.UNIT         API CODE              CURVE DESCRIPTION
#------------------------------------------------------------------------------
 DEPTH.M                                 :   0     Depth
 COND.mS/cm                              :   1     Conductivity
 TEMP.DegC                               :   2     Temperature
 C@25.mS/cm                              :   3     Conductivity @25Deg
 DELT.DegC                               :   4     Delta T
 DC@25.mS/cm                             :   5     Delta C @25Deg
 OUT4.CPS                                :   6     Natural Gamma
#------------------------------------------------------------------------------
~A  DEPTH     COND      TEMP      C@25      DELT      DC@25     OUT4      
# ...
   474.30     78.90     22.31     77.95     -0.01      0.03      2.76 
   474.40     78.90     22.33     77.92      0.00     -0.01      4.00 
   474.50     78.90     22.33     77.92     -0.01      0.02      2.71 
   474.60     78.90     22.33     77.89      0.01     -0.04      3.82 
   474.70     78.90     22.33     77.89      0.01     -0.03      2.29 
   474.80     78.90     22.34     77.88      0.03     -0.10      1.94 
   474.90     78.90     22.32     77.91      0.01     -0.02      1.59 
   475.00     78.90     22.32     77.93     -0.02      0.04      1.82 
   475.10     78.90     22.32     77.91     -0.01      0.02      2.35 
   475.20     78.90     22.32     77.92     -0.00      0.01      2.65 
   475.30     78.90     22.33     77.90      0.02     -0.05      1.12 
   475.40     78.90     22.33     77.91      0.01     -0.02      1.12 
   475.50     78.90     22.33     77.91      0.00     -0.00      3.12 
   475.60     78.90     22.34     77.87      0.00     -0.02      3.18 
   475.70     78.90     22.33     77.88     -0.00      0.01      2.59 
   475.80     78.89     22.33     77.92     -0.01      0.03      2.94 
   475.90     78.89     22.33     77.88      0.01     -0.05      1.88 
   476.00     78.89     22.33     77.91      0.00     -0.02      2.35 
   476.10     78.89     22.32     77.92     -0.00      0.01      4.59 
   476.20     78.89     22.34     77.87      0.01     -0.05      3.82 
   476.30     78.89     22.33     77.88      0.00     -0.02      3.12 
   476.40     78.88     22.32     77.92     -0.01      0.02      1.94 
   476.50     78.88     22.33     77.89     -0.00     -0.02      2.65 
   476.60     78.89     22.34     77.85      0.00     -0.02      1.88 
   476.70     78.88     22.32     77.90     -0.01      0.01      1.76 
   476.80     78.89     22.33     77.89     -0.00      0.00      2.94 
   476.90     78.88     22.33     77.87      0.01     -0.04      3.47 
   477.00     78.88     22.34     77.86      0.01     -0.04      1.94 
   477.10     78.88     22.33     77.87      0.01     -0.05      3.94 
   477.20     78.88     22.32     77.89     -0.01      0.03      5.35 
   477.30     78.87     22.33     77.89     -0.00     -0.01      3.35 
   477.40     78.87     22.34     77.85      0.02     -0.06      1.24 
   477.50     78.87     22.33     77.86      0.01     -0.04      1.24 
   477.60     78.87     22.33     77.86     -0.01      0.01      3.12 
   477.70     78.87     22.34     77.85      0.01     -0.04      2.59 
   477.80     78.86     22.33     77.85      0.00     -0.04      3.00 
   477.90     78.86     22.33     77.88     -0.01      0.01      1.47 
   478.00     78.86     22.34     77.84      0.00     -0.02      2.12 
   478.10     78.86     22.34     77.84      0.00     -0.02      1.47 
   478.20     78.86     22.33     77.87      0.01     -0.03      3.06 
   478.30     78.86     22.32     77.91     -0.01      0.03      3.18 
   478.40     78.86     22.33     77.86     -0.01      0.01      3.24 
   478.50     78.86     22.32     77.87     -0.01      0.01      3.59 
   478.60     78.85     22.33     77.85      0.00     -0.02      2.71 
   478.70     78.85     22.32     77.88     -0.02      0.04      3.53 
   478.80     78.85     22.33     77.86      0.00     -0.02      2.82 
   478.90     78.85     22.33     77.86     -0.00     -0.01      1.53 
   479.00     78.86     22.33     77.84     -0.00      0.01      2.24 
   479.10     78.85     22.33     77.86     -0.01      0.01      2.65 
   479.20     78.85     22.34     77.82      0.01     -0.05      3.00 
   479.30     78.85     22.33     77.86      0.01     -0.04      2.65 
   479.40     78.85     22.34     77.82      0.01     -0.03      2.00 
   479.50     78.85     22.33     77.85      0.01     -0.04      2.65 
   479.60     78.85     22.33     77.85     -0.00      0.00      1.12 
   479.70     78.84     22.34     77.83      0.02     -0.07      1.59 
   479.80     78.84     22.33     77.84     -0.00     -0.01      2.24 
   479.90     78.85     22.33     77.86      0.00     -0.01      2.59 
   480.00     78.84     22.34     77.81      0.01     -0.04      3.41 
   480.10     78.84     22.33     77.82      0.00     -0.02      4.24 
   480.20     78.84     22.33     77.84     -0.00     -0.01      2.29 
   480.30     78.83     22.32     77.83     -0.00     -0.01      1.47 
   480.40     78.82     22.33     77.82     -0.01     -0.01      1.88 
   480.50     78.85     22.33     77.84      0.00      0.00      2.24 
   480.60     78.86     22.36     77.76      0.04     -0.10      2.59 
   480.70     78.86     22.39     77.67      0.06     -0.15      3.47 
   480.80     78.86     22.41     77.60      0.09     -0.25      3.53 
   480.90     78.85     22.41     77.62      0.08     -0.22      2.65 
   481.00     78.86     22.41     77.61      0.07     -0.20      2.65 
   481.10     78.86     22.42     77.60      0.09     -0.25      2.59 
   481.20     78.86     22.42     77.58      0.08     -0.23      1.82 
   481.30     78.87     22.40     77.65      0.08     -0.20      1.18 
   481.40     78.87     22.43     77.57      0.10     -0.26      2.24 
   481.50     78.87     22.42     77.59      0.08     -0.23      1.82 
   481.60     78.88     22.42     77.60      0.06     -0.16      1.53 
   481.70     78.88     22.43     77.57      0.04     -0.08      2.41 
   481.80     78.88     22.42     77.61      0.00      0.02      4.00 
   481.90     78.89     22.42     77.61      0.01     -0.00      3.82 
   482.00     78.89     22.41     77.63      0.00      0.02      1.18 
   482.10     78.89     22.42     77.63     -0.01      0.05      1.94 
   482.20     78.89     22.43     77.59      0.02     -0.03      3.88 
   482.30     78.90     22.43     77.58      0.03     -0.05      3.53 
   482.40     78.90     22.42     77.65     -0.02      0.09      3.24 
   482.50     78.90     22.43     77.61      0.01      0.00      1.53 
   482.60     78.91     22.41     77.66     -0.01      0.07      1.12 
   482.70     78.91     22.42     77.62     -0.01      0.05      2.35 
   482.80     78.91     22.43     77.60      0.01     -0.02      1.53 
   482.90     78.91     22.42     77.63      0.00      0.02      1.53 
   483.00     78.92     22.42     77.64      0.01      0.01      2.06 
   483.10     78.89     22.42     77.62      0.00      0.00      2.35 
   483.20     78.91     22.42     77.64     -0.01      0.07      1.41 
   483.30     78.94     22.43     77.65     -0.00      0.05      1.88 
   483.40     78.94     22.49     77.48      0.07     -0.17      1.94 
   483.50     78.94     22.52     77.37      0.10     -0.26      2.65 
   483.60     78.94     22.55     77.27      0.14     -0.40      3.35 
   483.70     78.94     22.56     77.24      0.13     -0.38      3.41 
   483.80     78.94     22.58     77.19      0.15     -0.42      5.24 
   483.90     78.93     22.57     77.20      0.15     -0.43      3.06 
   484.00     78.94     22.57     77.21      0.15     -0.43      1.18 
   484.10     78.93     22.56     77.24      0.13     -0.37      1.24 
   484.20     78.93     22.58     77.18      0.16     -0.49      2.76 
   484.30     78.93     22.57     77.17      0.14     -0.46      5.06 
   484.40     78.92     22.57     77.19      0.08     -0.25      3.18 
   484.50     78.92     22.57     77.17      0.05     -0.19      3.06 
   484.60     78.92     22.58     77.15      0.03     -0.11      3.71 
   484.70     78.91     22.57     77.19      0.01     -0.05      1.53 
   484.80     78.91     22.58     77.16      0.01     -0.05      1.59 
   484.90     78.91     22.57     77.19     -0.00     -0.02      3.00 
   485.00     78.90     22.59     77.14      0.02     -0.10      3.24 
   485.10     78.91     22.58     77.12      0.03     -0.11      3.76 
   485.20     78.91     22.56     77.18     -0.02      0.03      1.24 
   485.30     78.90     22.57     77.17     -0.00     -0.03      2.29 
   485.40     78.90     22.58     77.15      0.00     -0.04      1.18 
   485.50     78.89     22.57     77.16     -0.01     -0.00      3.06 
