#Written by Robertson Geologging WinLogger V1.0/312
~VERSION INFORMATION
#------------------------------------------------------------------------------
 VERS. 2.0 : CWLS LOG ASCII STANDARD - VERSION 2.0
 WRAP. NO  : ONE LINE PER DEPTH STEP
~WELL INFORMATION
#MNEM.UNIT         DATA                                DESCRIPTION OF MNEMONIC
#------------------------------------------------------------------------------
 STRT.M         56.2000                            :   START DEPTH
 STOP.M        520.0000                            :   STOP DEPTH
 STEP.M          0.1000                            :   STEP VALUE
 NULL.        -999.2500                            :   NULL VALUE
 COMP.    I.M..C.                                  :   COMPANY NAME
 WELL.    Dawdon Shaft                             :   WELL NAME
 FLD.     Dawdon                                   :   FIELD NAME
 LOC.     N/A                                      :   LOCATION
 PROV.    N/A                                      :   PROVINCE
 SRVC.    N/A                                      :   SERVICE COMPANY NAME
 DATE.    30 Jan 04                                :   DATE
 UWI.     N/A                                      :   UNIQUE WELL IDENTIFIER
~PARAMETER INFORMATION
#MNEMO.UNIT         VALUE                 DESCRIPTION OF MNEMONIC
#------------------------------------------------------------------------------
~OTHER INFORMATION SECTION
#------------------------------------------------------------------------------
 TCGX extended range 1365
~CURVE INFORMATION
#MNEMO.UNIT         API CODE              CURVE DESCRIPTION
#------------------------------------------------------------------------------
 DEPTH.M                                 :   0     Depth
 COND.mS/cm                              :   1     Conductivity
 TEMP.DegC                               :   2     Temperature
 C@25.mS/cm                              :   3     Conductivity @25Deg
 DELT.DegC                               :   4     Delta T
 DC@25.mS/cm                             :   5     Delta C @25Deg
 OUT4.CPS                                :   6     Natural Gamma
#------------------------------------------------------------------------------
~A  DEPTH     COND      TEMP      C@25      DELT      DC@25     OUT4      
# ...
   417.80     72.67     19.63     79.37      0.01     -0.02      1.76 
   417.90     72.67     19.63     79.39      0.01     -0.04      1.47 
   418.00     72.67     19.61     79.43     -0.01      0.04      3.00 
   418.10     72.67     19.64     79.38      0.00     -0.01      1.47 
   418.20     72.67     19.64     79.36      0.01     -0.04      1.06 
   418.30     72.67     19.63     79.37     -0.01      0.04      0.71 
   418.40     72.67     19.62     79.44     -0.02      0.08      2.65 
   418.50     72.67     19.62     79.41      0.00     -0.01      3.29 
   418.60     72.67     19.62     79.43     -0.01      0.03      2.29 
   418.70     72.67     19.64     79.37      0.00     -0.01      3.06 
   418.80     72.67     19.62     79.41     -0.01      0.03      1.88 
   418.90     72.67     19.62     79.42     -0.01      0.03      1.88 
   419.00     72.67     19.63     79.39      0.01     -0.03      1.88 
   419.10     72.67     19.64     79.38     -0.00      0.01      1.12 
   419.20     72.67     19.63     79.39     -0.01      0.04      1.12 
   419.30     72.67     19.63     79.38      0.00     -0.02      1.94 
   419.40     72.67     19.64     79.35      0.03     -0.09      2.35 
   419.50     72.67     19.62     79.42     -0.01      0.02      1.47 
   419.60     72.67     19.62     79.44     -0.00      0.00      2.24 
   419.70     72.67     19.64     79.37      0.00     -0.00      4.24 
   419.80     72.67     19.63     79.40      0.01     -0.03      3.35 
   419.90     72.66     19.63     79.38      0.01     -0.03      1.88 
   420.00     72.63     19.64     79.35      0.01     -0.07      1.47 
   420.10     72.73     19.64     79.40      0.00      0.06      2.24 
   420.20     72.91     19.67     79.55      0.04      0.14      1.41 
   420.30     72.90     19.77     79.26      0.13     -0.14      1.76 
   420.40     72.98     19.82     79.16      0.18     -0.20      1.47 
   420.50     73.03     19.86     79.10      0.25     -0.35      1.88 
   420.60     73.03     19.90     78.98      0.28     -0.45      1.82 
   420.70     73.04     19.94     78.87      0.30     -0.49      0.71 
   420.80     73.05     19.95     78.83      0.33     -0.57      0.41 
   420.90     73.05     19.98     78.76      0.34     -0.61      1.88 
   421.00     73.07     19.98     78.78      0.34     -0.54      2.88 
   421.10     73.15     19.99     78.83      0.35     -0.62      3.47 
   421.20     73.18     20.03     78.77      0.35     -0.77      3.12 
   421.30     73.19     20.09     78.58      0.32     -0.66      3.41 
   421.40     73.19     20.11     78.49      0.29     -0.65      2.53 
   421.50     73.21     20.12     78.50      0.26     -0.58      2.59 
   421.60     73.33     20.14     78.56      0.23     -0.39      2.24 
   421.70     73.42     20.19     78.52      0.26     -0.37      1.06 
   421.80     73.44     20.28     78.30      0.32     -0.54      1.76 
   421.90     73.45     20.32     78.16      0.34     -0.61      1.12 
   422.00     73.46     20.35     78.09      0.37     -0.69      1.06 
   422.10     73.47     20.35     78.08      0.37     -0.78      2.88 
   422.20     73.45     20.38     77.99      0.34     -0.74      2.18 
   422.30     73.62     20.40     78.11      0.30     -0.43      0.71 
   422.40     73.65     20.46     77.97      0.35     -0.54      1.06 
   422.50     73.67     20.50     77.87      0.38     -0.65      3.06 
   422.60     73.68     20.53     77.79      0.38     -0.79      2.00 
   422.70     73.69     20.53     77.79      0.33     -0.71      1.65 
   422.80     73.70     20.55     77.75      0.26     -0.50      2.88 
   422.90     73.72     20.56     77.73      0.23     -0.42      1.24 
   423.00     73.72     20.56     77.72      0.21     -0.35      0.41 
   423.10     73.73     20.57     77.72      0.21     -0.36      1.65 
   423.20     73.71     20.57     77.68      0.20     -0.32      1.65 
   423.30     73.80     20.58     77.74      0.17     -0.34      2.06 
   423.40     73.87     20.60     77.78      0.14     -0.19      1.65 
   423.50     73.89     20.69     77.52      0.18     -0.32      2.35 
   423.60     73.89     20.74     77.40      0.21     -0.43      2.06 
   423.70     73.87     20.77     77.27      0.23     -0.51      1.18 
   423.80     73.87     20.77     77.23      0.23     -0.51      1.18 
   423.90     74.15     20.79     77.49      0.23     -0.22      1.53 
   424.00     74.21     20.88     77.34      0.32     -0.44      1.94 
   424.10     74.23     20.96     77.09      0.39     -0.65      2.41 
   424.20     74.24     21.05     76.82      0.48     -0.87      1.59 
   424.30     74.24     21.08     76.74      0.50     -1.04      2.00 
   424.40     74.25     21.09     76.72      0.47     -1.02      2.76 
   424.50     74.26     21.11     76.66      0.41     -0.84      3.24 
   424.60     74.26     21.10     76.68      0.36     -0.68      2.88 
   424.70     74.27     21.11     76.67      0.34     -0.59      2.82 
   424.80     74.28     21.11     76.66      0.34     -0.60      2.00 
   424.90     74.28     21.12     76.67      0.32     -0.85      1.88 
   425.00     74.29     21.13     76.61      0.24     -0.66      2.35 
   425.10     74.29     21.12     76.66      0.15     -0.37      2.47 
   425.20     74.29     21.12     76.65      0.07     -0.14      2.47 
   425.30     74.30     21.11     76.71      0.03     -0.03      1.65 
   425.40     74.30     21.12     76.67      0.04     -0.05      1.88 
   425.50     74.30     21.12     76.65      0.01      0.01      1.82 
   425.60     74.31     21.12     76.67      0.02     -0.02      1.59 
   425.70     74.31     21.12     76.68      0.01      0.01      2.76 
   425.80     74.31     21.12     76.67      0.01     -0.01      2.71 
   425.90     74.31     21.13     76.66      0.00      0.03      2.76 
   426.00     74.32     21.13     76.67     -0.00      0.04      1.59 
   426.10     74.31     21.13     76.65      0.02     -0.03      1.65 
   426.20     74.32     21.14     76.63      0.02     -0.04      2.41 
   426.30     74.32     21.14     76.64      0.03     -0.06      2.47 
   426.40     74.32     21.14     76.63      0.02     -0.03      3.18 
   426.50     74.32     21.13     76.65      0.01     -0.02      3.65 
   426.60     74.32     21.12     76.67     -0.00      0.02      2.41 
   426.70     74.32     21.12     76.69      0.00      0.01      2.47 
   426.80     74.32     21.13     76.66      0.00      0.00      3.18 
   426.90     74.32     21.12     76.68     -0.00      0.00      1.47 
   427.00     74.31     21.14     76.62      0.01     -0.04      1.18 
   427.10     74.31     21.12     76.67     -0.01      0.03      2.76 
   427.20     74.31     21.13     76.65     -0.01      0.02      2.00 
   427.30     74.29     21.11     76.68     -0.03      0.04      2.47 
   427.40     74.05     21.12     76.49     -0.02     -0.22      1.65 
   427.50     75.22     21.16     76.87      0.03      0.89      2.06 
   427.60     79.69     21.35     82.07      0.23      5.10      2.41 
   427.70     78.96     21.62     80.26      0.50      3.49      3.24 
   427.80     79.00     21.75     79.81      0.62      3.14      4.88 
   427.90     79.05     21.84     79.59      0.72      2.89      3.59 
   428.00     79.09     21.89     79.46      0.75      2.83      4.24 
   428.10     79.14     21.92     79.42      0.80      2.74      7.06 
   428.20     79.19     21.94     79.39      0.82      2.74      4.00 
   428.30     79.23     21.96     79.39      0.85      2.71      1.24 
   428.40     79.28     21.97     79.43      0.85      3.14      2.47 
   428.50     79.32     21.95     79.52      0.78      1.32      1.65 
   428.60     79.36     21.95     79.58      0.57     -1.94      2.82 
   428.70     79.38     21.97     79.52      0.33     -0.59      2.82 
   428.80     79.41     21.97     79.57      0.20     -0.20      3.24 
   428.90     79.43     21.97     79.57      0.12      0.02      4.00 
   429.00     79.44     21.97     79.58      0.07      0.14      2.00 
