#Written by Robertson Geologging WinLogger V1.0/370
~VERSION INFORMATION
#------------------------------------------------------------------------------
 VERS. 2.0 : CWLS LOG ASCII STANDARD - VERSION 2.0
 WRAP. NO  : ONE LINE PER DEPTH STEP
~WELL INFORMATION
#MNEM.UNIT         DATA                                DESCRIPTION OF MNEMONIC
#------------------------------------------------------------------------------
 STRT.M         37.0600                            :   START DEPTH
 STOP.M        510.0000                            :   STOP DEPTH
 STEP.M          0.0100                            :   STEP VALUE
 NULL.        -999.2500                            :   NULL VALUE
 COMP.    WHITE YOUN GREEN                         :   COMPANY NAME
 WELL.    DAWDON SHAFT                             :   WELL NAME
 FLD.     DAWDON                                   :   FIELD NAME
 LOC.     N/A                                      :   LOCATION
 PROV.    N/A                                      :   PROVINCE
 SRVC.    N/A                                      :   SERVICE COMPANY NAME
 DATE.    13 Dec 06                                :   DATE
 UWI.     N/A                                      :   UNIQUE WELL IDENTIFIER
~PARAMETER INFORMATION
#MNEMO.UNIT         VALUE                 DESCRIPTION OF MNEMONIC
#------------------------------------------------------------------------------
~OTHER INFORMATION SECTION
#------------------------------------------------------------------------------
 lLOGGING DOWN
~CURVE INFORMATION
#MNEMO.UNIT         API CODE              CURVE DESCRIPTION
#------------------------------------------------------------------------------
 DEPTH.M                                 :   0     Depth
 TEMP.DegC                               :   1     Temperature
 CN25.mS/cm                              :   2     Conductivity@25DegC
 COND.mS/cm                              :   3     Conductivity
 DELT.DegC                               :   4     Delta T
 DELC.mS/cm                              :   5     Delta C
 NGAM.CPS                                :   6     Natural Gamma
#------------------------------------------------------------------------------
~A  DEPTH     TEMP      CN25      COND      DELT      DELC      NGAM      
# ...
   477.76     22.22     77.98     78.66      0.19     -0.56      0.82 
   477.77     22.23     77.97     78.66      0.19     -0.57      0.82 
   477.78     22.23     77.96     78.66      0.20     -0.57      1.18 
   477.79     22.23     77.95     78.66      0.20     -0.58      1.18 
   477.80     22.24     77.94     78.66      0.20     -0.59      1.18 
   477.81     22.24     77.93     78.66      0.20     -0.60      1.18 
   477.82     22.24     77.92     78.66      0.21     -0.61      1.18 
   477.83     22.24     77.91     78.66      0.21     -0.62      1.18 
   477.84     22.24     77.91     78.66      0.21     -0.63      1.18 
   477.85     22.25     77.90     78.66      0.22     -0.65      1.59 
   477.86     22.25     77.90     78.66      0.22     -0.66      1.59 
   477.87     22.25     77.89     78.66      0.22     -0.66      1.59 
   477.88     22.25     77.88     78.66      0.23     -0.67      2.41 
   477.89     22.25     77.88     78.66      0.23     -0.67      2.00 
   477.90     22.25     77.88     78.66      0.23     -0.68      2.00 
   477.91     22.25     77.88     78.66      0.23     -0.68      2.00 
   477.92     22.25     77.88     78.66      0.23     -0.69      2.00 
   477.93     22.26     77.87     78.66      0.23     -0.70      2.82 
   477.94     22.26     77.86     78.65      0.24     -0.70      2.82 
   477.95     22.26     77.84     78.65      0.24     -0.71      2.47 
   477.96     22.27     77.83     78.65      0.24     -0.71      2.82 
   477.97     22.27     77.83     78.65      0.24     -0.71      2.82 
   477.98     22.27     77.83     78.65      0.23     -0.70      3.65 
   477.99     22.27     77.84     78.65      0.23     -0.69      3.65 
   478.00     22.27     77.83     78.65      0.23     -0.69      3.65 
   478.01     22.27     77.83     78.65      0.23     -0.69      3.24 
   478.02     22.27     77.82     78.65      0.23     -0.70      2.82 
   478.03     22.27     77.81     78.65      0.24     -0.71      2.82 
   478.04     22.27     77.81     78.65      0.24     -0.70      2.82 
   478.05     22.27     77.81     78.65      0.24     -0.70      2.00 
   478.06     22.27     77.82     78.65      0.23     -0.70      2.00 
   478.07     22.27     77.82     78.65      0.23     -0.69      2.00 
   478.08     22.27     77.82     78.65      0.23     -0.69      2.00 
   478.09     22.27     77.81     78.65      0.23     -0.69      2.00 
   478.10     22.27     77.80     78.65      0.23     -0.70      1.18 
   478.11     22.28     77.80     78.65      0.23     -0.70      2.00 
   478.12     22.28     77.80     78.65      0.23     -0.69      2.41 
   478.13     22.28     77.79     78.64      0.23     -0.69      2.47 
   478.14     22.28     77.79     78.65      0.23     -0.68      2.82 
   478.15     22.28     77.79     78.64      0.23     -0.69      2.00 
   478.16     22.28     77.78     78.64      0.23     -0.69      2.00 
   478.17     22.28     77.78     78.64      0.23     -0.70      2.41 
   478.18     22.28     77.78     78.64      0.23     -0.70      2.41 
   478.19     22.28     77.78     78.64      0.23     -0.71      2.41 
   478.20     22.28     77.78     78.64      0.23     -0.71      3.12 
   478.21     22.28     77.77     78.64      0.23     -0.71      3.12 
   478.22     22.28     77.77     78.64      0.23     -0.71      3.53 
   478.23     22.28     77.76     78.64      0.23     -0.71      3.53 
   478.24     22.29     77.76     78.64      0.23     -0.71      3.53 
   478.25     22.28     77.76     78.64      0.23     -0.71      3.94 
   478.26     22.28     77.76     78.64      0.23     -0.70      3.94 
   478.27     22.29     77.76     78.64      0.23     -0.70      3.94 
   478.28     22.29     77.76     78.64      0.22     -0.69      3.12 
   478.29     22.29     77.75     78.64      0.22     -0.70      3.53 
   478.30     22.29     77.75     78.64      0.23     -0.70      3.12 
   478.31     22.29     77.74     78.64      0.23     -0.70      3.24 
   478.32     22.29     77.74     78.64      0.23     -0.70      3.24 
   478.33     22.30     77.73     78.64      0.23     -0.70      3.24 
   478.34     22.30     77.73     78.64      0.22     -0.69      2.82 
   478.35     22.30     77.73     78.64      0.22     -0.68      2.82 
   478.36     22.30     77.72     78.63      0.22     -0.68      2.82 
   478.37     22.30     77.72     78.63      0.21     -0.67      2.12 
   478.38     22.30     77.71     78.63      0.21     -0.66      2.53 
   478.39     22.30     77.71     78.63      0.21     -0.66      2.12 
   478.40     22.30     77.71     78.63      0.20     -0.64      2.12 
   478.41     22.30     77.71     78.63      0.19     -0.63      2.12 
   478.42     22.30     77.71     78.63      0.19     -0.61      2.06 
   478.43     22.30     77.71     78.63      0.18     -0.60      2.06 
   478.44     22.30     77.71     78.63      0.17     -0.57      2.47 
   478.45     22.30     77.70     78.63      0.17     -0.56      2.47 
   478.46     22.30     77.69     78.62      0.16     -0.55      1.65 
   478.47     22.31     77.69     78.63      0.16     -0.53      1.65 
   478.48     22.31     77.68     78.62      0.16     -0.53      1.59 
   478.49     22.31     77.68     78.62      0.15     -0.51      1.59 
   478.50     22.31     77.68     78.62      0.14     -0.49      1.59 
   478.51     22.31     77.67     78.62      0.14     -0.48      1.59 
   478.52     22.31     77.67     78.62      0.14     -0.47      2.00 
   478.53     22.31     77.66     78.62      0.14     -0.47      2.82 
   478.54     22.31     77.67     78.62      0.13     -0.46      2.82 
   478.55     22.31     77.67     78.62      0.13     -0.46      3.24 
   478.56     22.31     77.68     78.62      0.13     -0.45      3.24 
   478.57     22.31     77.68     78.62      0.13     -0.45      3.24 
   478.58     22.31     77.68     78.62      0.13     -0.45      3.65 
   478.59     22.31     77.68     78.62      0.13     -0.45      3.29 
   478.60     22.31     77.68     78.62      0.13     -0.46      3.71 
   478.61     22.31     77.67     78.62      0.13     -0.45      3.29 
   478.62     22.31     77.67     78.62      0.13     -0.45      3.29 
   478.63     22.31     77.67     78.62      0.12     -0.44      3.71 
   478.64     22.31     77.68     78.62      0.12     -0.42      3.71 
   478.65     22.31     77.67     78.62      0.11     -0.41      3.29 
   478.66     22.31     77.67     78.62      0.11     -0.39      3.29 
   478.67     22.31     77.66     78.62      0.11     -0.39      3.29 
   478.68     22.31     77.65     78.62      0.11     -0.38      3.29 
   478.69     22.32     77.65     78.62      0.11     -0.38      3.71 
   478.70     22.32     77.65     78.62      0.11     -0.37      2.88 
   478.71     22.32     77.64     78.62      0.11     -0.37      3.24 
   478.72     22.32     77.65     78.62      0.10     -0.36      2.41 
   478.73     22.32     77.64     78.62      0.10     -0.35      2.41 
   478.74     22.32     77.64     78.62      0.10     -0.35      2.41 
   478.75     22.32     77.63     78.62      0.10     -0.34      2.00 
   478.76     22.32     77.62     78.62      0.10     -0.34      2.00 
   478.77     22.32     77.62     78.62      0.10     -0.34      1.59 
   478.78     22.32     77.62     78.61      0.09     -0.33      1.59 
   478.79     22.32     77.62     78.62      0.09     -0.32      1.59 
   478.80     22.32     77.62     78.61      0.08     -0.31      2.00 
   478.81     22.33     77.61     78.61      0.08     -0.31      2.41 
   478.82     22.33     77.60     78.62      0.09     -0.31      2.82 
   478.83     22.33     77.59     78.61      0.09     -0.33      3.24 
   478.84     22.34     77.57     78.61      0.09     -0.33      3.24 
   478.85     22.34     77.56     78.61      0.09     -0.33      3.65 
   478.86     22.35     77.55     78.61      0.09     -0.34      3.65 
   478.87     22.35     77.54     78.61      0.09     -0.34      3.65 
   478.88     22.35     77.53     78.61      0.10     -0.35      3.29 
