#Written by Robertson Geologging WinLogger V1.0/312
~VERSION INFORMATION
#------------------------------------------------------------------------------
 VERS. 2.0 : CWLS LOG ASCII STANDARD - VERSION 2.0
 WRAP. NO  : ONE LINE PER DEPTH STEP
~WELL INFORMATION
#MNEM.UNIT         DATA                                DESCRIPTION OF MNEMONIC
#------------------------------------------------------------------------------
 STRT.M         56.2000                            :   START DEPTH
 STOP.M        520.0000                            :   STOP DEPTH
 STEP.M          0.1000                            :   STEP VALUE
 NULL.        -999.2500                            :   NULL VALUE
 COMP.    I.M..C.                                  :   COMPANY NAME
 WELL.    Dawdon Shaft                             :   WELL NAME
 FLD.     Dawdon                                   :   FIELD NAME
 LOC.     N/A                                      :   LOCATION
 PROV.    N/A                                      :   PROVINCE
 SRVC.    N/A                                      :   SERVICE COMPANY NAME
 DATE.    30 Jan 04                                :   DATE
 UWI.     N/A                                      :   UNIQUE WELL IDENTIFIER
~PARAMETER INFORMATION
#MNEMO.UNIT         VALUE                 DESCRIPTION OF MNEMONIC
#------------------------------------------------------------------------------
~OTHER INFORMATION SECTION
#------------------------------------------------------------------------------
 TCGX extended range 1365
~CURVE INFORMATION
#MNEMO.UNIT         API CODE              CURVE DESCRIPTION
#------------------------------------------------------------------------------
 DEPTH.M                                 :   0     Depth
 COND.mS/cm                              :   1     Conductivity
 TEMP.DegC                               :   2     Temperature
 C@25.mS/cm                              :   3     Conductivity @25Deg
 DELT.DegC                               :   4     Delta T
 DC@25.mS/cm                             :   5     Delta C @25Deg
 OUT4.CPS                                :   6     Natural Gamma
#------------------------------------------------------------------------------
~A  DEPTH     COND      TEMP      C@25      DELT      DC@25     OUT4      
# ...
    90.10      6.05     11.82     14.68      0.00     -0.00      1.24 
    90.20      6.05     11.83     14.68     -0.01      0.01      1.65 
    90.30      6.05     11.82     14.69     -0.00      0.01      0.82 
    90.40      6.05     11.82     14.68      0.00     -0.00      0.41 
    90.50      6.05     11.84     14.67      0.02     -0.02      0.00 
    90.60      6.04     11.82     14.68     -0.01      0.00      0.82 
    90.70      6.04     11.83     14.68     -0.00      0.00      0.00 
    90.80      6.05     11.84     14.67      0.01     -0.01      0.00 
    90.90      6.05     11.84     14.67      0.02     -0.02      0.41 
    91.00      6.05     11.84     14.67      0.01     -0.01      0.00 
    91.10      6.05     11.83     14.67      0.01     -0.01      0.82 
    91.20      6.05     11.82     14.69     -0.00      0.01      1.24 
    91.30      6.05     11.84     14.66      0.02     -0.03      0.41 
    91.40      6.04     11.84     14.67      0.01     -0.02      0.41 
    91.50      6.04     11.84     14.66      0.00     -0.00      0.00 
    91.60      6.04     11.84     14.67      0.01     -0.01      0.88 
    91.70      6.05     11.84     14.66      0.01     -0.02      1.24 
    91.80      6.05     11.82     14.68     -0.01      0.01      0.00 
    91.90      6.05     11.84     14.66      0.00     -0.00      0.00 
    92.00      6.05     11.83     14.67     -0.00      0.00      0.00 
    92.10      6.05     11.84     14.66      0.01     -0.01      0.35 
    92.20      6.05     11.84     14.67      0.01     -0.01      2.06 
    92.30      6.04     11.84     14.66      0.00     -0.00      2.00 
    92.40      6.05     11.84     14.66      0.00      0.00      0.76 
    92.50      6.05     11.84     14.66      0.00     -0.01      0.41 
    92.60      6.05     11.84     14.66      0.00     -0.00      0.82 
    92.70      6.05     11.83     14.67     -0.01      0.01      0.41 
    92.80      6.05     11.84     14.67      0.01     -0.02      0.82 
    92.90      6.05     11.83     14.68     -0.02      0.02      0.41 
    93.00      6.05     11.83     14.67     -0.00      0.00      0.41 
    93.10      6.05     11.84     14.67     -0.00      0.00      0.41 
    93.20      6.05     11.84     14.67      0.00      0.00      1.12 
    93.30      6.05     11.84     14.67     -0.00      0.00      0.71 
    93.40      6.05     11.84     14.66      0.00     -0.01      0.82 
    93.50      6.05     11.85     14.65      0.01     -0.01      0.82 
    93.60      6.05     11.84     14.67     -0.00      0.00      0.41 
    93.70      6.05     11.83     14.67     -0.00      0.01      0.41 
    93.80      6.05     11.84     14.67      0.00      0.00      0.00 
    93.90      6.05     11.83     14.67      0.01     -0.01      0.00 
    94.00      6.05     11.83     14.67      0.00     -0.00      0.00 
    94.10      6.04     11.82     14.68     -0.01      0.01      0.41 
    94.20      6.05     11.84     14.66      0.00     -0.00      0.41 
    94.30      6.05     11.83     14.67     -0.01      0.01      0.41 
    94.40      6.05     11.85     14.65      0.00     -0.01      1.24 
    94.50      6.05     11.84     14.66     -0.00      0.01      0.82 
    94.60      6.05     11.83     14.68     -0.01      0.02      0.41 
    94.70      6.05     11.84     14.66      0.01     -0.01      0.00 
    94.80      6.05     11.84     14.66      0.01     -0.00      0.00 
    94.90      6.05     11.84     14.66      0.00     -0.01      0.00 
    95.00      6.05     11.83     14.67      0.00     -0.00      0.41 
    95.10      6.05     11.83     14.68     -0.00      0.00      0.82 
    95.20      6.05     11.83     14.68     -0.02      0.02      0.82 
    95.30      6.05     11.83     14.68     -0.00      0.01      0.41 
    95.40      6.05     11.82     14.68     -0.03      0.03      0.41 
    95.50      6.05     11.83     14.67     -0.01      0.02      0.41 
    95.60      6.05     11.82     14.69     -0.01      0.01      0.00 
    95.70      6.05     11.82     14.68     -0.02      0.02      0.82 
    95.80      6.05     11.83     14.68     -0.02      0.02      0.82 
    95.90      6.05     11.83     14.68     -0.01      0.01      0.82 
    96.00      6.05     11.83     14.67      0.00     -0.00      0.41 
    96.10      6.05     11.83     14.67      0.01     -0.00      0.00 
    96.20      6.05     11.83     14.68      0.00     -0.00      0.00 
    96.30      6.05     11.84     14.66      0.02     -0.02      0.00 
    96.40      6.05     11.84     14.67      0.01     -0.01      0.41 
    96.50      6.05     11.83     14.68      0.00     -0.00      0.00 
    96.60      6.05     11.84     14.66      0.02     -0.03      0.41 
    96.70      6.05     11.83     14.67      0.00     -0.01      0.00 
    96.80      6.05     11.83     14.67      0.00     -0.01      0.00 
    96.90      6.05     11.82     14.69     -0.00      0.01      0.82 
    97.00      6.05     11.82     14.68     -0.01      0.01      1.24 
    97.10      6.05     11.82     14.69     -0.01      0.01      0.82 
    97.20      6.05     11.83     14.68      0.00     -0.00      0.00 
    97.30      6.05     11.83     14.67     -0.01      0.02      0.41 
    97.40      6.05     11.82     14.69     -0.01      0.02      0.76 
    97.50      6.05     11.82     14.69     -0.01      0.02      0.00 
    97.60      6.05     11.83     14.68     -0.01      0.02      0.41 
    97.70      6.05     11.83     14.66      0.00     -0.01      0.00 
    97.80      6.05     11.82     14.69     -0.01      0.01      0.00 
    97.90      6.05     11.82     14.69     -0.01      0.01      0.00 
    98.00      6.05     11.83     14.67      0.01     -0.01      0.00 
    98.10      6.05     11.83     14.67      0.01     -0.02      0.41 
    98.20      6.05     11.83     14.68     -0.00      0.00      0.41 
    98.30      6.05     11.83     14.68     -0.00      0.00      0.00 
    98.40      6.05     11.84     14.67      0.01     -0.02      0.76 
    98.50      6.05     11.81     14.69     -0.00      0.00      0.76 
    98.60      6.05     11.81     14.70     -0.02      0.02      0.35 
    98.70      6.05     11.82     14.68     -0.01      0.01      0.35 
    98.80      6.05     11.83     14.68      0.01     -0.01      1.18 
    98.90      6.05     11.82     14.69      0.01     -0.00      0.76 
    99.00      6.05     11.81     14.70     -0.02      0.02      1.29 
    99.10      6.05     11.83     14.67      0.00      0.00      0.47 
    99.20      6.05     11.82     14.68     -0.01      0.01      0.41 
    99.30      6.05     11.84     14.67      0.01     -0.02      0.00 
    99.40      6.05     11.83     14.68     -0.01      0.02      0.00 
    99.50      6.05     11.83     14.68      0.01     -0.01      0.41 
    99.60      6.05     11.83     14.68      0.01     -0.01      0.00 
    99.70      6.05     11.83     14.68      0.01     -0.01      0.00 
    99.80      6.05     11.82     14.68     -0.01      0.01      0.00 
    99.90      6.05     11.82     14.69     -0.00      0.00      0.41 
   100.00      6.05     11.82     14.69      0.01     -0.00      0.41 
   100.10      6.05     11.83     14.67     -0.00      0.00      0.41 
   100.20      6.05     11.82     14.69     -0.00      0.00      0.41 
   100.30      6.05     11.82     14.68     -0.01      0.02      0.00 
   100.40      6.05     11.82     14.69     -0.00      0.00      0.00 
   100.50      6.05     11.82     14.68      0.00      0.00      0.00 
   100.60      6.05     11.82     14.69     -0.01      0.01      0.82 
   100.70      6.05     11.82     14.69     -0.01      0.01      0.82 
   100.80      6.05     11.82     14.69     -0.00      0.00      0.82 
   100.90      6.05     11.81     14.70     -0.00      0.01      0.41 
   101.00      6.05     11.83     14.67      0.01     -0.01      0.00 
   101.10      6.05     11.81     14.70     -0.02      0.03      0.41 
   101.20      6.05     11.82     14.69      0.00     -0.01      0.00 
   101.30      6.05     11.83     14.68      0.01     -0.01      0.41 
