#Written by Robertson Geologging WinLogger V1.0/406
~VERSION INFORMATION
#------------------------------------------------------------------------------
 VERS. 2.0 : CWLS LOG ASCII STANDARD - VERSION 2.0
 WRAP. NO  : ONE LINE PER DEPTH STEP
~WELL INFORMATION
#MNEM.UNIT         DATA                                DESCRIPTION OF MNEMONIC
#------------------------------------------------------------------------------
 STRT.M         40.0600                            :   START DEPTH
 STOP.M        498.0000                            :   STOP DEPTH
 STEP.M          0.0100                            :   STEP VALUE
 NULL.        -999.2500                            :   NULL VALUE
 COMP.    Coal Authority                           :   COMPANY NAME
 WELL.    Dawdon                                   :   WELL NAME
 FLD.     N/A                                      :   FIELD NAME
 LOC.     N/A                                      :   LOCATION
 PROV.    N/A                                      :   PROVINCE
 SRVC.    N/A                                      :   SERVICE COMPANY NAME
 DATE.    30 Sep 08                                :   DATE
 UWI.     N/A                                      :   UNIQUE WELL IDENTIFIER
~PARAMETER INFORMATION
#MNEMO.UNIT         VALUE                 DESCRIPTION OF MNEMONIC
#------------------------------------------------------------------------------
~OTHER INFORMATION SECTION
#------------------------------------------------------------------------------
 TCGS2822
~CURVE INFORMATION
#MNEMO.UNIT         API CODE              CURVE DESCRIPTION
#------------------------------------------------------------------------------
 DEPTH.M                                 :   0     Depth
 TEMP.DegC                               :   1     Temperature
 COND.uS/cm                              :   2     Conductivity
 DELT.DegC                               :   3     Delta T
 DELC.uS/cm                              :   4     Delta C
 NGAM.CPS                                :   5     Natural Gamma
#------------------------------------------------------------------------------
~A  DEPTH     TEMP      COND      DELT      DELC      NGAM      
# ...
   191.86     15.66  43471.04      0.01     15.06      0.00 
   191.87     15.67  43475.67      0.02     10.42      8.00 
   191.88     15.68  43475.67      0.04     12.74      0.00 
   191.89     15.68  43475.67      0.05     19.69      0.00 
   191.90     15.67  43475.67      0.04     10.42      8.00 
   191.91     15.68  43479.15      0.03     13.90      0.00 
   191.92     15.67  43475.67      0.01     19.69      0.00 
   191.93     15.68  43475.67      0.00     10.42      0.00 
   191.94     15.68  43475.67      0.01     12.74      8.00 
   191.95     15.68  43475.67      0.02     10.42      0.00 
   191.96     15.68  43479.15      0.01     13.90      0.00 
   191.97     15.68  43475.67      0.02     10.42      0.00 
   191.98     15.68  43475.67      0.01     28.95      0.00 
   191.99     15.68  43465.25      0.01      2.32      0.00 
   192.00     15.68  43479.15      0.01     13.90      0.00 
   192.01     15.67  43475.67      0.00     10.42      0.00 
   192.02     15.67  43475.67      0.01     10.42      0.00 
   192.03     15.66  43475.67     -0.00     10.42      0.00 
   192.04     15.68  43479.15      0.01     23.16      0.00 
   192.05     15.68  43475.67      0.00     10.42      0.00 
   192.06     15.68  43475.67      0.00     10.42      0.00 
   192.07     15.69  43475.67      0.03      4.63      0.00 
   192.08     15.68  43479.15      0.03     23.16      0.00 
   192.09     15.69  43475.67      0.04     10.42      0.00 
   192.10     15.69  43484.94      0.03     28.95      0.00 
   192.11     15.69  43465.25      0.02      0.00      0.00 
   192.12     15.69  43475.67      0.02      0.00      0.00 
   192.13     15.68  43479.15      0.01     23.16      0.00 
   192.14     15.68  43475.67     -0.01     10.42      8.00 
   192.15     15.67  43475.67     -0.02     10.42      0.00 
   192.16     15.67  43484.94     -0.03      9.27      0.00 
   192.17     15.67  43475.67     -0.02     10.42      8.00 
   192.18     15.68  43475.67      0.01     10.42      0.00 
   192.19     15.69  43484.94      0.02     19.69      0.00 
   192.20     15.70  43479.15      0.05     16.21      0.00 
   192.21     15.69  43484.94      0.04      9.27      0.00 
   192.22     15.67  43475.67      0.02     10.42      0.00 
   192.23     15.67  43484.94      0.00     28.95      0.00 
   192.24     15.68  43465.25      0.01      0.00      0.00 
   192.25     15.68  43475.67      0.02     10.42      0.00 
   192.26     15.68  43484.94      0.02      9.27      0.00 
   192.27     15.68  43484.94      0.02     19.69      0.00 
   192.28     15.68  43475.67      0.00      4.63      0.00 
   192.29     15.68  43484.94     -0.00     19.69      0.00 
   192.30     15.68  43475.67      0.01     10.42      8.00 
   192.31     15.68  43487.25      0.01     11.58      0.00 
   192.32     15.70  43475.67      0.03     10.42      0.00 
   192.33     15.69  43484.94      0.03     19.69     16.00 
   192.34     15.68  43481.46      0.02      5.79      0.00 
   192.35     15.68  43479.15      0.00     13.90      0.00 
   192.36     15.66  43475.67     -0.01     12.74      8.00 
   192.37     15.66  43484.94     -0.00     19.69      0.00 
   192.38     15.66  43484.94     -0.00      9.27      0.00 
   192.39     15.65  43475.67     -0.01     10.42      0.00 
   192.40     15.65  43484.94     -0.01     13.90      0.00 
   192.41     15.66  43484.94     -0.02     19.69      0.00 
   192.42     15.68  43475.67      0.01      0.00      8.00 
   192.43     15.69  43484.94      0.02     19.69      0.00 
   192.44     15.69  43484.94      0.03      9.27      0.00 
   192.45     15.69  43487.25      0.02     22.01      0.00 
   192.46     15.67  43475.67     -0.02      0.00      8.00 
   192.47     15.68  43484.94     -0.00     13.90      0.00 
   192.48     15.67  43484.94     -0.00     28.95      0.00 
   192.49     15.66  43475.67     -0.00      0.00      0.00 
   192.50     15.68  43479.15      0.02     13.90      0.00 
   192.51     15.68  43484.94      0.00      9.27      0.00 
   192.52     15.68  43484.94     -0.00     19.69      0.00 
   192.53     15.68  43484.94      0.01      9.27      0.00 
   192.54     15.67  43487.25     -0.01     11.58      7.00 
   192.55     15.68  43475.67      0.00     10.42      8.00 
   192.56     15.68  43494.20      0.00     18.53      0.00 
   192.57     15.68  43475.67     -0.01      0.00      0.00 
   192.58     15.69  43487.25      0.00     16.21      0.00 
   192.59     15.68  43484.94     -0.01      9.27      0.00 
   192.60     15.67  43484.94     -0.02     19.69      0.00 
   192.61     15.67  43475.67     -0.02     10.42      0.00 
   192.62     15.67  43479.15     -0.01      3.47      0.00 
   192.63     15.68  43484.94     -0.01      9.27      0.00 
   192.64     15.69  43494.20      0.01     23.16      0.00 
   192.65     15.68  43484.94      0.00      9.27      0.00 
   192.66     15.67  43475.67     -0.02      0.00      0.00 
   192.67     15.68  43494.20      0.00     18.53      8.00 
   192.68     15.68  43475.67      0.00     10.42      0.00 
   192.69     15.69  43494.20      0.01     15.06      0.00 
   192.70     15.70  43484.94      0.04      9.27      0.00 
   192.71     15.68  43479.15      0.02      3.47      7.00 
   192.72     15.67  43484.94      0.02     19.69      0.00 
   192.73     15.67  43484.94      0.01     13.90      0.00 
   192.74     15.66  43475.67     -0.01     10.42      0.00 
   192.75     15.66  43494.20     -0.01     18.53      0.00 
   192.76     15.67  43475.67     -0.02     -9.27      8.00 
   192.77     15.68  43494.20     -0.01     28.95      0.00 
   192.78     15.69  43479.15     -0.01      0.00      0.00 
   192.79     15.68  43493.05     -0.01     17.37      0.00 
   192.80     15.68  43484.94     -0.00      9.27      0.00 
   192.81     15.67  43487.25     -0.01     16.21      0.00 
   192.82     15.65  43484.94     -0.02      9.27      0.00 
   192.83     15.66  43484.94     -0.01      9.27      0.00 
   192.84     15.66  43484.94     -0.00      9.27      0.00 
   192.85     15.66  43484.94      0.00     13.90      0.00 
   192.86     15.68  43479.15      0.02      3.47      0.00 
   192.87     15.69  43484.94      0.02      9.27      0.00 
   192.88     15.69  43494.20      0.01     18.53      8.00 
   192.89     15.68  43484.94      0.00      9.27      8.00 
   192.90     15.67  43484.94     -0.01      5.79      0.00 
   192.91     15.66  43487.25     -0.01     11.58      0.00 
   192.92     15.67  43494.20     -0.00     18.53     25.00 
   192.93     15.68  43484.94      0.00      9.27      0.00 
   192.94     15.70  43484.94      0.02      9.27      0.00 
   192.95     15.71  43487.25      0.04      8.11      0.00 
   192.96     15.72  43494.20      0.04     18.53      0.00 
   192.97     15.71  43484.94      0.03      9.27      0.00 
   192.98     15.69  43484.94      0.01     19.69      8.00 
   192.99     15.68  43484.94      0.00      5.79      0.00 
   193.00     15.68  43487.25      0.00     11.58      7.00 
   193.01     15.68  43484.94      0.01      9.27     16.00 
   193.02     15.68  43494.20      0.02     18.53      0.00 
   193.03     15.68  43484.94      0.00      5.79      0.00 
   193.04     15.68  43487.25     -0.00     11.58      0.00 
   193.05     15.68  43494.20     -0.00     18.53      0.00 
   193.06     15.68  43484.94     -0.01      9.27      0.00 
   193.07     15.68  43494.20      0.00     15.06      0.00 
   193.08     15.67  43487.25     -0.02     11.58      7.00 
   193.09     15.67  43484.94     -0.02      0.00      0.00 
   193.10     15.67  43494.20     -0.02     28.95      0.00 
   193.11     15.68  43479.15     -0.01      3.47      0.00 
   193.12     15.69  43494.20      0.00     15.06      8.00 
   193.13     15.68  43484.94     -0.00      9.27      0.00 
   193.14     15.68  43494.20      0.00     18.53      0.00 
   193.15     15.67  43484.94      0.00      0.00      8.00 
   193.16     15.66  43494.20     -0.01     18.53      0.00 
   193.17     15.67  43487.25     -0.01     11.58      0.00 
