#Written by Robertson Geologging WinLogger V1.0/312
~VERSION INFORMATION
#------------------------------------------------------------------------------
 VERS. 2.0 : CWLS LOG ASCII STANDARD - VERSION 2.0
 WRAP. NO  : ONE LINE PER DEPTH STEP
~WELL INFORMATION
#MNEM.UNIT         DATA                                DESCRIPTION OF MNEMONIC
#------------------------------------------------------------------------------
 STRT.M         56.2000                            :   START DEPTH
 STOP.M        520.0000                            :   STOP DEPTH
 STEP.M          0.1000                            :   STEP VALUE
 NULL.        -999.2500                            :   NULL VALUE
 COMP.    I.M..C.                                  :   COMPANY NAME
 WELL.    Dawdon Shaft                             :   WELL NAME
 FLD.     Dawdon                                   :   FIELD NAME
 LOC.     N/A                                      :   LOCATION
 PROV.    N/A                                      :   PROVINCE
 SRVC.    N/A                                      :   SERVICE COMPANY NAME
 DATE.    30 Jan 04                                :   DATE
 UWI.     N/A                                      :   UNIQUE WELL IDENTIFIER
~PARAMETER INFORMATION
#MNEMO.UNIT         VALUE                 DESCRIPTION OF MNEMONIC
#------------------------------------------------------------------------------
~OTHER INFORMATION SECTION
#------------------------------------------------------------------------------
 TCGX extended range 1365
~CURVE INFORMATION
#MNEMO.UNIT         API CODE              CURVE DESCRIPTION
#------------------------------------------------------------------------------
 DEPTH.M                                 :   0     Depth
 COND.mS/cm                              :   1     Conductivity
 TEMP.DegC                               :   2     Temperature
 C@25.mS/cm                              :   3     Conductivity @25Deg
 DELT.DegC                               :   4     Delta T
 DC@25.mS/cm                             :   5     Delta C @25Deg
 OUT4.CPS                                :   6     Natural Gamma
#------------------------------------------------------------------------------
~A  DEPTH     COND      TEMP      C@25      DELT      DC@25     OUT4      
# ...
   180.50     39.32     13.59     55.66      0.01      0.56      0.82 
   180.60     39.36     13.59     55.71     -0.00      0.59      1.59 
   180.70     39.40     13.59     55.76      0.01      0.56      1.94 
   180.80     39.44     13.60     55.81      0.01      0.55      1.53 
   180.90     39.48     13.61     55.83      0.02      0.50      1.53 
   181.00     39.52     13.60     55.91      0.00      0.54      1.18 
   181.10     39.56     13.61     55.94      0.02      0.50      0.41 
   181.20     39.60     13.61     55.98      0.02      0.50      0.41 
   181.30     39.64     13.61     56.04      0.01      0.51      0.00 
   181.40     39.68     13.61     56.08      0.02      0.46      0.41 
   181.50     39.72     13.61     56.12      0.02      0.47      1.59 
   181.60     39.76     13.62     56.18      0.03      0.46      0.41 
   181.70     39.80     13.62     56.22      0.03      0.46      0.82 
   181.80     39.85     13.62     56.28      0.02      0.48      1.18 
   181.90     39.89     13.61     56.34      0.01      0.50      1.59 
   182.00     39.94     13.62     56.39      0.02      0.48      1.18 
   182.10     39.99     13.62     56.45      0.01      0.52      0.00 
   182.20     40.04     13.62     56.52      0.02      0.53      0.00 
   182.30     40.09     13.63     56.57      0.02      0.53      0.35 
   182.40     40.14     13.63     56.63      0.02      0.55      0.35 
   182.50     40.20     13.64     56.68      0.03      0.55      1.06 
   182.60     40.26     13.64     56.76      0.02      0.58      0.35 
   182.70     40.33     13.64     56.83      0.02      0.61      0.71 
   182.80     40.39     13.64     56.92      0.02      0.64      0.76 
   182.90     40.46     13.64     57.01      0.03      0.67      0.76 
   183.00     40.54     13.66     57.08      0.04      0.68      0.41 
   183.10     40.63     13.65     57.22      0.03      0.76      1.65 
   183.20     40.73     13.66     57.30      0.04      0.80      2.00 
   183.30     40.82     13.66     57.43      0.04      0.86      1.53 
   183.40     40.93     13.66     57.56      0.03      0.95      1.59 
   183.50     41.05     13.67     57.70      0.03      1.02      2.82 
   183.60     41.18     13.67     57.87      0.03      1.11      2.35 
   183.70     41.31     13.67     58.02      0.03      1.19      0.35 
   183.80     41.45     13.67     58.20      0.03      1.28      0.00 
   183.90     41.58     13.68     58.38      0.03      1.36      0.41 
   184.00     41.73     13.69     58.53      0.03      1.45      0.76 
   184.10     41.87     13.68     58.75      0.03      1.52      1.12 
   184.20     42.02     13.69     58.91      0.03      1.59      0.35 
   184.30     42.18     13.70     59.09      0.03      1.66      0.35 
   184.40     42.34     13.69     59.31      0.02      1.74      0.00 
   184.50     42.51     13.69     59.53      0.02      1.81      1.18 
   184.60     42.67     13.69     59.73      0.02      1.85      0.76 
   184.70     42.83     13.70     59.93      0.02      1.90      0.41 
   184.80     43.00     13.70     60.14      0.03      1.92      0.41 
   184.90     43.16     13.70     60.34      0.02      1.96      0.41 
   185.00     43.33     13.70     60.58      0.01      2.02      0.76 
   185.10     43.49     13.70     60.78      0.02      2.02      0.71 
   185.20     43.65     13.70     60.99      0.01      2.06      0.76 
   185.30     43.81     13.73     61.14      0.03      2.01      0.35 
   185.40     43.97     13.73     61.33      0.04      1.99      0.41 
   185.50     44.12     13.72     61.54      0.03      1.98      0.00 
   185.60     44.27     13.72     61.72      0.03      1.98      0.00 
   185.70     44.42     13.73     61.91      0.03      1.96      0.35 
   185.80     44.56     13.73     62.09      0.03      1.93      1.18 
   185.90     44.70     13.73     62.28      0.03      1.89      0.00 
   186.00     44.83     13.72     62.47      0.02      1.86      0.00 
   186.10     44.96     13.74     62.59      0.04      1.78      0.00 
   186.20     45.09     13.73     62.76      0.03      1.75      0.76 
   186.30     45.20     13.75     62.87      0.02      1.73      1.18 
   186.40     45.32     13.74     63.04      0.02      1.68      0.76 
   186.50     45.42     13.75     63.15      0.03      1.59      0.76 
   186.60     45.52     13.75     63.29      0.03      1.53      0.41 
   186.70     45.62     13.76     63.39      0.03      1.46      0.00 
   186.80     45.71     13.76     63.49      0.03      1.38      0.82 
   186.90     45.79     13.76     63.61      0.03      1.31      0.82 
   187.00     45.87     13.78     63.67      0.06      1.17      0.00 
   187.10     45.95     13.77     63.78      0.04      1.17      0.41 
   187.20     46.03     13.77     63.90      0.03      1.13      0.76 
   187.30     46.10     13.77     63.99      0.02      1.09      0.41 
   187.40     46.17     13.77     64.06      0.03      1.02      1.18 
   187.50     46.24     13.76     64.17      0.01      1.01      0.35 
   187.60     46.31     13.79     64.21      0.04      0.90      0.00 
   187.70     46.37     13.79     64.29      0.03      0.89      0.35 
   187.80     46.43     13.78     64.39      0.01      0.88      0.35 
   187.90     46.49     13.79     64.46      0.02      0.84      0.76 
   188.00     46.56     13.80     64.49      0.02      0.81      0.71 
   188.10     46.62     13.79     64.59      0.02      0.80      1.12 
   188.20     46.68     13.79     64.68      0.02      0.77      1.18 
   188.30     46.74     13.80     64.74      0.03      0.74      0.41 
   188.40     46.81     13.80     64.81      0.04      0.72      0.00 
   188.50     46.87     13.80     64.89      0.04      0.71      1.18 
   188.60     46.94     13.80     64.99      0.01      0.78      0.35 
   188.70     47.00     13.81     65.05      0.02      0.74      0.35 
   188.80     47.06     13.81     65.13      0.03      0.72      0.76 
   188.90     47.13     13.82     65.18      0.03      0.73      0.76 
   189.00     47.20     13.82     65.26      0.02      0.77      0.71 
   189.10     47.27     13.81     65.38      0.02      0.78      0.71 
   189.20     47.33     13.82     65.44      0.04      0.74      0.41 
   189.30     47.40     13.83     65.52      0.03      0.78      0.82 
   189.40     47.47     13.83     65.60      0.02      0.78      1.12 
   189.50     47.55     13.82     65.72      0.01      0.82      0.76 
   189.60     47.61     13.83     65.78      0.03      0.78      0.41 
   189.70     47.68     13.83     65.86      0.02      0.83      0.76 
   189.80     47.75     13.83     65.94      0.03      0.80      0.35 
   189.90     47.82     13.84     66.02      0.02      0.83      0.41 
   190.00     47.89     13.83     66.12      0.01      0.85      0.35 
   190.10     47.95     13.84     66.19      0.03      0.79      0.71 
   190.20     48.01     13.85     66.24      0.03      0.79      0.71 
   190.30     48.08     13.85     66.34      0.02      0.81      0.35 
   190.40     48.15     13.86     66.39      0.03      0.78      0.76 
   190.50     48.21     13.85     66.48      0.04      0.75      1.18 
   190.60     48.27     13.85     66.56      0.02      0.78      1.53 
   190.70     48.34     13.86     66.65      0.03      0.77      0.76 
   190.80     48.41     13.86     66.72      0.02      0.78      0.00 
   190.90     48.47     13.87     66.78      0.03      0.76      1.18 
   191.00     48.54     13.87     66.87      0.03      0.74      1.18 
   191.10     48.60     13.87     66.94      0.03      0.75      0.00 
   191.20     48.66     13.87     67.01      0.02      0.77      0.76 
   191.30     48.73     13.87     67.09      0.03      0.75      0.76 
   191.40     48.79     13.87     67.19      0.01      0.78      0.71 
   191.50     48.85     13.89     67.21      0.03      0.72      0.35 
   191.60     48.92     13.89     67.30      0.04      0.71      1.59 
   191.70     48.98     13.90     67.36      0.04      0.70      2.41 
