#Written by Robertson Geologging WinLogger V1.0/370
~VERSION INFORMATION
#------------------------------------------------------------------------------
 VERS. 2.0 : CWLS LOG ASCII STANDARD - VERSION 2.0
 WRAP. NO  : ONE LINE PER DEPTH STEP
~WELL INFORMATION
#MNEM.UNIT         DATA                                DESCRIPTION OF MNEMONIC
#------------------------------------------------------------------------------
 STRT.M         37.0600                            :   START DEPTH
 STOP.M        510.0000                            :   STOP DEPTH
 STEP.M          0.0100                            :   STEP VALUE
 NULL.        -999.2500                            :   NULL VALUE
 COMP.    WHITE YOUN GREEN                         :   COMPANY NAME
 WELL.    DAWDON SHAFT                             :   WELL NAME
 FLD.     DAWDON                                   :   FIELD NAME
 LOC.     N/A                                      :   LOCATION
 PROV.    N/A                                      :   PROVINCE
 SRVC.    N/A                                      :   SERVICE COMPANY NAME
 DATE.    13 Dec 06                                :   DATE
 UWI.     N/A                                      :   UNIQUE WELL IDENTIFIER
~PARAMETER INFORMATION
#MNEMO.UNIT         VALUE                 DESCRIPTION OF MNEMONIC
#------------------------------------------------------------------------------
~OTHER INFORMATION SECTION
#------------------------------------------------------------------------------
 lLOGGING DOWN
~CURVE INFORMATION
#MNEMO.UNIT         API CODE              CURVE DESCRIPTION
#------------------------------------------------------------------------------
 DEPTH.M                                 :   0     Depth
 TEMP.DegC                               :   1     Temperature
 CN25.mS/cm                              :   2     Conductivity@25DegC
 COND.mS/cm                              :   3     Conductivity
 DELT.DegC                               :   4     Delta T
 DELC.mS/cm                              :   5     Delta C
 NGAM.CPS                                :   6     Natural Gamma
#------------------------------------------------------------------------------
~A  DEPTH     TEMP      CN25      COND      DELT      DELC      NGAM      
# ...
   509.40     22.98     72.94     76.05     -0.00      0.04      3.47 
   509.41     22.98     72.93     76.05      0.00      0.03      3.47 
   509.42     22.98     72.92     76.05      0.00      0.02      3.47 
   509.43     22.99     72.92     76.05      0.00      0.02      3.06 
   509.44     22.99     72.92     76.05      0.00      0.02      3.06 
   509.45     22.99     72.92     76.05      0.00      0.02      2.71 
   509.46     22.99     72.91     76.05      0.01      0.02      2.71 
   509.47     22.99     72.91     76.05      0.01      0.02      2.71 
   509.48     22.99     72.90     76.05      0.01      0.01      2.29 
   509.49     22.99     72.90     76.05      0.01      0.01      2.29 
   509.50     22.99     72.91     76.05      0.01      0.01      2.65 
   509.51     22.99     72.92     76.05      0.01      0.01      2.24 
   509.52     22.99     72.92     76.05      0.01      0.01      1.88 
   509.53     22.98     72.93     76.05      0.01      0.00      2.29 
   509.54     22.98     72.93     76.05      0.01     -0.00      1.88 
   509.55     22.98     72.93     76.05      0.01     -0.01      1.88 
   509.56     22.98     72.93     76.05      0.01     -0.01      1.88 
   509.57     22.98     72.93     76.05      0.01      0.00      1.53 
   509.58     22.98     72.94     76.05      0.01      0.00      1.53 
   509.59     22.98     72.94     76.05      0.00      0.02      1.88 
   509.60     22.98     72.94     76.05      0.00      0.02      2.29 
   509.61     22.98     72.95     76.05      0.00      0.03      2.29 
   509.62     22.98     72.95     76.05     -0.00      0.03      2.29 
   509.63     22.98     72.94     76.05     -0.00      0.03      1.88 
   509.64     22.98     72.94     76.05     -0.00      0.04      1.94 
   509.65     22.98     72.94     76.05     -0.01      0.04      1.94 
   509.66     22.98     72.95     76.06     -0.01      0.04      2.35 
   509.67     22.98     72.95     76.06     -0.00      0.04      2.71 
   509.68     22.98     72.94     76.05     -0.00      0.04      2.71 
   509.69     22.98     72.94     76.06     -0.00      0.04      3.76 
   509.70     22.98     72.93     76.06      0.00      0.02      3.76 
   509.71     22.99     72.93     76.06      0.00      0.02      3.76 
   509.72     22.99     72.92     76.06      0.00      0.02      4.18 
   509.73     22.99     72.92     76.06      0.00      0.01      4.18 
   509.74     22.99     72.92     76.06      0.01      0.01      4.18 
   509.75     22.99     72.92     76.06      0.01      0.00      4.18 
   509.76     22.99     72.91     76.06      0.01     -0.01      3.82 
   509.77     23.00     72.90     76.06      0.02     -0.02      3.41 
   509.78     23.00     72.90     76.06      0.02     -0.02      3.41 
   509.79     23.00     72.89     76.06      0.02     -0.03      3.82 
   509.80     23.00     72.89     76.06      0.02     -0.03      3.82 
   509.81     23.00     72.89     76.06      0.02     -0.03      3.41 
   509.82     23.00     72.90     76.06      0.02     -0.03      3.41 
   509.83     23.00     72.90     76.06      0.02     -0.03      3.00 
   509.84     22.99     72.90     76.06      0.02     -0.03      2.29 
   509.85     22.99     72.90     76.06      0.01     -0.02      2.29 
   509.86     22.99     72.91     76.06      0.01     -0.01      1.65 
   509.87     22.99     72.91     76.06      0.01      0.01      1.24 
   509.88     22.99     72.91     76.06      0.01      0.00      1.24 
   509.89     22.99     72.92     76.06      0.01      0.00      0.82 
   509.90     22.99     72.91     76.06      0.01     -0.00      1.24 
   509.91     22.99     72.91     76.06      0.01     -0.01      1.24 
   509.92     22.99     72.91     76.06      0.01     -0.01      1.24 
   509.93     22.99     72.92     76.06      0.01     -0.00      1.24 
   509.94     22.99     72.92     76.06      0.00      0.01      1.24 
   509.95     22.99     72.93     76.06      0.00      0.02      1.24 
   509.96     22.98     72.94     76.06     -0.00      0.03      0.82 
   509.97     22.98     72.95     76.07     -0.00      0.04      0.82 
   509.98     22.98     72.95     76.06     -0.00      0.03      0.82 
   509.99     22.98     72.96     76.07     -0.01      0.05      0.82 
   510.00     22.98     72.96     76.06     -0.01      0.05      0.82 
