#Written by Robertson Geologging WinLogger V1.0/370
~VERSION INFORMATION
#------------------------------------------------------------------------------
 VERS. 2.0 : CWLS LOG ASCII STANDARD - VERSION 2.0
 WRAP. NO  : ONE LINE PER DEPTH STEP
~WELL INFORMATION
#MNEM.UNIT         DATA                                DESCRIPTION OF MNEMONIC
#------------------------------------------------------------------------------
 STRT.M         37.0600                            :   START DEPTH
 STOP.M        510.0000                            :   STOP DEPTH
 STEP.M          0.0100                            :   STEP VALUE
 NULL.        -999.2500                            :   NULL VALUE
 COMP.    WHITE YOUN GREEN                         :   COMPANY NAME
 WELL.    DAWDON SHAFT                             :   WELL NAME
 FLD.     DAWDON                                   :   FIELD NAME
 LOC.     N/A                                      :   LOCATION
 PROV.    N/A                                      :   PROVINCE
 SRVC.    N/A                                      :   SERVICE COMPANY NAME
 DATE.    13 Dec 06                                :   DATE
 UWI.     N/A                                      :   UNIQUE WELL IDENTIFIER
~PARAMETER INFORMATION
#MNEMO.UNIT         VALUE                 DESCRIPTION OF MNEMONIC
#------------------------------------------------------------------------------
~OTHER INFORMATION SECTION
#------------------------------------------------------------------------------
 lLOGGING DOWN
~CURVE INFORMATION
#MNEMO.UNIT         API CODE              CURVE DESCRIPTION
#------------------------------------------------------------------------------
 DEPTH.M                                 :   0     Depth
 TEMP.DegC                               :   1     Temperature
 CN25.mS/cm                              :   2     Conductivity@25DegC
 COND.mS/cm                              :   3     Conductivity
 DELT.DegC                               :   4     Delta T
 DELC.mS/cm                              :   5     Delta C
 NGAM.CPS                                :   6     Natural Gamma
#------------------------------------------------------------------------------
~A  DEPTH     TEMP      CN25      COND      DELT      DELC      NGAM      
# ...
   257.41     15.83     60.68     47.63     -0.00      0.01      0.82 
   257.42     15.83     60.68     47.63      0.00     -0.00      0.82 
   257.43     15.83     60.68     47.63      0.00     -0.01      0.82 
   257.44     15.83     60.68     47.63      0.00     -0.01      1.24 
   257.45     15.83     60.68     47.63      0.00     -0.01      0.82 
   257.46     15.83     60.68     47.63      0.00     -0.01      0.82 
   257.47     15.83     60.68     47.63      0.00     -0.00      0.82 
   257.48     15.83     60.68     47.63      0.00     -0.01      0.82 
   257.49     15.83     60.68     47.63      0.00     -0.01      1.24 
   257.50     15.83     60.68     47.63      0.00     -0.01      1.24 
   257.51     15.83     60.68     47.63      0.00     -0.01      1.24 
   257.52     15.83     60.68     47.63      0.00     -0.01      1.24 
   257.53     15.83     60.69     47.63      0.00     -0.01      0.82 
   257.54     15.83     60.69     47.63      0.00      0.00      0.82 
   257.55     15.83     60.68     47.63      0.00     -0.00      0.82 
   257.56     15.83     60.69     47.63      0.00     -0.00      0.82 
   257.57     15.83     60.69     47.63      0.01     -0.01      0.82 
   257.58     15.83     60.68     47.63      0.01     -0.01      1.24 
   257.59     15.83     60.69     47.63      0.01     -0.01      1.24 
   257.60     15.83     60.68     47.63      0.01     -0.01      1.24 
   257.61     15.83     60.69     47.63      0.00     -0.00      0.82 
   257.62     15.83     60.69     47.63      0.00     -0.01      0.82 
   257.63     15.83     60.69     47.63      0.00     -0.00      0.82 
   257.64     15.83     60.69     47.63     -0.00      0.00      1.18 
   257.65     15.83     60.69     47.63     -0.00      0.00      1.18 
   257.66     15.83     60.69     47.63     -0.00      0.01      0.76 
   257.67     15.83     60.69     47.63     -0.01      0.02      0.76 
   257.68     15.83     60.69     47.63     -0.01      0.03      0.76 
   257.69     15.83     60.69     47.63     -0.01      0.03      0.76 
   257.70     15.83     60.69     47.63     -0.01      0.03      0.76 
   257.71     15.83     60.69     47.63     -0.01      0.03      0.76 
   257.72     15.83     60.68     47.63     -0.01      0.02      0.76 
   257.73     15.83     60.68     47.63     -0.01      0.03      0.76 
   257.74     15.83     60.68     47.63     -0.01      0.03      0.76 
   257.75     15.83     60.68     47.63     -0.01      0.03      0.35 
   257.76     15.83     60.69     47.63     -0.01      0.03      0.35 
   257.77     15.83     60.68     47.63     -0.01      0.02      0.71 
   257.78     15.83     60.69     47.63     -0.01      0.02      0.71 
   257.79     15.83     60.68     47.63     -0.00      0.01      0.71 
   257.80     15.83     60.68     47.63     -0.01      0.01      0.71 
   257.81     15.83     60.69     47.63     -0.01      0.02      0.35 
   257.82     15.83     60.69     47.63     -0.01      0.02      0.35 
   257.83     15.83     60.70     47.63     -0.01      0.03      0.35 
   257.84     15.82     60.70     47.63     -0.01      0.03      0.35 
   257.85     15.82     60.71     47.63     -0.01      0.03      0.35 
   257.86     15.82     60.71     47.63     -0.01      0.03      0.35 
   257.87     15.82     60.71     47.63     -0.02      0.04      0.76 
   257.88     15.82     60.71     47.63     -0.02      0.04      0.76 
   257.89     15.82     60.70     47.63     -0.01      0.03      0.76 
   257.90     15.83     60.70     47.63     -0.01      0.02      0.76 
   257.91     15.83     60.69     47.63     -0.01      0.01      0.76 
   257.92     15.83     60.69     47.63     -0.01      0.01      0.76 
   257.93     15.83     60.69     47.63     -0.01      0.01      0.76 
   257.94     15.83     60.70     47.63     -0.01      0.02      0.41 
   257.95     15.83     60.69     47.63     -0.01      0.02      0.41 
   257.96     15.83     60.69     47.63     -0.01      0.02      0.41 
   257.97     15.83     60.69     47.63     -0.00      0.02      0.41 
   257.98     15.83     60.69     47.63     -0.00      0.00      0.41 
   257.99     15.83     60.68     47.63      0.00      0.00      0.41 
   258.00     15.83     60.68     47.63      0.00     -0.00      0.41 
   258.01     15.83     60.69     47.63     -0.00      0.01      0.41 
   258.02     15.83     60.69     47.63     -0.00      0.01      0.41 
   258.03     15.83     60.68     47.63      0.00      0.01      0.41 
   258.04     15.83     60.68     47.63      0.00     -0.00      0.00 
   258.05     15.84     60.67     47.63      0.01     -0.02      0.00 
   258.06     15.84     60.67     47.63      0.01     -0.02      0.00 
   258.07     15.84     60.67     47.63      0.01     -0.03      0.00 
   258.08     15.84     60.67     47.63      0.01     -0.02      0.00 
   258.09     15.84     60.67     47.63      0.01     -0.02      0.00 
   258.10     15.84     60.67     47.63      0.01     -0.03      0.00 
   258.11     15.84     60.67     47.63      0.01     -0.03      0.00 
   258.12     15.84     60.67     47.63      0.01     -0.04      0.00 
   258.13     15.84     60.68     47.63      0.01     -0.03      0.00 
   258.14     15.83     60.68     47.63      0.01     -0.02      0.41 
   258.15     15.83     60.68     47.63      0.01     -0.02      0.41 
   258.16     15.84     60.68     47.63      0.01     -0.02      0.41 
   258.17     15.84     60.67     47.63      0.01     -0.03      0.41 
   258.18     15.84     60.66     47.63      0.01     -0.02      0.41 
   258.19     15.84     60.66     47.63      0.01     -0.03      0.41 
   258.20     15.84     60.66     47.63      0.01     -0.03      0.41 
   258.21     15.84     60.66     47.63      0.01     -0.02      0.41 
   258.22     15.84     60.66     47.63      0.01     -0.01      0.41 
   258.23     15.84     60.66     47.63      0.01     -0.02      0.41 
   258.24     15.84     60.66     47.63      0.01     -0.02      0.41 
   258.25     15.84     60.66     47.63      0.01     -0.03      0.41 
   258.26     15.84     60.66     47.63      0.01     -0.03      0.41 
   258.27     15.84     60.66     47.63      0.01     -0.02      0.41 
   258.28     15.84     60.66     47.63      0.01     -0.02      0.41 
   258.29     15.84     60.66     47.63      0.01     -0.02      0.41 
   258.30     15.84     60.66     47.63      0.01     -0.02      0.41 
   258.31     15.84     60.66     47.63      0.01     -0.02      0.00 
   258.32     15.84     60.67     47.63      0.00     -0.01      0.00 
   258.33     15.83     60.67     47.63      0.00     -0.01      0.00 
   258.34     15.83     60.68     47.63      0.00     -0.00      0.00 
   258.35     15.83     60.68     47.63     -0.00      0.00      0.41 
   258.36     15.83     60.68     47.63     -0.00      0.01      0.41 
   258.37     15.83     60.68     47.63     -0.00      0.01      0.41 
   258.38     15.83     60.69     47.63     -0.00      0.01      0.41 
   258.39     15.83     60.69     47.63     -0.00      0.01      0.41 
   258.40     15.83     60.69     47.63     -0.01      0.01      0.41 
   258.41     15.82     60.70     47.63     -0.01      0.03      0.41 
   258.42     15.82     60.71     47.63     -0.01      0.04      0.41 
   258.43     15.82     60.71     47.63     -0.01      0.04      0.41 
   258.44     15.82     60.72     47.63     -0.01      0.04      0.76 
   258.45     15.82     60.71     47.63     -0.01      0.04      0.76 
   258.46     15.82     60.71     47.64     -0.01      0.03      0.76 
   258.47     15.83     60.70     47.63     -0.01      0.02      1.18 
   258.48     15.83     60.70     47.63     -0.00      0.02      1.18 
   258.49     15.83     60.70     47.63     -0.00      0.01      1.18 
   258.50     15.83     60.70     47.63     -0.00      0.01      1.18 
   258.51     15.83     60.69     47.63     -0.00      0.01      1.18 
   258.52     15.83     60.69     47.63     -0.00      0.00      0.76 
   258.53     15.83     60.68     47.63      0.00     -0.01      0.76 
