#Written by Robertson Geologging WinLogger V1.0/312
~VERSION INFORMATION
#------------------------------------------------------------------------------
 VERS. 2.0 : CWLS LOG ASCII STANDARD - VERSION 2.0
 WRAP. NO  : ONE LINE PER DEPTH STEP
~WELL INFORMATION
#MNEM.UNIT         DATA                                DESCRIPTION OF MNEMONIC
#------------------------------------------------------------------------------
 STRT.M         56.2000                            :   START DEPTH
 STOP.M        520.0000                            :   STOP DEPTH
 STEP.M          0.1000                            :   STEP VALUE
 NULL.        -999.2500                            :   NULL VALUE
 COMP.    I.M..C.                                  :   COMPANY NAME
 WELL.    Dawdon Shaft                             :   WELL NAME
 FLD.     Dawdon                                   :   FIELD NAME
 LOC.     N/A                                      :   LOCATION
 PROV.    N/A                                      :   PROVINCE
 SRVC.    N/A                                      :   SERVICE COMPANY NAME
 DATE.    30 Jan 04                                :   DATE
 UWI.     N/A                                      :   UNIQUE WELL IDENTIFIER
~PARAMETER INFORMATION
#MNEMO.UNIT         VALUE                 DESCRIPTION OF MNEMONIC
#------------------------------------------------------------------------------
~OTHER INFORMATION SECTION
#------------------------------------------------------------------------------
 TCGX extended range 1365
~CURVE INFORMATION
#MNEMO.UNIT         API CODE              CURVE DESCRIPTION
#------------------------------------------------------------------------------
 DEPTH.M                                 :   0     Depth
 COND.mS/cm                              :   1     Conductivity
 TEMP.DegC                               :   2     Temperature
 C@25.mS/cm                              :   3     Conductivity @25Deg
 DELT.DegC                               :   4     Delta T
 DC@25.mS/cm                             :   5     Delta C @25Deg
 OUT4.CPS                                :   6     Natural Gamma
#------------------------------------------------------------------------------
~A  DEPTH     COND      TEMP      C@25      DELT      DC@25     OUT4      
    56.20   -999.25   -999.25    105.24      0.00      0.00   -999.25 
    56.30   -999.25   -999.25    105.24      0.00      0.00   -999.25 
    56.40   -999.25   -999.25    105.24      0.00      0.00   -999.25 
    56.50   -999.25   -999.25    105.24      0.00      0.00   -999.25 
    56.60   -999.25   -999.25    105.24      0.00      0.00   -999.25 
    56.70   -999.25   -999.25    105.24      0.00      0.00   -999.25 
    56.80   -999.25   -999.25    105.24      0.00      0.00   -999.25 
    56.90   -999.25   -999.25    105.24      0.00      0.00   -999.25 
    57.00   -999.25   -999.25    105.24      0.00      0.00   -999.25 
    57.10   -999.25   -999.25    105.24      0.00      0.00   -999.25 
    57.20   -999.25   -999.25    105.24      0.00      0.00   -999.25 
    57.30   -999.25   -999.25    105.24      0.00      0.00   -999.25 
    57.40   -999.25   -999.25    105.24      0.00      0.00  12850.00 
    57.50   -999.25   -999.25    105.24      0.00      0.00   9886.00 
    57.60   -999.25   -999.25    105.24      0.00      0.00   3027.94 
    57.70     61.33     51.09    -24.03   1050.34   -129.26      6.12 
    57.80     44.81     22.85     36.47   1022.10    -64.55      5.00 
    57.90      0.77      6.01     12.83   1005.26    -92.41      4.94 
    58.00      0.76      6.00     12.84   1005.25    -92.40      3.35 
    58.10      0.77      6.01     12.83   1005.26    -92.40      2.59 
    58.20      0.76      6.00     12.84   1005.25    -92.40      4.41 
    58.30      0.77      6.00     12.83   1005.25    -92.40      6.47 
    58.40      0.77      6.00     12.84   1005.25    -92.40      5.06 
    58.50      0.76      6.00     12.83   1005.25    -92.41      5.06 
    58.60      0.77      6.01     12.83   1005.26    -92.41      2.94 
    58.70      0.77      6.02     12.82    -45.07     36.85      3.29 
    58.80      0.76      6.02     12.82    -12.73    -31.14      2.88 
    58.90      0.77      6.05     12.80      0.04     -0.03      3.71 
    59.00      0.76      6.10     12.76      0.09     -0.08      3.29 
    59.10      0.77      6.08     12.77      0.07     -0.06      4.12 
    59.20      0.77      6.10     12.75      0.11     -0.09      2.94 
    59.30      0.77      6.12     12.74      0.12     -0.10      2.47 
    59.40      0.77      6.12     12.73      0.13     -0.10      2.47 
    59.50      0.76      6.13     12.73      0.12     -0.11      4.59 
    59.60      0.77      6.15     12.71      0.14     -0.12      3.76 
    59.70      0.77      6.19     12.68      0.17     -0.14      3.29 
    59.80      0.77      6.18     12.68      0.16     -0.13      2.88 
    59.90      3.03      6.50     15.65      0.44      3.21      3.71 
    60.00      3.91      8.17     15.86      2.07      2.95      3.76 
    60.10      4.13      9.54     14.65      3.46      1.81      1.65 
    60.20      4.34     10.29     14.11      4.18      1.32      1.65 
    60.30      4.49     10.73     13.82      4.61      1.06      0.41 
    60.40      4.61     10.94     13.72      4.82      0.98      0.41 
    60.50      4.69     11.09     13.69      4.96      0.95      0.00 
    60.60      4.76     11.21     13.64      5.05      0.93      0.88 
    60.70      4.81     11.30     13.61      5.11      0.93      1.29 
    60.80      4.86     11.34     13.63      5.15      0.80      1.71 
    60.90      4.91     11.35     13.66      4.74     -2.66      0.88 
    61.00      4.96     11.37     13.72      3.03     -1.83      1.24 
    61.10      5.01     11.38     13.77      1.75     -0.72      1.24 
    61.20      5.07     11.40     13.83      1.06     -0.20      1.65 
    61.30      5.13     11.41     13.92      0.64      0.14      1.71 
    61.40      5.19     11.42     13.98      0.46      0.27      0.00 
    61.50      5.26     11.44     14.05      0.33      0.38      0.00 
    61.60      5.32     11.46     14.12      0.24      0.49      0.82 
    61.70      5.37     11.47     14.17      0.18      0.56      1.24 
    61.80      5.44     11.48     14.25      0.14      0.63      1.65 
    61.90      5.49     11.51     14.28      0.16      0.60      1.24 
    62.00      5.53     11.51     14.34      0.13      0.63      1.24 
    62.10      5.58     11.51     14.41      0.13      0.62      1.24 
    62.20      5.62     11.54     14.44      0.13      0.59      0.00 
    62.30      5.67     11.56     14.48      0.15      0.56      0.00 
    62.40      5.71     11.57     14.53      0.15      0.53      0.00 
    62.50      5.75     11.60     14.55      0.15      0.49      0.82 
    62.60      5.79     11.62     14.58      0.16      0.46      1.65 
    62.70      5.83     11.64     14.60      0.17      0.41      2.06 
    62.80      5.87     11.67     14.62      0.19      0.36      1.24 
    62.90      5.91     11.69     14.65      0.17      0.36      0.00 
    63.00      5.92     11.69     14.67      0.19      0.31      0.41 
    63.10      5.94     11.72     14.65      0.21      0.24      0.41 
    63.20      5.94     11.71     14.68      0.17      0.23      0.41 
    63.30      5.95     11.73     14.67      0.17      0.18      0.82 
    63.40      5.96     11.73     14.68      0.15      0.15      0.76 
    63.50      5.96     11.72     14.69      0.13      0.13      1.18 
    63.60      5.97     11.73     14.69      0.11      0.11      0.82 
    63.70      5.98     11.73     14.70      0.09      0.09      0.41 
    63.80      5.98     11.73     14.70      0.05      0.08      0.41 
    63.90      5.99     11.72     14.72      0.03      0.07      0.41 
    64.00      5.98     11.73     14.71      0.04      0.04      0.41 
    64.10      5.99     11.74     14.71      0.02      0.06      0.41 
    64.20      5.99     11.73     14.72      0.02      0.04      0.82 
    64.30      6.00     11.73     14.73     -0.00      0.06      1.65 
    64.40      6.00     11.72     14.74     -0.00      0.06      0.82 
    64.50      6.00     11.73     14.73      0.00      0.05      1.18 
    64.60      6.01     11.73     14.74     -0.00      0.05      0.41 
    64.70      6.01     11.73     14.73      0.00      0.04      0.82 
    64.80      6.01     11.74     14.73      0.02      0.02      0.82 
    64.90      6.01     11.74     14.73      0.02      0.02      1.24 
    65.00      6.01     11.73     14.74     -0.00      0.04      0.76 
    65.10      6.01     11.76     14.73      0.01      0.01      0.76 
    65.20      6.01     11.75     14.73      0.02      0.01      1.29 
    65.30      6.02     11.75     14.72      0.03     -0.00      1.24 
    65.40      6.02     11.75     14.73      0.03     -0.01      0.41 
    65.50      6.02     11.76     14.72      0.03     -0.02      1.18 
    65.60      6.02     11.74     14.75      0.01      0.01      1.18 
    65.70      6.02     11.75     14.74      0.01      0.01      0.00 
    65.80      6.02     11.75     14.73      0.01      0.00      0.76 
    65.90      6.02     11.75     14.73      0.01     -0.00      0.76 
    66.00      6.02     11.76     14.73      0.02     -0.01      0.00 
    66.10      6.02     11.75     14.73     -0.01      0.02      0.00 
    66.20      6.03     11.75     14.74      0.01      0.01      0.00 
    66.30      6.02     11.75     14.74     -0.00      0.01      0.41 
    66.40      6.03     11.76     14.73      0.00      0.01      0.82 
    66.50      6.03     11.76     14.73     -0.00      0.01      0.41 
    66.60      6.03     11.77     14.72      0.03     -0.03      0.82 
    66.70      6.03     11.76     14.73      0.01      0.00      0.41 
    66.80      6.03     11.75     14.74     -0.00      0.01      0.76 
    66.90      6.03     11.76     14.73      0.02     -0.01      1.59 
    67.00      6.03     11.76     14.73      0.01     -0.00      1.18 
    67.10      6.03     11.77     14.72      0.02     -0.02      0.76 
    67.20      6.03     11.76     14.73      0.01     -0.01      0.82 
    67.30      6.03     11.77     14.72      0.02     -0.02      1.24 
    67.40      6.03     11.77     14.73      0.01     -0.01      1.24 
