#Written by Robertson Geologging WinLogger V1.0/406
~VERSION INFORMATION
#------------------------------------------------------------------------------
 VERS. 2.0 : CWLS LOG ASCII STANDARD - VERSION 2.0
 WRAP. NO  : ONE LINE PER DEPTH STEP
~WELL INFORMATION
#MNEM.UNIT         DATA                                DESCRIPTION OF MNEMONIC
#------------------------------------------------------------------------------
 STRT.M         40.0600                            :   START DEPTH
 STOP.M        498.0000                            :   STOP DEPTH
 STEP.M          0.0100                            :   STEP VALUE
 NULL.        -999.2500                            :   NULL VALUE
 COMP.    Coal Authority                           :   COMPANY NAME
 WELL.    Dawdon                                   :   WELL NAME
 FLD.     N/A                                      :   FIELD NAME
 LOC.     N/A                                      :   LOCATION
 PROV.    N/A                                      :   PROVINCE
 SRVC.    N/A                                      :   SERVICE COMPANY NAME
 DATE.    30 Sep 08                                :   DATE
 UWI.     N/A                                      :   UNIQUE WELL IDENTIFIER
~PARAMETER INFORMATION
#MNEMO.UNIT         VALUE                 DESCRIPTION OF MNEMONIC
#------------------------------------------------------------------------------
~OTHER INFORMATION SECTION
#------------------------------------------------------------------------------
 TCGS2822
~CURVE INFORMATION
#MNEMO.UNIT         API CODE              CURVE DESCRIPTION
#------------------------------------------------------------------------------
 DEPTH.M                                 :   0     Depth
 TEMP.DegC                               :   1     Temperature
 COND.uS/cm                              :   2     Conductivity
 DELT.DegC                               :   3     Delta T
 DELC.uS/cm                              :   4     Delta C
 NGAM.CPS                                :   5     Natural Gamma
#------------------------------------------------------------------------------
~A  DEPTH     TEMP      COND      DELT      DELC      NGAM      
# ...
   314.62     16.47  45307.77      0.01      0.00      0.00 
   314.63     16.46  45307.77      0.01     10.51      0.00 
   314.64     16.45  45307.77      0.00      0.00      0.00 
   314.65     16.46  45307.77     -0.00      0.00      0.00 
   314.66     16.45  45307.77     -0.01     10.51      8.00 
   314.67     16.46  45287.91      0.00    -19.86      0.00 
   314.68     16.47  45307.77      0.01     10.51      8.00 
   314.69     16.47  45307.77      0.02      0.00      0.00 
   314.70     16.46  45307.77     -0.00     19.86     14.00 
   314.71     16.45  45307.77     -0.02      0.00      0.00 
   314.72     16.45  45307.77     -0.01     10.51      0.00 
   314.73     16.45  45307.77     -0.02      0.00      0.00 
   314.74     16.46  45307.77     -0.01     10.51      0.00 
   314.75     16.46  45307.77      0.00      0.00      0.00 
   314.76     16.46  45307.77     -0.01      0.00      0.00 
   314.77     16.46  45307.77      0.00      0.00      0.00 
   314.78     16.46  45307.77      0.00      0.00      0.00 
   314.79     16.46  45297.26     -0.00     -1.17      0.00 
   314.80     16.46  45307.77      0.01      0.00      8.00 
   314.81     16.47  45307.77      0.02      0.00      0.00 
   314.82     16.48  45298.43      0.02      1.17      0.00 
   314.83     16.47  45307.77      0.01      0.00      0.00 
   314.84     16.47  45307.77      0.00      0.00      0.00 
   314.85     16.46  45307.77     -0.01      0.00      8.00 
   314.86     16.46  45297.26      0.00    -10.51      8.00 
   314.87     16.47  45307.77      0.01      0.00      0.00 
   314.88     16.48  45297.26      0.01    -10.51      0.00 
   314.89     16.48  45307.77      0.01      0.00      0.00 
   314.90     16.48  45307.77      0.01      0.00      0.00 
   314.91     16.48  45298.43      0.03     -9.35      0.00 
   314.92     16.48  45297.26      0.04    -19.86      0.00 
   314.93     16.47  45307.77      0.03     19.86      0.00 
   314.94     16.46  45307.77      0.01     -9.35      0.00 
   314.95     16.45  45307.77      0.00      0.00      0.00 
   314.96     16.45  45297.26     -0.01    -10.51      0.00 
   314.97     16.45  45307.77     -0.01      0.00      0.00 
   314.98     16.46  45307.77     -0.00      0.00     16.00 
   314.99     16.45  45298.43     -0.02     -9.35      0.00 
   315.00     16.44  45307.77     -0.03      0.00      0.00 
   315.01     16.45  45297.26     -0.02    -10.51      8.00 
   315.02     16.45  45307.77     -0.01     -9.35      8.00 
   315.03     16.46  45290.25      0.00    -17.52      0.00 
   315.04     16.46  45307.77      0.02      0.00      0.00 
   315.05     16.46  45297.26      0.03    -10.51      0.00 
   315.06     16.46  45297.26      0.03      0.00      0.00 
   315.07     16.47  45307.77      0.03      0.00      0.00 
   315.08     16.48  45297.26      0.03    -19.86      0.00 
   315.09     16.48  45307.77      0.02      0.00      0.00 
   315.10     16.47  45297.26      0.02    -10.51      0.00 
   315.11     16.46  45298.43      0.02     -9.35      0.00 
   315.12     16.46  45307.77      0.03      0.00      0.00 
   315.13     16.46  45297.26      0.02    -10.51      0.00 
   315.14     16.46  45307.77      0.01     -8.18      0.00 
   315.15     16.46  45287.91     -0.01    -19.86      0.00 
   315.16     16.46  45307.77     -0.01      0.00      0.00 
   315.17     16.47  45297.26     -0.00    -10.51      0.00 
   315.18     16.47  45307.77     -0.00      0.00      0.00 
   315.19     16.48  45297.26      0.02    -10.51      0.00 
   315.20     16.47  45297.26      0.02    -19.86      0.00 
   315.21     16.48  45307.77      0.04      0.00      0.00 
   315.22     16.48  45297.26      0.03    -10.51      0.00 
   315.23     16.46  45307.77      0.01     -9.35      7.00 
   315.24     16.47  45297.26      0.00    -18.69      0.00 
   315.25     16.45  45307.77      0.00      0.00      0.00 
   315.26     16.45  45297.26      0.00    -10.51      0.00 
   315.27     16.47  45298.43     -0.00    -18.69      0.00 
   315.28     16.46  45297.26     -0.00    -10.51      0.00 
   315.29     16.46  45307.77     -0.01     -8.18      0.00 
   315.30     16.45  45297.26     -0.02      0.00      0.00 
   315.31     16.44  45307.77     -0.01     -9.35      0.00 
   315.32     16.44  45298.43     -0.00     -9.35      7.00 
   315.33     16.45  45307.77      0.00      0.00      0.00 
   315.34     16.46  45307.77      0.01      0.00      0.00 
   315.35     16.46  45307.77      0.01     -8.18      0.00 
   315.36     16.45  45297.26      0.01    -10.51      0.00 
   315.37     16.45  45307.77      0.01      0.00      0.00 
   315.38     16.45  45298.43      0.01    -18.69      0.00 
   315.39     16.45  45297.26      0.01    -10.51      0.00 
   315.40     16.45  45307.77      0.01      0.00      0.00 
   315.41     16.45  45307.77      0.01     -9.35      0.00 
   315.42     16.46  45297.26      0.01      0.00      0.00 
   315.43     16.45  45307.77      0.00      0.00      7.00 
   315.44     16.44  45307.77     -0.02      0.00      0.00 
   315.45     16.45  45297.26     -0.01    -10.51      8.00 
   315.46     16.45  45307.77     -0.01     -9.35      0.00 
   315.47     16.46  45298.43      0.00     -9.35      0.00 
   315.48     16.48  45307.77      0.03      0.00      0.00 
   315.49     16.47  45297.26      0.01    -10.51      0.00 
   315.50     16.47  45307.77      0.01      0.00      0.00 
   315.51     16.46  45287.91      0.00    -19.86      0.00 
   315.52     16.45  45298.43     -0.01    -18.69      0.00 
   315.53     16.45  45307.77     -0.01      0.00      8.00 
   315.54     16.45  45307.77     -0.02     10.51      0.00 
   315.55     16.45  45298.43     -0.02     -9.35      0.00 
   315.56     16.45  45307.77     -0.02      0.00      0.00 
   315.57     16.46  45307.77     -0.00      0.00      0.00 
   315.58     16.46  45307.77     -0.00      0.00      0.00 
   315.59     16.47  45297.26      0.01    -10.51      0.00 
   315.60     16.47  45307.77      0.01      0.00      0.00 
   315.61     16.47  45307.77      0.00      0.00      0.00 
   315.62     16.47  45307.77      0.00      0.00      0.00 
   315.63     16.45  45287.91      0.00    -19.86      8.00 
   315.64     16.46  45307.77      0.00      0.00      0.00 
   315.65     16.47  45307.77      0.02      0.00      0.00 
   315.66     16.47  45307.77      0.01     19.86      0.00 
   315.67     16.47  45297.26      0.00    -10.51      0.00 
   315.68     16.47  45307.77      0.00      0.00      0.00 
   315.69     16.47  45307.77      0.01      0.00      0.00 
   315.70     16.47  45297.26      0.01    -10.51      0.00 
   315.71     16.46  45307.77      0.01      0.00      0.00 
   315.72     16.47  45307.77      0.02      0.00      0.00 
   315.73     16.47  45307.77      0.01      0.00      8.00 
   315.74     16.47  45297.26      0.00    -10.51      0.00 
   315.75     16.48  45298.43      0.02     -9.35      0.00 
   315.76     16.48  45307.77      0.01      0.00      0.00 
   315.77     16.46  45307.77      0.00      0.00      0.00 
   315.78     16.47  45297.26      0.01      0.00      0.00 
   315.79     16.46  45307.77      0.00      0.00      0.00 
   315.80     16.47  45307.77     -0.00      0.00      0.00 
   315.81     16.48  45307.77     -0.00      9.35      0.00 
   315.82     16.48  45297.26      0.01    -10.51      0.00 
   315.83     16.48  45307.77      0.02      0.00      0.00 
   315.84     16.48  45297.26      0.03    -10.51      0.00 
   315.85     16.48  45307.77      0.01     10.51      0.00 
   315.86     16.48  45307.77      0.00      0.00      0.00 
   315.87     16.47  45287.91     -0.00     -9.35      0.00 
   315.88     16.46  45307.77     -0.02      0.00      8.00 
   315.89     16.47  45298.43     -0.01     -9.35      0.00 
   315.90     16.46  45307.77     -0.02      9.35      0.00 
   315.91     16.47  45307.77     -0.01     10.51      8.00 
   315.92     16.46  45297.26     -0.01    -10.51      0.00 
   315.93     16.47  45307.77      0.01      0.00      0.00 
