#Written by Robertson Geologging WinLogger V1.0/312
~VERSION INFORMATION
#------------------------------------------------------------------------------
 VERS. 2.0 : CWLS LOG ASCII STANDARD - VERSION 2.0
 WRAP. NO  : ONE LINE PER DEPTH STEP
~WELL INFORMATION
#MNEM.UNIT         DATA                                DESCRIPTION OF MNEMONIC
#------------------------------------------------------------------------------
 STRT.M         56.2000                            :   START DEPTH
 STOP.M        520.0000                            :   STOP DEPTH
 STEP.M          0.1000                            :   STEP VALUE
 NULL.        -999.2500                            :   NULL VALUE
 COMP.    I.M..C.                                  :   COMPANY NAME
 WELL.    Dawdon Shaft                             :   WELL NAME
 FLD.     Dawdon                                   :   FIELD NAME
 LOC.     N/A                                      :   LOCATION
 PROV.    N/A                                      :   PROVINCE
 SRVC.    N/A                                      :   SERVICE COMPANY NAME
 DATE.    30 Jan 04                                :   DATE
 UWI.     N/A                                      :   UNIQUE WELL IDENTIFIER
~PARAMETER INFORMATION
#MNEMO.UNIT         VALUE                 DESCRIPTION OF MNEMONIC
#------------------------------------------------------------------------------
~OTHER INFORMATION SECTION
#------------------------------------------------------------------------------
 TCGX extended range 1365
~CURVE INFORMATION
#MNEMO.UNIT         API CODE              CURVE DESCRIPTION
#------------------------------------------------------------------------------
 DEPTH.M                                 :   0     Depth
 COND.mS/cm                              :   1     Conductivity
 TEMP.DegC                               :   2     Temperature
 C@25.mS/cm                              :   3     Conductivity @25Deg
 DELT.DegC                               :   4     Delta T
 DC@25.mS/cm                             :   5     Delta C @25Deg
 OUT4.CPS                                :   6     Natural Gamma
#------------------------------------------------------------------------------
~A  DEPTH     COND      TEMP      C@25      DELT      DC@25     OUT4      
# ...
   508.20     85.66     23.06     82.70     -0.01      0.64      5.47 
   508.30     85.53     23.05     82.58     -0.02      0.42      7.29 
   508.40     85.53     23.06     82.58     -0.00      0.32      7.24 
   508.50     85.60     23.05     82.66     -0.02      0.39      5.06 
   508.60     85.52     23.06     82.55     -0.01      0.13      4.24 
   508.70     85.63     23.06     82.66      0.00      0.19      4.12 
   508.80     85.60     23.05     82.64     -0.00      0.10      2.65 
   508.90     85.64     23.06     82.66      0.01      0.08      4.24 
   509.00     85.68     23.05     82.74      0.00      0.09      5.53 
   509.10     85.63     23.05     82.69     -0.00      0.04      4.18 
   509.20     85.66     23.05     82.72     -0.01      0.02      3.71 
   509.30     85.66     23.06     82.67      0.01      0.09      4.41 
   509.40     85.76     23.05     82.83     -0.01      0.26      3.12 
   509.50     85.69     23.06     82.74      0.01      0.07      4.29 
   509.60     85.68     23.07     82.69      0.01      0.12      5.29 
   509.70     85.72     23.06     82.76     -0.00      0.10      6.00 
   509.80     85.67     23.04     82.76     -0.01      0.11      5.76 
   509.90     85.73     23.05     82.82     -0.02      0.14      5.35 
   510.00     85.80     23.06     82.81      0.01      0.05      4.65 
   510.10     85.79     23.06     82.80      0.01      0.13      6.59 
   510.20     85.93     23.05     83.00     -0.00      0.27      5.71 
   510.30     86.01     23.05     83.08     -0.01      0.40      3.24 
   510.40     86.07     23.05     83.16     -0.00      0.34      5.94 
   510.50     85.88     23.06     82.93      0.00      0.19      6.29 
   510.60     85.86     23.06     82.91     -0.01      0.22      6.00 
   510.70     85.79     23.05     82.88     -0.01      0.11      6.71 
   510.80     85.81     23.05     82.85      0.01      0.10      6.18 
   510.90     85.83     23.06     82.89      0.01      0.08      8.29 
   511.00     85.83     23.05     82.91     -0.01      0.07      7.71 
   511.10     85.78     23.05     82.85     -0.01     -0.01      5.12 
   511.20     85.77     23.05     82.84      0.00     -0.17      5.35 
   511.30     85.78     23.06     82.81      0.01     -0.30      5.35 
   511.40     85.82     23.05     82.89      0.01     -0.28      6.18 
   511.50     85.82     23.06     82.86      0.00     -0.05      5.53 
   511.60     85.99     23.06     83.02      0.00      0.15      4.65 
   511.70     85.91     23.06     82.98      0.01      0.10      5.82 
   511.80     85.87     23.05     82.93      0.00      0.06      5.12 
   511.90     85.84     23.04     82.93     -0.01      0.05      4.88 
   512.00     85.89     23.04     82.97     -0.00      0.08      6.47 
   512.10     85.80     23.05     82.90     -0.01      0.04      6.94 
   512.20     85.90     23.05     82.98     -0.01      0.15      7.47 
   512.30     85.88     23.05     82.96     -0.01      0.12      8.88 
   512.40     85.94     23.07     82.96      0.01      0.08      4.53 
   512.50     85.92     23.06     82.97     -0.01      0.10      4.06 
   512.60     85.87     23.06     82.94      0.00     -0.18      4.59 
   512.70     85.80     23.06     82.84      0.00     -0.10      5.00 
   512.80     85.82     23.06     82.88      0.01     -0.07      5.18 
   512.90     85.82     23.06     82.87      0.01     -0.06      5.59 
   513.00     85.85     23.07     82.87      0.02     -0.11      4.59 
   513.10     85.91     23.06     82.96      0.01      0.06      8.12 
   513.20     85.84     23.04     82.94     -0.01     -0.06      7.12 
   513.30     85.81     23.05     82.89     -0.00     -0.08      2.82 
   513.40     85.81     23.06     82.87     -0.01     -0.10      5.47 
   513.50     85.86     23.06     82.91      0.00     -0.07      5.35 
   513.60     85.91     23.04     83.01     -0.02      0.11      3.53 
   513.70     85.87     23.05     82.98     -0.01      0.10      5.06 
   513.80     85.89     23.06     82.93      0.00      0.05      5.47 
   513.90     85.89     23.05     82.94     -0.01      0.09      6.41 
   514.00     85.87     23.05     82.94     -0.02      0.06      5.88 
   514.10     85.97     23.05     83.01     -0.00      0.06      4.12 
   514.20     85.97     23.05     83.05      0.01      0.12      3.71 
   514.30     85.97     23.05     83.03      0.00      0.17      4.24 
   514.40     85.91     23.05     82.98     -0.01      0.14      5.71 
   514.50     85.89     23.04     83.00     -0.01      0.07      5.12 
   514.60     85.85     23.06     82.87      0.02     -0.12      1.82 
   514.70     85.98     23.06     83.03      0.01      0.09      5.24 
   514.80     86.09     23.06     83.14      0.00      0.21      5.65 
   514.90     86.04     23.06     83.10      0.01      0.15      6.35 
   515.00     86.05     23.06     83.10      0.01      0.20      5.71 
   515.10     86.04     23.06     83.09      0.00      0.06      5.94 
   515.20     86.05     23.05     83.13      0.00      0.09      4.71 
   515.30     85.97     23.06     83.01      0.01     -0.03      6.06 
   515.40     86.06     23.07     83.09      0.02      0.08      5.29 
   515.50     86.05     23.05     83.11      0.01      0.15      6.24 
   515.60     86.01     23.05     83.08     -0.02      0.21      6.88 
   515.70     86.00     23.05     83.10     -0.01      0.04      5.47 
   515.80     85.92     23.04     83.01     -0.02     -0.09      5.94 
   515.90     86.00     23.06     83.04      0.00     -0.05      5.53 
   516.00     86.02     23.06     83.05      0.00     -0.04      6.65 
   516.10     85.97     23.06     83.00      0.01     -0.09      9.29 
   516.20     85.93     23.05     83.00     -0.00     -0.11      8.71 
   516.30     85.90     23.06     82.95     -0.00     -0.06      8.00 
   516.40     85.88     23.06     82.94     -0.01     -0.15      6.47 
   516.50     85.87     23.05     82.93      0.00     -0.18      5.06 
   516.60     85.85     23.06     82.89      0.01     -0.18      4.47 
   516.70     85.85     23.06     82.89      0.01     -0.19      4.00 
   516.80     85.86     23.05     82.93      0.01     -0.09      5.88 
   516.90     85.88     23.05     82.96     -0.01     -0.08      6.71 
   517.00     85.85     23.06     82.91     -0.00     -0.14      4.94 
   517.10     86.11     23.07     83.10      0.01      0.12      4.18 
   517.20     86.08     23.05     83.15     -0.01      0.19      3.65 
   517.30     86.06     23.06     83.14     -0.01      0.20      5.12 
   517.40     86.24     23.07     83.25      0.01      0.34      6.59 
   517.50     86.22     23.06     83.29      0.01      0.35      7.06 
   517.60     86.13     23.05     83.21     -0.01      0.31      5.71 
   517.70     86.14     23.06     83.18      0.00      0.28      5.06 
   517.80     86.13     23.06     83.17      0.01      0.24      3.88 
   517.90     86.12     23.06     83.16      0.01      0.22      5.12 
   518.00     86.09     23.05     83.16     -0.01      0.22      4.82 
   518.10     86.06     23.06     83.10     -0.01     -0.04      4.82 
   518.20     86.07     23.06     83.10      0.02     -0.08      3.35 
   518.30     86.04     23.06     83.10      0.00      0.01      6.24 
   518.40     85.99     23.07     83.00      0.01     -0.31      4.82 
   518.50     85.98     23.06     83.03      0.00     -0.25      5.18 
   518.60     85.97     23.05     83.04     -0.00     -0.15      5.35 
   518.70     85.97     23.06     83.03     -0.00     -0.18      6.41 
   518.80     85.96     23.05     83.03     -0.01     -0.13      5.88 
   518.90     85.97     23.06     83.02     -0.00     -0.15      4.82 
   519.00     85.95     23.07     82.97      0.01     -0.19      5.94 
   519.10     85.93     23.06     82.98     -0.00     -0.12      4.82 
   519.20     85.91     23.04     83.01     -0.02     -0.11      6.29 
   519.30     85.92     23.05     83.00     -0.01     -0.09      6.29 
   519.40     85.90     23.06     82.95     -0.01     -0.06      6.82 
