#Written by Robertson Geologging WinLogger V1.0/311
~VERSION INFORMATION
#------------------------------------------------------------------------------
 VERS. 2.0 : CWLS LOG ASCII STANDARD - VERSION 2.0
 WRAP. NO  : ONE LINE PER DEPTH STEP
~WELL INFORMATION
#MNEM.UNIT         DATA                                DESCRIPTION OF MNEMONIC
#------------------------------------------------------------------------------
 STRT.M         57.1000                            :   START DEPTH
 STOP.M        520.1000                            :   STOP DEPTH
 STEP.M          0.1000                            :   STEP VALUE
 NULL.        -999.2500                            :   NULL VALUE
 COMP.    IMC                                      :   COMPANY NAME
 WELL.    THERESA SHAFT                            :   WELL NAME
 FLD.     DAWDON                                   :   FIELD NAME
 LOC.     N/A                                      :   LOCATION
 PROV.    N/A                                      :   PROVINCE
 SRVC.    N/A                                      :   SERVICE COMPANY NAME
 DATE.    03 Oct 03                                :   DATE
 UWI.     N/A                                      :   UNIQUE WELL IDENTIFIER
~PARAMETER INFORMATION
#MNEMO.UNIT         VALUE                 DESCRIPTION OF MNEMONIC
#------------------------------------------------------------------------------
~OTHER INFORMATION SECTION
#------------------------------------------------------------------------------
 TCDS 2822
~CURVE INFORMATION
#MNEMO.UNIT         API CODE              CURVE DESCRIPTION
#------------------------------------------------------------------------------
 DEPTH.M                                 :   0     Depth
 TEMP.DegC                               :   1     Temperature
 COND.uS/cm                              :   2     Conductivity
 DELT.DegC                               :   3     Delta T
 DELC.uS/cm                              :   4     Delta C
 NGAM.API                                :   5     Natural Gamma
#------------------------------------------------------------------------------
~A  DEPTH     TEMP      COND      DELT      DELC      NGAM      
# ...
   241.90     16.02  49051.85      0.02     15.78      0.94 
   242.00     16.02  49052.93      0.02     16.64      1.41 
   242.10     16.01  49052.82      0.00     15.02      1.35 
   242.20     16.02  49052.82      0.01     14.16      0.82 
   242.30     16.02  49055.31      0.01     16.10      0.41 
   242.40     16.02  49059.74      0.01     19.56      0.41 
   242.50     16.01  49063.95     -0.00     20.32      0.82 
   242.60     16.01  49066.33     -0.01     18.70      1.76 
   242.70     16.01  49068.71     -0.01     18.59      1.35 
   242.80     16.02  49074.87      0.00     24.43      0.82 
   242.90     16.01  49084.27     -0.01     33.29      0.82 
   243.00     16.01  49091.84     -0.00     38.91      0.00 
   243.10     16.02  49094.76      0.00     41.94      0.47 
   243.20     16.01  49096.59     -0.00     43.77      0.88 
   243.30     16.02  49099.08      0.00     43.02      1.29 
   243.40     16.02  49098.76      0.00     38.15      1.76 
   243.50     16.01  49098.97     -0.00     34.26      1.29 
   243.60     16.01  49100.16     -0.01     33.18      2.12 
   243.70     16.01  49103.40      0.01     33.94      1.71 
   243.80     16.02  49104.05     -0.00     27.35      0.88 
   243.90     16.02  49104.38      0.01     19.35      2.18 
   244.00     16.02  49104.05      0.01     11.57      1.76 
   244.10     16.03  49105.57      0.01     10.92      1.41 
   244.20     16.00  49108.70     -0.01     12.11      0.94 
   244.30     16.01  49107.51     -0.01      8.43      0.00 
   244.40     16.01  49109.57     -0.01     10.81      0.47 
   244.50     16.01  49114.43     -0.00     16.22      1.35 
   244.60     16.02  49119.84      0.01     18.70      1.24 
   244.70     16.02  49121.24      0.00     17.40      1.29 
   244.80     16.02  49124.27      0.00     20.97      0.41 
   244.90     16.03  49128.38      0.01     24.43      1.29 
   245.00     16.02  49133.24     -0.01     28.86      2.71 
   245.10     16.02  49138.65     -0.01     32.54      1.41 
   245.20     16.03  49135.30      0.02     27.03      0.41 
   245.30     16.03  49127.94      0.02     19.46      0.41 
   245.40     16.01  49122.86      0.00     12.86      0.82 
   245.50     16.02  49119.84      0.02      4.86      1.35 
   245.60     16.02  49117.35      0.00     -2.49      1.35 
   245.70     16.01  49119.84     -0.01     -1.62      1.35 
   245.80     16.01  49120.59     -0.02     -3.68      0.47 
   245.90     16.02  49118.97     -0.01     -9.41      2.71 
   246.00     16.01  49118.11     -0.00    -16.11      1.35 
   246.10     16.01  49116.70     -0.00    -21.95      0.82 
   246.20     16.01  49112.48     -0.02    -21.95      1.65 
   246.30     16.03  49109.35     -0.00    -17.62      0.41 
   246.40     16.02  49110.11      0.01    -13.62      1.29 
   246.50     16.03  49114.11      0.00     -4.97      1.24 
   246.60     16.02  49114.86     -0.00     -2.70      0.41 
   246.70     16.02  49116.59      0.01     -3.46      0.94 
   246.80     16.02  49117.46      0.01     -3.14      0.94 
   246.90     16.02  49119.08      0.00      0.32      0.88 
   247.00     16.01  49120.05     -0.00      1.95      2.24 
   247.10     16.02  49118.21      0.00      2.27      3.06 
   247.20     16.01  49121.57      0.00      8.76      0.88 
   247.30     16.02  49128.92     -0.00     19.57      0.94 
   247.40     16.02  49136.16      0.00     26.05      0.47 
   247.50     16.01  49138.00     -0.01     23.57      1.35 
   247.60     16.03  49135.30      0.01     20.22      0.94 
   247.70     16.02  49134.32     -0.00     17.51      0.88 
   247.80     16.03  49137.03      0.01     19.35      0.88 
   247.90     16.02  49138.76     -0.00     20.22      0.82 
   248.00     16.03  49142.22      0.02     23.03      0.82 
   248.10     16.03  49147.62      0.02     28.76      0.47 
   248.20     16.02  49154.43      0.01     31.46      1.41 
   248.30     16.02  49159.41      0.00     28.87      0.47 
   248.40     16.02  49166.00     -0.00     28.98      0.82 
   248.50     16.02  49171.73      0.01     33.73      1.24 
   248.60     16.03  49172.38      0.00     36.22      0.82 
   248.70     16.01  49172.49     -0.00     38.17      0.41 
   248.80     16.02  49169.79     -0.00     31.79      0.00 
   248.90     16.02  49162.54      0.00     23.79      0.47 
   249.00     16.02  49151.08     -0.01      8.11      1.35 
   249.10     16.02  49141.03     -0.02     -7.24      1.29 
   249.20     16.03  49128.92      0.01    -26.38      0.00 
   249.30     16.03  49116.48      0.00    -43.68      0.41 
   249.40     16.03  49106.32      0.01    -60.22      0.47 
   249.50     16.02  49093.89     -0.00    -78.38      1.41 
   249.60     16.03  49085.68      0.00    -87.46      0.94 
   249.70     16.02  49079.19      0.00    -92.97      1.29 
   249.80     16.01  49075.95     -0.01    -93.08      0.82 
   249.90     16.02  49073.25     -0.00    -88.32      0.00 
   250.00     16.02  49070.33     -0.00    -79.24      0.41 
   250.10     16.02  49067.84     -0.00    -72.32      1.35 
   250.20     16.01  49071.30     -0.02    -56.75      1.35 
   250.30     16.02  49073.25     -0.01    -43.24      1.71 
   250.40     16.01  49074.76     -0.02    -29.40      0.82 
   250.50     16.02  49078.54     -0.00    -13.84      0.41 
   250.60     16.02  49081.68     -0.01     -2.49      0.88 
   250.70     16.01  49084.27     -0.00      5.84      0.88 
   250.80     16.01  49080.81     -0.00      4.86      1.24 
   250.90     16.01  49080.92     -0.01      7.67      2.06 
   251.00     16.02  49081.68      0.00     12.32      3.06 
   251.10     16.01  49080.06     -0.01     11.35      2.24 
   251.20     16.02  49077.57      0.01      4.65      1.82 
   251.30     16.01  49078.43     -0.01      5.08      0.88 
   251.40     16.02  49081.46      0.01      6.70      0.41 
   251.50     16.01  49082.54     -0.00      3.13      1.35 
   251.60     16.00  49084.27     -0.02      1.73      1.29 
   251.70     16.02  49086.00      0.01      1.73      0.00 
   251.80     16.01  49084.06     -0.00      3.24      0.41 
   251.90     16.03  49082.43      0.01      0.65      0.41 
   252.00     16.01  49081.89     -0.01      1.19      1.35 
   252.10     16.02  49085.78      0.01      7.46      1.35 
   252.20     16.02  49088.38      0.00     10.81      0.47 
   252.30     16.03  49092.49      0.02     14.05      0.47 
   252.40     16.02  49093.89     -0.00     12.43      0.94 
   252.50     16.02  49094.54      0.00     12.00      0.88 
   252.60     16.01  49097.13      0.01     12.11      0.41 
   252.70     16.02  49098.22     -0.01     12.32      0.00 
   252.80     16.02  49098.86      0.01     14.92      0.00 
   252.90     16.04  49101.35      0.01     18.92      0.94 
   253.00     16.02  49105.03      0.02     22.27      1.82 
   253.10     16.03  49107.94      0.01     22.16      1.29 
   253.20     16.02  49113.03     -0.00     24.65      0.82 
   253.30     16.01  49117.35     -0.02     25.84      1.29 
   253.40     16.02  49119.19      0.00     26.16      1.71 
   253.50     16.03  49117.57      0.01     21.51      1.35 
   253.60     16.02  49115.94      0.00     17.94      1.71 
   253.70     16.03  49117.67      0.01     19.46      1.76 
   253.80     16.02  49123.84     -0.00     24.76      0.94 
   253.90     16.01  49135.08     -0.03     33.51      1.41 
   254.00     16.01  49145.35     -0.01     40.87      2.24 
   254.10     16.02  49153.35     -0.01     45.73      0.88 
   254.20     16.02  49163.84     -0.00     51.14      0.88 
   254.30     16.03  49168.60      0.02     51.25      1.29 
   254.40     16.03  49170.22      0.01     51.03      0.47 
   254.50     16.04  49170.44      0.01     52.87      1.29 
   254.60     16.03  49167.30      0.01     50.49      1.29 
   254.70     16.02  49161.79     -0.01     43.35      0.47 
   254.80     16.02  49153.14      0.00     28.33      0.94 
   254.90     16.03  49144.70      0.02      9.62      0.88 
   255.00     16.03  49138.65      0.02     -6.70      1.29 
