#Written by Robertson Geologging WinLogger V1.0/311
~VERSION INFORMATION
#------------------------------------------------------------------------------
 VERS. 2.0 : CWLS LOG ASCII STANDARD - VERSION 2.0
 WRAP. NO  : ONE LINE PER DEPTH STEP
~WELL INFORMATION
#MNEM.UNIT         DATA                                DESCRIPTION OF MNEMONIC
#------------------------------------------------------------------------------
 STRT.M         57.1000                            :   START DEPTH
 STOP.M        520.1000                            :   STOP DEPTH
 STEP.M          0.1000                            :   STEP VALUE
 NULL.        -999.2500                            :   NULL VALUE
 COMP.    IMC                                      :   COMPANY NAME
 WELL.    THERESA SHAFT                            :   WELL NAME
 FLD.     DAWDON                                   :   FIELD NAME
 LOC.     N/A                                      :   LOCATION
 PROV.    N/A                                      :   PROVINCE
 SRVC.    N/A                                      :   SERVICE COMPANY NAME
 DATE.    03 Oct 03                                :   DATE
 UWI.     N/A                                      :   UNIQUE WELL IDENTIFIER
~PARAMETER INFORMATION
#MNEMO.UNIT         VALUE                 DESCRIPTION OF MNEMONIC
#------------------------------------------------------------------------------
~OTHER INFORMATION SECTION
#------------------------------------------------------------------------------
 TCDS 2822
~CURVE INFORMATION
#MNEMO.UNIT         API CODE              CURVE DESCRIPTION
#------------------------------------------------------------------------------
 DEPTH.M                                 :   0     Depth
 TEMP.DegC                               :   1     Temperature
 COND.uS/cm                              :   2     Conductivity
 DELT.DegC                               :   3     Delta T
 DELC.uS/cm                              :   4     Delta C
 NGAM.API                                :   5     Natural Gamma
#------------------------------------------------------------------------------
~A  DEPTH     TEMP      COND      DELT      DELC      NGAM      
# ...
   202.30     15.08  49179.41      0.23     61.41      0.47 
   202.40     15.12  49193.90      0.24     70.07      0.47 
   202.50     15.16  49213.91      0.26     84.34      1.82 
   202.60     15.22  49230.46      0.28     93.65      2.24 
   202.70     15.25  49233.59      0.28     87.59      1.35 
   202.80     15.31  49235.22      0.33     81.43      1.29 
   202.90     15.36  49240.30      0.36     83.16      1.76 
   203.00     15.37  49245.82      0.37     83.38      0.47 
   203.10     15.41  49249.60      0.35     81.65      1.35 
   203.20     15.45  49250.36      0.38     77.22      2.24 
   203.30     15.48  49252.31      0.39     71.17      1.82 
   203.40     15.56  49258.47      0.44     62.08      1.41 
   203.50     15.65  49266.26      0.49     49.65      1.29 
   203.60     15.70  49274.59      0.48     43.38      1.24 
   203.70     15.73  49280.54      0.48     46.95      1.35 
   203.80     15.75  49283.46      0.43     48.25      0.47 
   203.90     15.75  49289.20      0.39     48.90      0.88 
   204.00     15.77  49292.01      0.39     46.19      1.35 
   204.10     15.76  49295.04      0.35     45.54      0.82 
   204.20     15.78  49300.23      0.33     50.85      1.29 
   204.30     15.80  49303.80      0.31     51.50      0.88 
   204.40     15.80  49310.08      0.22     50.74      0.41 
   204.50     15.80  49316.25      0.14     49.12      0.88 
   204.60     15.81  49321.44      0.11     46.31      1.88 
   204.70     15.81  49328.15      0.08     46.63      1.35 
   204.80     15.83  49335.29      0.08     50.42      0.41 
   204.90     15.83  49342.32      0.08     53.13      0.00 
   205.00     15.83  49347.09      0.07     54.86      0.47 
   205.10     15.83  49350.87      0.07     54.75      0.41 
   205.20     15.84  49353.15      0.05     51.94      0.88 
   205.30     15.85  49354.88      0.06     49.24      0.88 
   205.40     15.85  49356.72      0.05     45.02      0.82 
   205.50     15.84  49357.47      0.04     41.23      0.88 
   205.60     15.85  49358.45      0.04     36.14      1.76 
   205.70     15.86  49357.69      0.04     28.68      3.06 
   205.80     15.86  49355.20      0.03     19.05      2.71 
   205.90     15.85  49354.34      0.02     12.99      1.41 
   206.00     15.86  49354.77      0.02      6.82      0.94 
   206.10     15.85  49357.15      0.02      5.95      0.82 
   206.20     15.86  49360.72      0.03      8.12      2.18 
   206.30     15.87  49363.97      0.02      8.87      1.35 
   206.40     15.86  49367.65      0.02     10.93      0.88 
   206.50     15.86  49372.19      0.02     14.07      0.41 
   206.60     15.87  49372.95      0.01     13.85      0.47 
   206.70     15.87  49372.19      0.01     14.72      0.00 
   206.80     15.87  49371.33      0.01     15.58      1.29 
   206.90     15.87  49366.78      0.02     11.90      2.12 
   207.00     15.88  49363.21      0.02      8.44      0.88 
   207.10     15.89  49359.75      0.03      3.03      0.00 
   207.20     15.89  49355.42      0.03     -4.65      0.00 
   207.30     15.88  49352.61      0.01    -11.47      0.47 
   207.40     15.87  49350.33      0.01    -17.32      1.29 
   207.50     15.89  49348.28      0.02    -23.92      1.29 
   207.60     15.89  49345.14      0.03    -27.81      1.41 
   207.70     15.89  49343.84      0.02    -28.35      1.82 
   207.80     15.89  49340.48      0.02    -30.84      1.35 
   207.90     15.89  49337.24      0.02    -29.54      0.94 
   208.00     15.89  49332.48      0.02    -30.73      2.29 
   208.10     15.89  49328.15      0.00    -31.60      1.35 
   208.20     15.90  49323.17      0.01    -32.25      0.47 
   208.30     15.90  49318.73      0.02    -34.84      1.41 
   208.40     15.89  49314.51      0.02    -36.68      0.88 
   208.50     15.90  49313.54      0.01    -34.74      1.35 
   208.60     15.90  49310.84      0.00    -34.30      1.76 
   208.70     15.89  49308.02      0.01    -35.38      0.41 
   208.80     15.91  49305.64      0.01    -34.41      0.94 
   208.90     15.92  49303.05      0.03    -34.19      1.82 
   209.00     15.92  49301.31      0.03    -30.41      0.94 
   209.10     15.91  49299.80      0.01    -27.48      0.00 
   209.20     15.91  49297.64      0.01    -24.67      0.00 
   209.30     15.90  49292.98      0.01    -24.89      0.41 
   209.40     15.91  49286.06      0.02    -28.46      0.94 
   209.50     15.91  49281.62      0.01    -32.78      1.41 
   209.60     15.92  49282.38      0.02    -27.48      1.41 
   209.70     15.91  49280.43      0.01    -27.70      1.35 
   209.80     15.91  49279.13      0.00    -26.51      1.76 
   209.90     15.90  49277.84     -0.02    -26.07      2.24 
   210.00     15.92  49280.65      0.00    -21.31      1.35 
   210.10     15.92  49285.52      0.01    -14.93      0.47 
   210.20     15.92  49286.60      0.01    -11.04      0.94 
   210.30     15.93  49290.39      0.02     -2.27      1.41 
   210.40     15.91  49291.36     -0.01      7.14      0.94 
   210.50     15.91  49294.61      0.00     12.98      0.88 
   210.60     15.91  49296.01     -0.01     13.42      1.88 
   210.70     15.90  49297.85     -0.01     17.20      1.88 
   210.80     15.92  49300.23      0.01     21.10      1.82 
   210.90     15.92  49300.23      0.01     21.21      0.94 
   211.00     15.92  49299.47     -0.00     17.85      1.41 
   211.10     15.92  49298.50      0.00     12.23      0.94 
   211.20     15.91  49296.77     -0.00      8.87      0.47 
   211.30     15.91  49297.74     -0.01      7.79      0.41 
   211.40     15.92  49299.04      0.01      7.68      0.94 
   211.50     15.92  49299.69      0.01      5.41      0.88 
   211.60     15.92  49300.45      0.01      5.19      0.00 
   211.70     15.92  49299.80      0.02      1.62      0.88 
   211.80     15.92  49297.85     -0.00     -1.73      0.94 
   211.90     15.92  49295.26     -0.00     -5.19      1.35 
   212.00     15.92  49292.87      0.00     -7.47      0.88 
   212.10     15.93  49291.14      0.01     -7.36      0.94 
   212.20     15.93  49292.12      0.01     -4.65      0.47 
   212.30     15.92  49290.82      0.01     -7.79      0.41 
   212.40     15.92  49285.52      0.00    -14.39      0.41 
   212.50     15.92  49281.62      0.00    -18.83      2.18 
   212.60     15.92  49278.27      0.00    -22.18      1.35 
   212.70     15.92  49279.03      0.00    -20.56      0.82 
   212.80     15.93  49279.24      0.01    -17.74      2.65 
   212.90     15.94  49280.22      0.02    -15.04      2.71 
   213.00     15.94  49280.87      0.02    -11.14      0.94 
   213.10     15.93  49280.65      0.00    -10.49      0.88 
   213.20     15.92  49278.27     -0.01    -13.85      1.88 
   213.30     15.94  49275.13      0.02    -14.82      0.47 
   213.40     15.93  49269.29      0.01    -16.23      0.88 
   213.50     15.94  49260.96      0.02    -21.20      0.82 
   213.60     15.92  49248.52     -0.00    -29.75      1.29 
   213.70     15.94  49239.22      0.01    -39.27      1.76 
   213.80     15.93  49231.00      0.00    -47.70      1.29 
   213.90     15.95  49226.56      0.01    -52.68      0.47 
   214.00     15.93  49224.40     -0.00    -56.47      0.47 
   214.10     15.93  49218.56      0.01    -63.06      0.47 
   214.20     15.94  49215.96      0.02    -62.31      0.47 
   214.30     15.94  49209.04     -0.00    -66.09      0.94 
   214.40     15.93  49200.07     -0.00    -68.58      0.94 
   214.50     15.94  49196.61      0.01    -63.60      1.29 
   214.60     15.95  49195.63      0.03    -51.92      0.88 
   214.70     15.94  49198.23      0.01    -39.48      0.88 
   214.80     15.95  49202.55      0.02    -27.58      1.41 
   214.90     15.95  49203.31      0.00    -23.58      0.94 
   215.00     15.95  49207.53      0.02    -15.90      0.00 
   215.10     15.95  49213.15      0.01     -6.60      0.41 
   215.20     15.95  49218.02      0.01      2.05      0.41 
   215.30     15.95  49222.45      0.01     14.93      0.47 
   215.40     15.95  49225.05      0.02     25.85      0.88 
