#Written by Robertson Geologging WinLogger V1.0/406
~VERSION INFORMATION
#------------------------------------------------------------------------------
 VERS. 2.0 : CWLS LOG ASCII STANDARD - VERSION 2.0
 WRAP. NO  : ONE LINE PER DEPTH STEP
~WELL INFORMATION
#MNEM.UNIT         DATA                                DESCRIPTION OF MNEMONIC
#------------------------------------------------------------------------------
 STRT.M         40.0600                            :   START DEPTH
 STOP.M        498.0000                            :   STOP DEPTH
 STEP.M          0.0100                            :   STEP VALUE
 NULL.        -999.2500                            :   NULL VALUE
 COMP.    Coal Authority                           :   COMPANY NAME
 WELL.    Dawdon                                   :   WELL NAME
 FLD.     N/A                                      :   FIELD NAME
 LOC.     N/A                                      :   LOCATION
 PROV.    N/A                                      :   PROVINCE
 SRVC.    N/A                                      :   SERVICE COMPANY NAME
 DATE.    30 Sep 08                                :   DATE
 UWI.     N/A                                      :   UNIQUE WELL IDENTIFIER
~PARAMETER INFORMATION
#MNEMO.UNIT         VALUE                 DESCRIPTION OF MNEMONIC
#------------------------------------------------------------------------------
~OTHER INFORMATION SECTION
#------------------------------------------------------------------------------
 TCGS2822
~CURVE INFORMATION
#MNEMO.UNIT         API CODE              CURVE DESCRIPTION
#------------------------------------------------------------------------------
 DEPTH.M                                 :   0     Depth
 TEMP.DegC                               :   1     Temperature
 COND.uS/cm                              :   2     Conductivity
 DELT.DegC                               :   3     Delta T
 DELC.uS/cm                              :   4     Delta C
 NGAM.CPS                                :   5     Natural Gamma
#------------------------------------------------------------------------------
~A  DEPTH     TEMP      COND      DELT      DELC      NGAM      
# ...
    70.42     11.38   5614.29     -0.02      0.00      0.00 
    70.43     11.37   5605.97     -0.01      0.00      0.00 
    70.44     11.35   5614.29     -0.02      0.00      8.00 
    70.45     11.36   5614.29     -0.00      0.00      0.00 
    70.46     11.38   5614.29     -0.00      7.39      0.00 
    70.47     11.39   5605.97     -0.01     -8.31      0.00 
    70.48     11.43   5614.29      0.01      8.31      0.00 
    70.49     11.42   5614.29      0.02      0.00      0.00 
    70.50     11.40   5614.29      0.00      0.00      0.00 
    70.51     11.41   5605.97      0.02      0.00      0.00 
    70.52     11.38   5614.29      0.00      0.00      0.00 
    70.53     11.38   5614.29     -0.00      8.31      0.00 
    70.54     11.36   5614.29     -0.00      0.00      0.00 
    70.55     11.35   5605.97     -0.04     -8.31      0.00 
    70.56     11.36   5614.29     -0.04      8.31      0.00 
    70.57     11.37   5614.29     -0.04      0.00      7.00 
    70.58     11.39   5614.29     -0.04      8.31      0.00 
    70.59     11.39   5605.97     -0.01     -8.31      0.00 
    70.60     11.38   5614.29     -0.01      0.00      0.00 
    70.61     11.38   5614.29     -0.00      7.39      0.00 
    70.62     11.38   5614.29     -0.01      0.00      8.00 
    70.63     11.38   5606.90     -0.02     -7.39      0.00 
    70.64     11.40   5614.29      0.00      7.39      8.00 
    70.65     11.40   5614.29      0.00      0.00      0.00 
    70.66     11.41   5614.29      0.02      8.31      0.00 
    70.67     11.42   5606.90      0.04     -7.39      0.00 
    70.68     11.42   5614.29      0.03      0.00      0.00 
    70.69     11.41   5614.29      0.02      8.31      8.00 
    70.70     11.40   5614.29      0.00      0.00      0.00 
    70.71     11.38   5614.29     -0.01      0.00      0.00 
    70.72     11.38   5605.97     -0.01      0.00      0.00 
    70.73     11.39   5614.29      0.00      0.00      0.00 
    70.74     11.39   5614.29      0.01      7.39      0.00 
    70.75     11.40   5614.29      0.03      0.00      0.00 
    70.76     11.41   5605.97      0.03     -8.31      0.00 
    70.77     11.42   5614.29      0.03      8.31      0.00 
    70.78     11.42   5614.29      0.05      0.00      0.00 
    70.79     11.41   5614.29      0.03      0.00      0.00 
    70.80     11.41   5614.29      0.03      8.31      0.00 
    70.81     11.39   5605.97      0.01     -8.31      8.00 
    70.82     11.37   5614.29     -0.01      0.00      0.00 
    70.83     11.38   5614.29     -0.01      8.31      0.00 
    70.84     11.37   5614.29     -0.03      0.00      0.00 
    70.85     11.38   5614.29     -0.02      0.00      0.00 
    70.86     11.38   5606.90     -0.02      0.00      0.00 
    70.87     11.39   5614.29     -0.00      0.00      0.00 
    70.88     11.39   5614.29      0.01      0.00      0.00 
    70.89     11.37   5614.29     -0.01      8.31      0.00 
    70.90     11.39   5614.29      0.00      0.00      0.00 
    70.91     11.37   5614.29     -0.02      0.00      0.00 
    70.92     11.37   5605.97     -0.00      0.00      0.00 
    70.93     11.39   5614.29      0.03      0.00      0.00 
    70.94     11.40   5614.29      0.02      0.00      0.00 
    70.95     11.41   5605.97      0.02     -0.92      0.00 
    70.96     11.42   5614.29      0.01      0.00      0.00 
    70.97     11.41   5606.90     -0.01     -7.39      0.00 
    70.98     11.41   5614.29     -0.01      8.31      0.00 
    70.99     11.41   5614.29     -0.02      0.00      0.00 
    71.00     11.41   5614.29     -0.01      0.00      0.00 
    71.01     11.42   5614.29      0.01      7.39      0.00 
    71.02     11.41   5614.29     -0.00      0.00      0.00 
    71.03     11.41   5605.97      0.02     -8.31      0.00 
    71.04     11.39   5614.29      0.01      8.31      0.00 
    71.05     11.39   5614.29     -0.02      0.00      0.00 
    71.06     11.40   5614.29     -0.01      0.00      0.00 
    71.07     11.41   5614.29     -0.00      8.31      0.00 
    71.08     11.41   5614.29     -0.01      0.00      0.00 
    71.09     11.40   5606.90      0.01      0.92      0.00 
    71.10     11.41   5614.29      0.02      8.31      0.00 
    71.11     11.39   5614.29     -0.02      0.00      0.00 
    71.12     11.38   5614.29     -0.02      0.00      0.00 
    71.13     11.38   5614.29     -0.01      0.00      0.00 
    71.14     11.38   5614.29     -0.03      7.39      0.00 
    71.15     11.38   5605.97      0.00     -8.31      0.00 
    71.16     11.39   5614.29      0.00      0.00      0.00 
    71.17     11.39   5614.29      0.00      8.31      0.00 
    71.18     11.39   5614.29      0.02      0.00      0.00 
    71.19     11.41   5614.29      0.03      0.00      0.00 
    71.20     11.42   5614.29      0.04      8.31      0.00 
    71.21     11.43   5614.29      0.05      0.00      0.00 
    71.22     11.43   5605.97      0.03     -8.31      0.00 
    71.23     11.42   5614.29      0.01      0.00      0.00 
    71.24     11.43   5614.29      0.02      8.31      8.00 
    71.25     11.40   5614.29     -0.01      0.00      0.00 
    71.26     11.39   5614.29     -0.02      0.00      8.00 
    71.27     11.37   5614.29     -0.04      7.39      0.00 
    71.28     11.36   5614.29     -0.05      0.00      0.00 
    71.29     11.39   5605.97     -0.01     -8.31      0.00 
    71.30     11.39   5614.29      0.00      0.00      0.00 
    71.31     11.41   5614.29      0.03      8.31      0.00 
    71.32     11.42   5614.29      0.03      0.00      8.00 
    71.33     11.40   5614.29      0.00      0.00      0.00 
    71.34     11.39   5614.29      0.01      0.00      0.00 
    71.35     11.39   5614.29      0.01      8.31      0.00 
    71.36     11.39   5614.29      0.01      0.00      8.00 
    71.37     11.40   5605.97      0.02     -8.31      0.00 
    71.38     11.41   5614.29      0.02      8.31      0.00 
    71.39     11.41   5614.29      0.00      0.00      0.00 
    71.40     11.41   5614.29      0.03      0.00      0.00 
    71.41     11.40   5614.29      0.02      0.00      0.00 
    71.42     11.40   5614.29      0.02      8.31      0.00 
    71.43     11.40   5614.29      0.06      0.00      0.00 
    71.44     11.39   5614.29      0.02      0.00      0.00 
    71.45     11.40   5605.97      0.02     -8.31      0.00 
    71.46     11.39   5614.29      0.00      8.31      0.00 
    71.47     11.40   5614.29     -0.03      0.00      0.00 
    71.48     11.39   5614.29     -0.03      0.00      0.00 
    71.49     11.37   5614.29     -0.03      0.00      0.00 
    71.50     11.38   5614.29     -0.03      8.31      8.00 
    71.51     11.38   5614.29     -0.00      0.00      7.00 
    71.52     11.40   5614.29      0.02      0.00      0.00 
    71.53     11.43   5614.29      0.06      0.00      0.00 
    71.54     11.43   5605.97      0.08      0.00      0.00 
    71.55     11.42   5614.29      0.06      0.00      0.00 
    71.56     11.40   5614.29      0.03      0.00      0.00 
    71.57     11.39   5614.29      0.00      0.00      0.00 
    71.58     11.39   5614.29     -0.00      8.31      0.00 
    71.59     11.39   5614.29      0.01      0.00      0.00 
    71.60     11.40   5614.29      0.02      0.00      8.00 
    71.61     11.41   5614.29      0.03      0.00      0.00 
    71.62     11.41   5614.29      0.03      7.39      0.00 
    71.63     11.42   5614.29      0.02      0.00      0.00 
    71.64     11.41   5614.29      0.01      0.00      0.00 
    71.65     11.41   5605.97      0.00     -8.31      0.00 
    71.66     11.41   5614.29     -0.01      7.39      0.00 
    71.67     11.39   5614.29     -0.02      0.00      0.00 
    71.68     11.39   5614.29     -0.01      0.00      8.00 
    71.69     11.37   5614.29     -0.03      0.00      8.00 
    71.70     11.35   5614.29     -0.03      0.00      0.00 
    71.71     11.34   5614.29     -0.04      8.31      0.00 
    71.72     11.35   5614.29     -0.04      0.00      0.00 
    71.73     11.37   5614.29     -0.02      0.00      0.00 
