#Written by Robertson Geologging WinLogger V1.0/370
~VERSION INFORMATION
#------------------------------------------------------------------------------
 VERS. 2.0 : CWLS LOG ASCII STANDARD - VERSION 2.0
 WRAP. NO  : ONE LINE PER DEPTH STEP
~WELL INFORMATION
#MNEM.UNIT         DATA                                DESCRIPTION OF MNEMONIC
#------------------------------------------------------------------------------
 STRT.M         37.0600                            :   START DEPTH
 STOP.M        510.0000                            :   STOP DEPTH
 STEP.M          0.0100                            :   STEP VALUE
 NULL.        -999.2500                            :   NULL VALUE
 COMP.    WHITE YOUN GREEN                         :   COMPANY NAME
 WELL.    DAWDON SHAFT                             :   WELL NAME
 FLD.     DAWDON                                   :   FIELD NAME
 LOC.     N/A                                      :   LOCATION
 PROV.    N/A                                      :   PROVINCE
 SRVC.    N/A                                      :   SERVICE COMPANY NAME
 DATE.    13 Dec 06                                :   DATE
 UWI.     N/A                                      :   UNIQUE WELL IDENTIFIER
~PARAMETER INFORMATION
#MNEMO.UNIT         VALUE                 DESCRIPTION OF MNEMONIC
#------------------------------------------------------------------------------
~OTHER INFORMATION SECTION
#------------------------------------------------------------------------------
 lLOGGING DOWN
~CURVE INFORMATION
#MNEMO.UNIT         API CODE              CURVE DESCRIPTION
#------------------------------------------------------------------------------
 DEPTH.M                                 :   0     Depth
 TEMP.DegC                               :   1     Temperature
 CN25.mS/cm                              :   2     Conductivity@25DegC
 COND.mS/cm                              :   3     Conductivity
 DELT.DegC                               :   4     Delta T
 DELC.mS/cm                              :   5     Delta C
 NGAM.CPS                                :   6     Natural Gamma
#------------------------------------------------------------------------------
~A  DEPTH     TEMP      CN25      COND      DELT      DELC      NGAM      
# ...
   446.12     21.53     80.26     78.78      0.01      0.01      1.24 
   446.13     21.53     80.25     78.78      0.01     -0.00      1.59 
   446.14     21.53     80.24     78.78      0.01     -0.01      1.18 
   446.15     21.53     80.23     78.78      0.01     -0.00      1.18 
   446.16     21.54     80.22     78.78      0.01     -0.01      1.18 
   446.17     21.54     80.21     78.78      0.02     -0.03      1.18 
   446.18     21.54     80.20     78.78      0.02     -0.04      1.18 
   446.19     21.55     80.20     78.78      0.02     -0.04      1.18 
   446.20     21.55     80.19     78.78      0.02     -0.05      1.18 
   446.21     21.55     80.19     78.78      0.02     -0.05      1.18 
   446.22     21.55     80.19     78.78      0.02     -0.04      1.18 
   446.23     21.55     80.20     78.78      0.02     -0.03      1.18 
   446.24     21.54     80.20     78.78      0.01     -0.02      1.59 
   446.25     21.54     80.21     78.78      0.01     -0.01      1.18 
   446.26     21.54     80.21     78.78      0.00     -0.00      1.18 
   446.27     21.54     80.22     78.78      0.00      0.01      1.18 
   446.28     21.54     80.23     78.78     -0.00      0.02      1.18 
   446.29     21.53     80.23     78.78     -0.00      0.02      1.18 
   446.30     21.53     80.25     78.78     -0.00      0.03      1.24 
   446.31     21.52     80.26     78.78     -0.01      0.03      1.24 
   446.32     21.52     80.27     78.78     -0.01      0.05      1.65 
   446.33     21.52     80.28     78.78     -0.02      0.07      1.65 
   446.34     21.52     80.27     78.78     -0.02      0.06      2.06 
   446.35     21.52     80.27     78.78     -0.02      0.06      2.47 
   446.36     21.52     80.26     78.78     -0.01      0.05      2.06 
   446.37     21.52     80.27     78.78     -0.01      0.05      2.47 
   446.38     21.52     80.27     78.78     -0.01      0.04      2.47 
   446.39     21.52     80.27     78.78     -0.01      0.04      2.88 
   446.40     21.52     80.27     78.78     -0.01      0.05      2.88 
   446.41     21.53     80.26     78.78     -0.01      0.03      2.47 
   446.42     21.53     80.26     78.78     -0.00      0.03      2.47 
   446.43     21.53     80.25     78.78      0.00      0.01      2.47 
   446.44     21.53     80.25     78.78      0.01     -0.01      2.47 
   446.45     21.53     80.26     78.78      0.01      0.00      2.88 
   446.46     21.53     80.26     78.78      0.00      0.01      2.88 
   446.47     21.52     80.28     78.78     -0.00      0.02      2.47 
   446.48     21.52     80.28     78.78     -0.00      0.03      2.88 
   446.49     21.52     80.28     78.78     -0.00      0.02      2.47 
   446.50     21.52     80.28     78.78     -0.00      0.02      2.47 
   446.51     21.52     80.28     78.78     -0.00      0.01      2.06 
   446.52     21.52     80.27     78.78      0.00      0.01      1.65 
   446.53     21.52     80.27     78.78      0.00      0.00      1.65 
   446.54     21.52     80.26     78.78      0.00      0.00      1.24 
   446.55     21.53     80.26     78.78      0.00      0.00      1.24 
   446.56     21.53     80.25     78.78      0.00     -0.01      0.82 
   446.57     21.53     80.24     78.78      0.01     -0.02      1.65 
   446.58     21.53     80.23     78.78      0.01     -0.02      1.65 
   446.59     21.54     80.23     78.78      0.01     -0.03      1.65 
   446.60     21.54     80.22     78.78      0.01     -0.03      2.06 
   446.61     21.54     80.22     78.78      0.01     -0.02      2.06 
   446.62     21.54     80.21     78.78      0.01     -0.02      1.65 
   446.63     21.54     80.22     78.78      0.00     -0.01      1.65 
   446.64     21.54     80.22     78.78      0.00      0.01      1.65 
   446.65     21.53     80.24     78.78     -0.00      0.02      1.24 
   446.66     21.53     80.25     78.78     -0.01      0.03      1.24 
   446.67     21.53     80.26     78.78     -0.01      0.04      1.24 
   446.68     21.53     80.26     78.78     -0.01      0.05      1.24 
   446.69     21.52     80.27     78.78     -0.01      0.05      1.24 
   446.70     21.52     80.27     78.79     -0.02      0.06      1.24 
   446.71     21.52     80.28     78.78     -0.02      0.07      1.24 
   446.72     21.52     80.29     78.78     -0.02      0.06      1.65 
   446.73     21.52     80.29     78.78     -0.01      0.05      2.06 
   446.74     21.52     80.28     78.78     -0.01      0.04      1.59 
   446.75     21.52     80.27     78.78     -0.00      0.02      2.00 
   446.76     21.53     80.25     78.78      0.00      0.01      2.00 
   446.77     21.54     80.24     78.78      0.01     -0.01      1.59 
   446.78     21.54     80.22     78.78      0.01     -0.01      1.59 
   446.79     21.54     80.22     78.78      0.01     -0.02      2.29 
   446.80     21.54     80.21     78.78      0.01     -0.03      2.29 
   446.81     21.55     80.20     78.78      0.01     -0.04      2.29 
   446.82     21.55     80.19     78.78      0.01     -0.04      2.29 
   446.83     21.55     80.20     78.78      0.01     -0.04      2.71 
   446.84     21.54     80.20     78.78      0.01     -0.03      2.71 
   446.85     21.54     80.21     78.78      0.01     -0.03      2.71 
   446.86     21.54     80.22     78.78      0.01     -0.02      2.71 
   446.87     21.54     80.22     78.78      0.01     -0.02      2.71 
   446.88     21.54     80.22     78.78      0.01     -0.02      2.71 
   446.89     21.54     80.23     78.78      0.01     -0.02      2.29 
   446.90     21.53     80.23     78.78      0.01     -0.02      1.88 
   446.91     21.53     80.24     78.78      0.01     -0.02      1.53 
   446.92     21.53     80.23     78.78      0.01     -0.02      1.12 
   446.93     21.54     80.23     78.78      0.01     -0.03      1.12 
   446.94     21.54     80.22     78.78      0.01     -0.03      1.53 
   446.95     21.54     80.22     78.78      0.01     -0.03      1.53 
   446.96     21.54     80.22     78.78      0.01     -0.02      0.82 
   446.97     21.54     80.23     78.78      0.01     -0.01      0.82 
   446.98     21.54     80.23     78.78      0.00     -0.00      0.82 
   446.99     21.54     80.23     78.78      0.00     -0.01      0.82 
   447.00     21.54     80.23     78.78      0.00     -0.00      1.12 
   447.01     21.54     80.23     78.78      0.00     -0.01      1.12 
   447.02     21.54     80.23     78.78      0.00     -0.01      1.12 
   447.03     21.53     80.23     78.78      0.01     -0.01      1.53 
   447.04     21.53     80.23     78.78      0.01     -0.02      1.53 
   447.05     21.53     80.23     78.78      0.01     -0.03      1.88 
   447.06     21.54     80.22     78.78      0.01     -0.03      1.88 
   447.07     21.54     80.22     78.78      0.01     -0.04      1.88 
   447.08     21.54     80.22     78.78      0.01     -0.04      1.88 
   447.09     21.54     80.22     78.78      0.01     -0.04      1.88 
   447.10     21.54     80.23     78.78      0.01     -0.03      1.88 
   447.11     21.54     80.22     78.78      0.01     -0.04      1.47 
   447.12     21.54     80.21     78.78      0.01     -0.04      1.47 
   447.13     21.54     80.20     78.78      0.01     -0.04      1.47 
   447.14     21.54     80.20     78.78      0.01     -0.03      1.82 
   447.15     21.54     80.21     78.78      0.00     -0.01      1.82 
   447.16     21.54     80.22     78.78     -0.01      0.01      1.82 
   447.17     21.53     80.24     78.78     -0.01      0.03      1.12 
   447.18     21.53     80.24     78.78     -0.02      0.05      1.12 
   447.19     21.53     80.24     78.78     -0.02      0.05      1.12 
   447.20     21.53     80.23     78.77     -0.02      0.04      0.71 
   447.21     21.53     80.23     78.78     -0.01      0.04      0.71 
   447.22     21.53     80.23     78.77     -0.01      0.03      0.35 
   447.23     21.53     80.24     78.78     -0.01      0.04      0.35 
   447.24     21.53     80.24     78.78     -0.01      0.03      0.76 
