#Written by Robertson Geologging WinLogger V1.0/406
~VERSION INFORMATION
#------------------------------------------------------------------------------
 VERS. 2.0 : CWLS LOG ASCII STANDARD - VERSION 2.0
 WRAP. NO  : ONE LINE PER DEPTH STEP
~WELL INFORMATION
#MNEM.UNIT         DATA                                DESCRIPTION OF MNEMONIC
#------------------------------------------------------------------------------
 STRT.M         40.0600                            :   START DEPTH
 STOP.M        498.0000                            :   STOP DEPTH
 STEP.M          0.0100                            :   STEP VALUE
 NULL.        -999.2500                            :   NULL VALUE
 COMP.    Coal Authority                           :   COMPANY NAME
 WELL.    Dawdon                                   :   WELL NAME
 FLD.     N/A                                      :   FIELD NAME
 LOC.     N/A                                      :   LOCATION
 PROV.    N/A                                      :   PROVINCE
 SRVC.    N/A                                      :   SERVICE COMPANY NAME
 DATE.    30 Sep 08                                :   DATE
 UWI.     N/A                                      :   UNIQUE WELL IDENTIFIER
~PARAMETER INFORMATION
#MNEMO.UNIT         VALUE                 DESCRIPTION OF MNEMONIC
#------------------------------------------------------------------------------
~OTHER INFORMATION SECTION
#------------------------------------------------------------------------------
 TCGS2822
~CURVE INFORMATION
#MNEMO.UNIT         API CODE              CURVE DESCRIPTION
#------------------------------------------------------------------------------
 DEPTH.M                                 :   0     Depth
 TEMP.DegC                               :   1     Temperature
 COND.uS/cm                              :   2     Conductivity
 DELT.DegC                               :   3     Delta T
 DELC.uS/cm                              :   4     Delta C
 NGAM.CPS                                :   5     Natural Gamma
#------------------------------------------------------------------------------
~A  DEPTH     TEMP      COND      DELT      DELC      NGAM      
# ...
   222.22     15.71  43710.91      0.00      3.48      0.00 
   222.23     15.70  43707.43     -0.01      0.00      0.00 
   222.24     15.69  43716.71     -0.02     13.91      0.00 
   222.25     15.69  43707.43     -0.01      0.00      0.00 
   222.26     15.71  43716.71      0.00      9.28      0.00 
   222.27     15.72  43710.91      0.01      3.48      0.00 
   222.28     15.72  43707.43      0.00      0.00      0.00 
   222.29     15.72  43707.43     -0.00      4.64      0.00 
   222.30     15.72  43716.71      0.00      9.28      8.00 
   222.31     15.71  43707.43      0.02      0.00      0.00 
   222.32     15.73  43707.43      0.04     10.43      0.00 
   222.33     15.73  43702.80      0.04     -4.64      0.00 
   222.34     15.72  43716.71      0.03      9.28      0.00 
   222.35     15.72  43707.43      0.01      4.64      0.00 
   222.36     15.70  43716.71     -0.01      9.28      0.00 
   222.37     15.70  43707.43     -0.01      0.00      0.00 
   222.38     15.70  43716.71     -0.01      9.28      0.00 
   222.39     15.71  43702.80      0.00     -4.64      7.00 
   222.40     15.72  43716.71      0.01      5.80      0.00 
   222.41     15.72  43707.43      0.01      0.00      0.00 
   222.42     15.72  43716.71      0.02      9.28      8.00 
   222.43     15.71  43707.43      0.02      4.64      0.00 
   222.44     15.71  43710.91      0.01      9.28      0.00 
   222.45     15.71  43707.43      0.00     10.43      0.00 
   222.46     15.70  43707.43     -0.01     -3.48      0.00 
   222.47     15.71  43710.91      0.00      3.48      0.00 
   222.48     15.71  43707.43     -0.01      0.00      0.00 
   222.49     15.71  43716.71     -0.02     13.91      0.00 
   222.50     15.71  43716.71     -0.03      9.28      0.00 
   222.51     15.71  43707.43     -0.04      0.00      0.00 
   222.52     15.71  43707.43     -0.01     -3.48      0.00 
   222.53     15.72  43710.91      0.00      3.48      0.00 
   222.54     15.71  43716.71      0.00      9.28      0.00 
   222.55     15.70  43707.43      0.00      0.00      0.00 
   222.56     15.71  43716.71      0.00      9.28      0.00 
   222.57     15.72  43702.80      0.00      8.12      0.00 
   222.58     15.73  43707.43      0.01      0.00      0.00 
   222.59     15.73  43716.71     -0.00      9.28      8.00 
   222.60     15.74  43707.43      0.01      0.00      0.00 
   222.61     15.73  43719.03      0.01     11.59      0.00 
   222.62     15.73  43707.43      0.00      0.00      0.00 
   222.63     15.73  43707.43      0.00     -3.48      0.00 
   222.64     15.72  43716.71     -0.00      9.28      0.00 
   222.65     15.72  43710.91     -0.00     -2.32      0.00 
   222.66     15.71  43716.71     -0.01     19.71      0.00 
   222.67     15.71  43716.71     -0.01      9.28      0.00 
   222.68     15.72  43707.43      0.00     -3.48      0.00 
   222.69     15.74  43716.71      0.01     19.71      0.00 
   222.70     15.73  43702.80      0.00     -4.64      7.00 
   222.71     15.72  43707.43     -0.01     -9.28      0.00 
   222.72     15.71  43716.71     -0.02      9.28      0.00 
   222.73     15.71  43716.71     -0.01      9.28      0.00 
   222.74     15.71  43710.91     -0.02      8.12      0.00 
   222.75     15.73  43707.43      0.01     -9.28      0.00 
   222.76     15.72  43716.71      0.01      9.28      0.00 
   222.77     15.72  43716.71     -0.00      9.28      0.00 
   222.78     15.73  43707.43      0.00      0.00      8.00 
   222.79     15.73  43716.71      0.00      5.80      0.00 
   222.80     15.71  43710.91      0.00      3.48      7.00 
   222.81     15.71  43716.71      0.00      0.00      8.00 
   222.82     15.71  43697.00     -0.00      0.00      0.00 
   222.83     15.71  43716.71     -0.01      9.28      0.00 
   222.84     15.73  43716.71      0.01      5.80      0.00 
   222.85     15.73  43707.43      0.01      0.00      0.00 
   222.86     15.73  43719.03      0.02     11.59      0.00 
   222.87     15.72  43707.43      0.00     -9.28      0.00 
   222.88     15.70  43716.71     -0.02      5.80      0.00 
   222.89     15.71  43716.71     -0.01      9.28      0.00 
   222.90     15.71  43707.43     -0.02      0.00      0.00 
   222.91     15.73  43716.71      0.00      9.28      0.00 
   222.92     15.73  43710.91     -0.00     -5.80      0.00 
   222.93     15.72  43716.71     -0.02     13.91      0.00 
   222.94     15.72  43697.00     -0.00    -10.43      0.00 
   222.95     15.71  43716.71     -0.01      9.28      0.00 
   222.96     15.72  43716.71      0.00      5.80      8.00 
   222.97     15.73  43716.71      0.01      9.28      0.00 
   222.98     15.73  43707.43      0.01     -3.48      8.00 
   222.99     15.73  43710.91      0.01     -2.32      0.00 
   223.00     15.72  43716.71      0.01      9.28      0.00 
   223.01     15.71  43716.71      0.00      5.80      0.00 
   223.02     15.70  43716.71     -0.01      0.00      0.00 
   223.03     15.71  43707.43     -0.00      0.00      0.00 
   223.04     15.71  43719.03      0.00     11.59      0.00 
   223.05     15.71  43707.43      0.00      0.00      0.00 
   223.06     15.72  43716.71      0.00      0.00      0.00 
   223.07     15.71  43707.43     -0.01     10.43      0.00 
   223.08     15.72  43710.91     -0.00      0.00      7.00 
   223.09     15.71  43716.71      0.00      0.00      0.00 
   223.10     15.72  43716.71      0.01      9.28      0.00 
   223.11     15.71  43716.71      0.01      9.28      0.00 
   223.12     15.71  43707.43      0.01      0.00      0.00 
   223.13     15.70  43719.03      0.00      2.32      0.00 
   223.14     15.69  43716.71     -0.02      9.28      0.00 
   223.15     15.70  43707.43     -0.02     -9.28      0.00 
   223.16     15.71  43716.71     -0.01      9.28      0.00 
   223.17     15.72  43710.91     -0.00      3.48      7.00 
   223.18     15.72  43716.71      0.00      0.00      0.00 
   223.19     15.71  43707.43     -0.00     10.43      0.00 
   223.20     15.71  43716.71     -0.01      9.28      8.00 
   223.21     15.71  43716.71      0.00      5.80      8.00 
   223.22     15.71  43707.43      0.01      0.00      8.00 
   223.23     15.72  43716.71      0.03      0.00      0.00 
   223.24     15.73  43716.71      0.04      9.28      0.00 
   223.25     15.73  43716.71      0.02      0.00      8.00 
   223.26     15.73  43710.91      0.00      0.00      0.00 
   223.27     15.73  43716.71      0.00      9.28      0.00 
   223.28     15.71  43716.71     -0.00      9.28      0.00 
   223.29     15.70  43707.43     -0.01     -9.28      0.00 
   223.30     15.69  43716.71     -0.02      9.28      0.00 
   223.31     15.70  43716.71     -0.03      9.28      8.00 
   223.32     15.71  43707.43     -0.01      4.64      0.00 
   223.33     15.73  43716.71      0.01      0.00      0.00 
   223.34     15.74  43716.71      0.02      9.28      0.00 
   223.35     15.73  43707.43      0.03     -9.28      0.00 
   223.36     15.72  43716.71      0.02      9.28      0.00 
   223.37     15.71  43716.71      0.00      0.00      0.00 
   223.38     15.70  43716.71     -0.01     13.91      0.00 
   223.39     15.69  43716.71     -0.03      0.00      0.00 
   223.40     15.70  43707.43     -0.01      0.00      0.00 
   223.41     15.72  43716.71      0.00      0.00      0.00 
   223.42     15.74  43716.71      0.02      9.28      8.00 
   223.43     15.74  43719.03      0.03      8.12      0.00 
   223.44     15.73  43697.00      0.02    -10.43      0.00 
   223.45     15.73  43716.71      0.03      9.28      8.00 
   223.46     15.72  43716.71      0.01      5.80      0.00 
   223.47     15.73  43719.03      0.02     11.59      7.00 
   223.48     15.72  43707.43      0.01     -9.28      0.00 
   223.49     15.72  43716.71      0.01      0.00      0.00 
   223.50     15.70  43716.71     -0.00      9.28      0.00 
   223.51     15.71  43719.03     -0.00     11.59      0.00 
   223.52     15.72  43716.71      0.00      5.80      0.00 
   223.53     15.71  43716.71      0.00      0.00      0.00 
