#Written by Robertson Geologging WinLogger V1.0/312
~VERSION INFORMATION
#------------------------------------------------------------------------------
 VERS. 2.0 : CWLS LOG ASCII STANDARD - VERSION 2.0
 WRAP. NO  : ONE LINE PER DEPTH STEP
~WELL INFORMATION
#MNEM.UNIT         DATA                                DESCRIPTION OF MNEMONIC
#------------------------------------------------------------------------------
 STRT.M         56.2000                            :   START DEPTH
 STOP.M        520.0000                            :   STOP DEPTH
 STEP.M          0.1000                            :   STEP VALUE
 NULL.        -999.2500                            :   NULL VALUE
 COMP.    I.M..C.                                  :   COMPANY NAME
 WELL.    Dawdon Shaft                             :   WELL NAME
 FLD.     Dawdon                                   :   FIELD NAME
 LOC.     N/A                                      :   LOCATION
 PROV.    N/A                                      :   PROVINCE
 SRVC.    N/A                                      :   SERVICE COMPANY NAME
 DATE.    30 Jan 04                                :   DATE
 UWI.     N/A                                      :   UNIQUE WELL IDENTIFIER
~PARAMETER INFORMATION
#MNEMO.UNIT         VALUE                 DESCRIPTION OF MNEMONIC
#------------------------------------------------------------------------------
~OTHER INFORMATION SECTION
#------------------------------------------------------------------------------
 TCGX extended range 1365
~CURVE INFORMATION
#MNEMO.UNIT         API CODE              CURVE DESCRIPTION
#------------------------------------------------------------------------------
 DEPTH.M                                 :   0     Depth
 COND.mS/cm                              :   1     Conductivity
 TEMP.DegC                               :   2     Temperature
 C@25.mS/cm                              :   3     Conductivity @25Deg
 DELT.DegC                               :   4     Delta T
 DC@25.mS/cm                             :   5     Delta C @25Deg
 OUT4.CPS                                :   6     Natural Gamma
#------------------------------------------------------------------------------
~A  DEPTH     COND      TEMP      C@25      DELT      DC@25     OUT4      
# ...
   270.90     57.05     16.09     71.49     -0.00      0.02      1.24 
   271.00     57.04     16.10     71.45      0.01     -0.03      1.24 
   271.10     57.05     16.09     71.48      0.01     -0.03      0.82 
   271.20     57.05     16.10     71.48      0.00     -0.01      1.24 
   271.30     57.04     16.11     71.45      0.01     -0.02      0.41 
   271.40     57.05     16.10     71.45      0.01     -0.02      2.06 
   271.50     57.05     16.10     71.46      0.00     -0.01      2.00 
   271.60     57.05     16.10     71.48      0.00     -0.01      1.18 
   271.70     57.05     16.10     71.46      0.00     -0.00      1.24 
   271.80     57.05     16.09     71.48     -0.00      0.01      1.24 
   271.90     57.05     16.10     71.46      0.01     -0.03      1.18 
   272.00     57.05     16.10     71.48     -0.00      0.01      1.18 
   272.10     57.04     16.10     71.45      0.01     -0.03      0.82 
   272.20     57.05     16.09     71.49     -0.01      0.02      1.24 
   272.30     57.05     16.10     71.45     -0.00      0.01      1.65 
   272.40     57.05     16.10     71.48     -0.01      0.02      0.82 
   272.50     57.05     16.11     71.45      0.01     -0.02      1.18 
   272.60     57.05     16.10     71.47      0.00     -0.01      0.82 
   272.70     57.05     16.11     71.45      0.00     -0.00      0.82 
   272.80     57.05     16.10     71.47      0.01     -0.01      1.24 
   272.90     57.05     16.10     71.46     -0.00      0.00      1.24 
   273.00     57.05     16.10     71.47     -0.00      0.01      1.65 
   273.10     57.05     16.11     71.43      0.01     -0.02      1.24 
   273.20     57.05     16.10     71.47      0.01     -0.02      2.06 
   273.30     57.05     16.10     71.45     -0.00      0.01      2.47 
   273.40     57.05     16.10     71.49     -0.00      0.00      1.65 
   273.50     57.05     16.10     71.46     -0.01      0.02      1.18 
   273.60     57.05     16.10     71.47      0.00     -0.01      1.53 
   273.70     57.05     16.10     71.47     -0.01      0.02      1.24 
   273.80     57.05     16.10     71.47      0.00     -0.01      0.82 
   273.90     57.05     16.09     71.50     -0.01      0.04      0.41 
   274.00     57.05     16.10     71.46     -0.00     -0.00      0.82 
   274.10     57.05     16.11     71.45     -0.00      0.01      2.06 
   274.20     57.05     16.11     71.44      0.01     -0.02      2.82 
   274.30     57.05     16.11     71.43      0.01     -0.04      0.41 
   274.40     57.05     16.10     71.46      0.00     -0.01      0.41 
   274.50     57.05     16.10     71.48     -0.00      0.02      0.41 
   274.60     57.05     16.09     71.49     -0.01      0.03      0.41 
   274.70     57.05     16.09     71.50     -0.01      0.02      0.41 
   274.80     57.05     16.10     71.47      0.00     -0.01      0.82 
   274.90     57.05     16.10     71.46      0.01     -0.02      0.82 
   275.00     57.05     16.09     71.49     -0.01      0.03      0.00 
   275.10     57.05     16.10     71.47     -0.01      0.02      1.12 
   275.20     57.05     16.10     71.46     -0.01      0.02      1.59 
   275.30     57.05     16.10     71.46     -0.01      0.02      0.76 
   275.40     57.05     16.10     71.48     -0.00      0.01      0.41 
   275.50     57.05     16.10     71.46      0.01     -0.02      0.41 
   275.60     57.05     16.10     71.46      0.01     -0.03      0.76 
   275.70     57.05     16.10     71.46      0.01     -0.04      0.76 
   275.80     57.05     16.11     71.45      0.01     -0.01      0.00 
   275.90     57.05     16.10     71.47      0.00     -0.01      0.35 
   276.00     57.05     16.10     71.46      0.01     -0.03      0.76 
   276.10     57.05     16.11     71.45      0.01     -0.02      0.41 
   276.20     57.05     16.10     71.48     -0.01      0.03      0.41 
   276.30     57.05     16.11     71.45      0.00     -0.01      0.41 
   276.40     57.05     16.09     71.50     -0.01      0.02      2.47 
   276.50     57.05     16.10     71.48     -0.00      0.02      2.06 
   276.60     57.05     16.10     71.46      0.00     -0.00      1.18 
   276.70     57.05     16.10     71.47     -0.01      0.01      1.12 
   276.80     57.05     16.11     71.44      0.01     -0.02      0.35 
   276.90     57.05     16.10     71.47      0.00      0.01      0.76 
   277.00     57.05     16.10     71.48     -0.01      0.01      0.71 
   277.10     57.05     16.11     71.45      0.00     -0.00      2.71 
   277.20     57.05     16.10     71.46      0.01     -0.02      2.35 
   277.30     57.05     16.10     71.47     -0.01      0.03      0.82 
   277.40     57.05     16.10     71.47      0.01     -0.05      0.82 
   277.50     57.05     16.10     71.47     -0.00      0.00      0.82 
   277.60     57.06     16.10     71.47     -0.00      0.01      1.59 
   277.70     57.05     16.10     71.47     -0.00      0.01      1.59 
   277.80     57.05     16.10     71.47     -0.01      0.03      1.65 
   277.90     57.05     16.10     71.46      0.01     -0.02      1.24 
   278.00     57.05     16.10     71.46      0.00      0.00      1.65 
   278.10     57.05     16.10     71.48     -0.01      0.01      1.24 
   278.20     57.05     16.11     71.44      0.00     -0.02      0.82 
   278.30     57.05     16.10     71.47     -0.00      0.01      1.94 
   278.40     57.05     16.10     71.47     -0.00      0.00      2.29 
   278.50     57.05     16.10     71.47      0.00     -0.01      0.76 
   278.60     57.05     16.10     71.48     -0.01      0.02      1.24 
   278.70     57.05     16.10     71.47      0.00     -0.01      1.94 
   278.80     57.05     16.10     71.46     -0.00      0.01      1.18 
   278.90     57.05     16.10     71.48     -0.00      0.01      2.06 
   279.00     57.05     16.10     71.45      0.00     -0.01      2.06 
   279.10     57.05     16.10     71.47      0.00     -0.00      1.59 
   279.20     57.05     16.09     71.48     -0.01      0.04      1.65 
   279.30     57.05     16.09     71.51     -0.01      0.03      2.88 
   279.40     57.05     16.10     71.46      0.00     -0.00      2.88 
   279.50     57.06     16.10     71.48     -0.00      0.01      1.18 
   279.60     57.05     16.10     71.46      0.01     -0.02      0.35 
   279.70     57.05     16.10     71.46      0.00     -0.01      0.82 
   279.80     57.06     16.10     71.48     -0.00      0.02      0.82 
   279.90     57.06     16.09     71.49     -0.01      0.03      1.18 
   280.00     57.06     16.10     71.48     -0.00      0.02      1.24 
   280.10     57.05     16.10     71.48     -0.00      0.01      1.53 
   280.20     57.06     16.10     71.49      0.00     -0.00      0.76 
   280.30     57.06     16.09     71.50      0.00     -0.00      1.53 
   280.40     57.06     16.11     71.46      0.00     -0.00      2.82 
   280.50     57.06     16.10     71.48      0.00     -0.01      4.06 
   280.60     57.07     16.10     71.48     -0.00      0.02      2.00 
   280.70     57.08     16.10     71.50     -0.00      0.04      0.00 
   280.80     57.08     16.11     71.49      0.01      0.01      1.59 
   280.90     57.10     16.10     71.53      0.00      0.03      2.00 
   281.00     57.11     16.10     71.54     -0.00      0.07      0.41 
   281.10     57.13     16.10     71.55      0.01      0.09      0.76 
   281.20     57.17     16.10     71.60      0.00      0.12      0.41 
   281.30     57.20     16.11     71.62      0.01      0.13      0.00 
   281.40     57.21     16.10     71.68     -0.01      0.22      0.41 
   281.50     57.23     16.10     71.67      0.00      0.19      1.59 
   281.60     57.23     16.10     71.68      0.00      0.18      0.41 
   281.70     57.25     16.10     71.71     -0.01      0.23      0.00 
   281.80     57.27     16.10     71.72     -0.00      0.23      0.41 
   281.90     57.28     16.11     71.72      0.01      0.20      2.00 
   282.00     57.28     16.10     71.76      0.00      0.20      2.71 
   282.10     57.30     16.10     71.77     -0.00      0.21      1.94 
