#Written by Robertson Geologging WinLogger V1.0/406
~VERSION INFORMATION
#------------------------------------------------------------------------------
 VERS. 2.0 : CWLS LOG ASCII STANDARD - VERSION 2.0
 WRAP. NO  : ONE LINE PER DEPTH STEP
~WELL INFORMATION
#MNEM.UNIT         DATA                                DESCRIPTION OF MNEMONIC
#------------------------------------------------------------------------------
 STRT.M         40.0600                            :   START DEPTH
 STOP.M        498.0000                            :   STOP DEPTH
 STEP.M          0.0100                            :   STEP VALUE
 NULL.        -999.2500                            :   NULL VALUE
 COMP.    Coal Authority                           :   COMPANY NAME
 WELL.    Dawdon                                   :   WELL NAME
 FLD.     N/A                                      :   FIELD NAME
 LOC.     N/A                                      :   LOCATION
 PROV.    N/A                                      :   PROVINCE
 SRVC.    N/A                                      :   SERVICE COMPANY NAME
 DATE.    30 Sep 08                                :   DATE
 UWI.     N/A                                      :   UNIQUE WELL IDENTIFIER
~PARAMETER INFORMATION
#MNEMO.UNIT         VALUE                 DESCRIPTION OF MNEMONIC
#------------------------------------------------------------------------------
~OTHER INFORMATION SECTION
#------------------------------------------------------------------------------
 TCGS2822
~CURVE INFORMATION
#MNEMO.UNIT         API CODE              CURVE DESCRIPTION
#------------------------------------------------------------------------------
 DEPTH.M                                 :   0     Depth
 TEMP.DegC                               :   1     Temperature
 COND.uS/cm                              :   2     Conductivity
 DELT.DegC                               :   3     Delta T
 DELC.uS/cm                              :   4     Delta C
 NGAM.CPS                                :   5     Natural Gamma
#------------------------------------------------------------------------------
~A  DEPTH     TEMP      COND      DELT      DELC      NGAM      
# ...
   131.14     12.14  14793.48     -0.01    393.72      0.00 
   131.15     12.14  14793.48     -0.00    384.87      0.00 
   131.16     12.14  14793.48     -0.02    377.01      0.00 
   131.17     12.14  14798.40     -0.02    374.07      0.00 
   131.18     12.16  14802.35     -0.03    383.91      0.00 
   131.19     12.17  14810.23     -0.03    377.05      0.00 
   131.20     12.16  14805.30     -0.02    372.12      7.00 
   131.21     12.15  14818.12     -0.03    384.93      8.00 
   131.22     12.15  14818.12     -0.03    377.07      0.00 
   131.23     12.16  14818.12     -0.01    369.20      0.00 
   131.24     12.15  14826.99     -0.02    380.04      0.00 
   131.25     12.17  14826.99      0.00    385.94      0.00 
   131.26     12.18  14834.88      0.01    385.96      8.00 
   131.27     12.18  14826.99      0.03    369.22      0.00 
   131.28     12.20  14840.79      0.04    386.96      0.00 
   131.29     12.19  14842.76      0.05    385.00      0.00 
   131.30     12.15  14842.76      0.00    377.13      0.00 
   131.31     12.13  14851.64     -0.03    386.00      8.00 
   131.32     12.12  14851.64     -0.03    384.04      0.00 
   131.33     12.12  14861.50     -0.03    387.99      0.00 
   131.34     12.14  14851.64      0.00    386.00      0.00 
   131.35     12.16  14867.41      0.03    385.06      0.00 
   131.36     12.17  14876.29      0.04    393.93      0.00 
   131.37     12.17  14876.29      0.04    386.07      0.00 
   131.38     12.17  14876.29      0.05    387.05      8.00 
   131.39     12.16  14883.19      0.03    385.10      0.00 
   131.40     12.14  14884.18      0.00    377.23      0.00 
   131.41     12.15  14884.18      0.02    374.28      0.00 
   131.42     12.16  14892.07     -0.00    385.12      0.00 
   131.43     12.16  14892.07      0.01    375.28      0.00 
   131.44     12.17  14900.94      0.02    386.13      0.00 
   131.45     12.15  14897.00      0.00    374.31      7.00 
   131.46     12.16  14908.83      0.01    385.16      8.00 
   131.47     12.16  14908.83      0.01    386.15      0.00 
   131.48     12.15  14916.72     -0.01    385.19      0.00 
   131.49     12.15  14917.71     -0.01    386.17      0.00 
   131.50     12.14  14916.72     -0.02    377.31      0.00 
   131.51     12.15  14925.60     -0.02    386.19      0.00 
   131.52     12.15  14925.60     -0.00    387.18      0.00 
   131.53     12.17  14933.49      0.03    386.21      0.00 
   131.54     12.18  14932.51      0.03    385.23      0.00 
   131.55     12.18  14941.39      0.02    389.18      0.00 
   131.56     12.19  14941.39      0.03    377.38      0.00 
   131.57     12.19  14946.32      0.03    387.23      0.00 
   131.58     12.18  14958.16      0.03    394.15      0.00 
   131.59     12.18  14950.26      0.05    378.38      0.00 
   131.60     12.17  14960.13      0.05    394.15      0.00 
   131.61     12.18  14966.05      0.02    385.31      8.00 
   131.62     12.19  14966.05      0.03    393.18      0.00 
   131.63     12.20  14967.04      0.04    378.42      0.00 
   131.64     12.21  14966.05      0.05    378.42      0.00 
   131.65     12.19  14974.93      0.06    386.32      0.00 
   131.66     12.19  14974.93      0.07    378.44      0.00 
   131.67     12.19  14974.93      0.04    386.32      0.00 
   131.68     12.20  14981.84      0.05    373.54      0.00 
   131.69     12.19  14982.83      0.03    377.48      0.00 
   131.70     12.17  14988.75      0.00    373.56      0.00 
   131.71     12.17  14990.72      0.00    377.50      0.00 
   131.72     12.19  14990.72      0.01    377.50      0.00 
   131.73     12.19  14995.66      0.01    373.57      0.00 
   131.74     12.19  14999.60      0.01    378.51      0.00 
   131.75     12.18  14999.60      0.02    369.65      0.00 
   131.76     12.17  15009.47     -0.02    372.62      0.00 
   131.77     12.17  15007.50      0.00    377.54      0.00 
   131.78     12.18  15015.39      0.01    369.68      8.00 
   131.79     12.17  15016.38     -0.00    372.64      0.00 
   131.80     12.17  15015.39     -0.00    360.82      0.00 
   131.81     12.17  15016.38      0.00    361.81      0.00 
   131.82     12.16  15024.28     -0.01    366.75      0.00 
   131.83     12.17  15024.28     -0.00    361.83      0.00 
   131.84     12.18  15031.19      0.04    360.86      0.00 
   131.85     12.17  15040.07      0.01    369.74      0.00 
   131.86     12.19  15032.18      0.03    360.86      0.00 
   131.87     12.18  15038.10      0.04    351.03      0.00 
   131.88     12.16  15048.96      0.01    369.77      8.00 
   131.89     12.16  15040.07      0.02    360.88      0.00 
   131.90     12.14  15051.92      0.00    358.94      0.00 
   131.91     12.15  15048.96     -0.01    361.89      8.00 
   131.92     12.15  15056.86     -0.01    361.91      0.00 
   131.93     12.16  15051.92      0.00    348.11      7.00 
   131.94     12.18  15056.86      0.02    353.04      0.00 
   131.95     12.19  15064.75      0.01    357.99      0.00 
   131.96     12.18  15065.74      0.03    346.17      0.00 
   131.97     12.17  15073.64      0.03    354.07      0.00 
   131.98     12.17  15073.64      0.05    353.08      0.00 
   131.99     12.18  15073.64      0.06    345.20      8.00 
   132.00     12.19  15087.47      0.07    359.02     14.00 
   132.01     12.21  15089.44      0.08    345.24      0.00 
   132.02     12.18  15094.38      0.04    352.14      0.00 
   132.03     12.17  15089.44      0.04    345.24      0.00 
   132.04     12.17  15098.33      0.02    345.26      0.00 
   132.05     12.17  15106.23      0.03    350.20      0.00 
   132.06     12.18  15108.20      0.05    347.25      0.00 
   132.07     12.19  15106.23      0.06    337.39      0.00 
   132.08     12.18  15114.13      0.06    336.42      0.00 
   132.09     12.17  15123.02      0.06    353.20      0.00 
   132.10     12.15  15123.02      0.03    337.43      0.00 
   132.11     12.15  15130.92      0.02    353.21      0.00 
   132.12     12.18  15130.92      0.04    346.32      0.00 
   132.13     12.18  15138.82      0.04    345.35      0.00 
   132.14     12.21  15136.85      0.06    343.37      0.00 
   132.15     12.19  15147.72      0.05    354.24      0.00 
   132.16     12.19  15138.82      0.05    340.42      0.00 
   132.17     12.18  15147.72      0.02    345.37      0.00 
   132.18     12.18  15155.62      0.01    345.39      0.00 
   132.19     12.20  15157.59      0.04    352.29      0.00 
   132.20     12.18  15163.52      0.02    345.41      0.00 
   132.21     12.20  15163.52      0.04    345.41      0.00 
   132.22     12.19  15172.41      0.03    354.30      0.00 
   132.23     12.19  15180.32      0.03    353.33      0.00 
   132.24     12.20  15179.33      0.03    352.34      0.00 
   132.25     12.17  15180.32     -0.00    345.44      0.00 
   132.26     12.18  15188.22      0.00    361.24      0.00 
   132.27     12.20  15193.17      0.00    352.37      0.00 
   132.28     12.18  15188.22     -0.01    345.46      0.00 
   132.29     12.19  15205.02      0.03    362.26      0.00 
   132.30     12.20  15197.12      0.07    345.48      0.00 
   132.31     12.17  15197.12      0.06    345.48      0.00 
   132.32     12.18  15207.00      0.07    345.50      7.00 
   132.33     12.18  15205.02      0.04    353.39      0.00 
   132.34     12.16  15212.93     -0.00    345.52      0.00 
   132.35     12.19  15221.83      0.02    345.54      0.00 
   132.36     12.17  15221.83      0.00    345.54      0.00 
   132.37     12.17  15221.83      0.00    345.54      0.00 
   132.38     12.16  15229.73      0.00    346.54      0.00 
   132.39     12.15  15229.73      0.01    345.56      0.00 
   132.40     12.18  15229.73      0.02    345.56      8.00 
   132.41     12.20  15235.66      0.04    343.60      0.00 
   132.42     12.19  15246.54      0.03    354.47      0.00 
   132.43     12.18  15237.64      0.01    336.70      0.00 
   132.44     12.16  15249.50      0.01    352.51      0.00 
   132.45     12.14  15254.45     -0.02    345.61      0.00 
