#Written by Robertson Geologging WinLogger V1.0/406
~VERSION INFORMATION
#------------------------------------------------------------------------------
 VERS. 2.0 : CWLS LOG ASCII STANDARD - VERSION 2.0
 WRAP. NO  : ONE LINE PER DEPTH STEP
~WELL INFORMATION
#MNEM.UNIT         DATA                                DESCRIPTION OF MNEMONIC
#------------------------------------------------------------------------------
 STRT.M         40.0600                            :   START DEPTH
 STOP.M        498.0000                            :   STOP DEPTH
 STEP.M          0.0100                            :   STEP VALUE
 NULL.        -999.2500                            :   NULL VALUE
 COMP.    Coal Authority                           :   COMPANY NAME
 WELL.    Dawdon                                   :   WELL NAME
 FLD.     N/A                                      :   FIELD NAME
 LOC.     N/A                                      :   LOCATION
 PROV.    N/A                                      :   PROVINCE
 SRVC.    N/A                                      :   SERVICE COMPANY NAME
 DATE.    30 Sep 08                                :   DATE
 UWI.     N/A                                      :   UNIQUE WELL IDENTIFIER
~PARAMETER INFORMATION
#MNEMO.UNIT         VALUE                 DESCRIPTION OF MNEMONIC
#------------------------------------------------------------------------------
~OTHER INFORMATION SECTION
#------------------------------------------------------------------------------
 TCGS2822
~CURVE INFORMATION
#MNEMO.UNIT         API CODE              CURVE DESCRIPTION
#------------------------------------------------------------------------------
 DEPTH.M                                 :   0     Depth
 TEMP.DegC                               :   1     Temperature
 COND.uS/cm                              :   2     Conductivity
 DELT.DegC                               :   3     Delta T
 DELC.uS/cm                              :   4     Delta C
 NGAM.CPS                                :   5     Natural Gamma
#------------------------------------------------------------------------------
~A  DEPTH     TEMP      COND      DELT      DELC      NGAM      
    40.06     12.65     12.13      0.00      0.00     31.00 
    40.07     12.65     12.13      0.00      0.00     57.00 
    40.08     12.63     12.13      0.00      0.00     12.00 
    40.09     12.63     12.13      0.00      0.00     37.00 
    40.10     12.64     12.13      0.00      0.00     25.00 
    40.11     12.64     12.13      0.00      0.00     31.00 
    40.12     12.66     12.13      0.00      0.00     28.00 
    40.13     12.66     12.13      0.00      0.00     37.00 
    40.14     12.68     12.13      0.00      0.00     31.00 
    40.15     12.69     12.13      0.00      0.00     31.00 
    40.16     12.69     12.13      0.00      0.00     62.00 
    40.17     12.68     12.13      0.00      0.00      6.00 
    40.18     12.67     12.13      0.00      0.00     31.00 
    40.19     12.67     12.13      0.00      0.00     50.00 
    40.20     12.66     12.13      0.00      0.00      0.00 
    40.21     12.66     12.13      0.00      0.00     12.00 
    40.22     12.67     12.13      0.00      0.00     62.00 
    40.23     12.66     12.13      0.00      0.00     21.00 
    40.24     12.67     12.13      0.00      0.00     28.00 
    40.25     12.65     12.13      0.00      0.00     18.00 
    40.26     12.63     12.13      0.00      0.00     14.00 
    40.27     12.64     12.13      0.00      0.00     21.00 
    40.28     12.65     12.13      0.00      0.00     50.00 
    40.29     12.66     12.13      0.00      0.00     28.00 
    40.30     12.67     12.13      0.00      0.00     21.00 
    40.31     12.68     12.13      0.00      0.00     28.00 
    40.32     12.68     12.13      0.00      0.00     16.00 
    40.33     12.69    543.44      0.00      0.00     35.00 
    40.34     12.69    690.85      0.00      0.00     16.00 
    40.35     12.67    745.95      0.00      0.00     35.00 
    40.36     12.66   1359.05      0.00      0.00     25.00 
    40.37     12.66   1376.02      0.00      0.00     35.00 
    40.38     12.66   1389.43      0.00      0.00     21.00 
    40.39     12.66   1367.09      0.00      0.00     50.00 
    40.40     12.65   1389.43      0.00      0.00     28.00 
    40.41     12.63   1374.24      0.00      0.00     25.00 
    40.42     12.61   1389.43      0.00      0.00     21.00 
    40.43     12.59   1369.77      0.00      0.00     14.00 
    40.44     12.56   1381.39      0.00      0.00     33.00 
    40.45     12.51   1382.28      0.00      0.00     14.00 
    40.46     12.47   1381.39      0.00      0.00     41.00 
    40.47     12.44   1376.02      0.00      0.00     28.00 
    40.48     12.38   1389.43      0.00      0.00     21.00 
    40.49     12.36   1374.24      0.00      0.00      0.00 
    40.50     12.31   1389.43      0.00      0.00     21.00 
    40.51     12.26   1382.28      0.00      0.00      0.00 
    40.52     12.25   1389.43      0.00      0.00     33.00 
    40.53     12.20   1382.28      0.00      0.00     35.00 
    40.54     12.16   1382.28      0.00      0.00     50.00 
    40.55     12.12   1389.43      0.00      0.00      8.00 
    40.56     12.07   1389.43      0.00      0.00     42.00 
    40.57     12.05   1381.39      0.00      0.00      8.00 
    40.58     12.02   1389.43      0.00      0.00     85.00 
    40.59     12.00   1389.43      0.00      0.00     75.00 
    40.60     11.97   1395.68      0.00      0.00     21.00 
    40.61     11.94   1389.43      0.00      0.00     21.00 
    40.62     11.92   1389.43      0.00      0.00     41.00 
    40.63     11.87   1389.43      0.00      0.00     50.00 
    40.64     11.85   1389.43      0.00      0.00     35.00 
    40.65     11.82   1396.58      0.00      0.00      8.00 
    40.66     11.80   1395.68      0.00      0.00     14.00 
    40.67     11.78   1389.43      0.00      0.00      0.00 
    40.68     11.76   1395.68      0.00      0.00     14.00 
    40.69     11.73   1396.58      0.00      0.00     33.00 
    40.70     11.71   1395.68      0.00      0.00      7.00 
    40.71     11.72   1403.73      0.00      0.00      0.00 
    40.72     11.72   1396.58      0.00      0.00     33.00 
    40.73     11.72   1401.94      0.00      0.00     14.00 
    40.74     11.73   1396.58      0.00      0.00     16.00 
    40.75     11.71   1403.73      0.00      0.00     16.00 
    40.76     11.68   1403.73      0.00      0.00     25.00 
    40.77     11.66   1403.73      0.00      0.00     25.00 
    40.78     11.64   1403.73      0.00      0.00      8.00 
    40.79     11.63   1403.73      0.00      0.00      0.00 
    40.80     11.63   1403.73      0.00      0.00      8.00 
    40.81     11.63   1403.73     -1.01   1391.60      8.00 
    40.82     11.62   1408.19     -1.03   1396.06      0.00 
    40.83     11.59   1411.77     -1.06   1399.64      8.00 
    40.84     11.58   1403.73     -1.07   1391.60     16.00 
    40.85     11.56   1411.77     -1.09   1399.64      8.00 
    40.86     11.56   1403.73     -1.09   1391.60      8.00 
    40.87     11.56   1411.77     -1.09   1399.64      8.00 
    40.88     11.54   1403.73     -1.12   1391.60     25.00 
    40.89     11.54   1411.77     -1.14   1399.64     25.00 
    40.90     11.51   1403.73     -1.17   1391.60      0.00 
    40.91     11.52   1411.77     -1.16   1399.64      0.00 
    40.92     11.51   1411.77     -1.16   1399.64      0.00 
    40.93     11.49   1411.77     -1.15   1399.64      0.00 
    40.94     11.50   1411.77     -1.16   1399.64      8.00 
    40.95     11.49   1414.45     -1.16   1402.32      7.00 
    40.96     11.48   1411.77     -1.19   1399.64     16.00 
    40.97     11.47   1418.92     -1.20   1406.79      8.00 
    40.98     11.48   1418.92     -1.18   1406.79      8.00 
    40.99     11.47   1418.92     -1.17   1406.79      0.00 
    41.00     11.46   1418.92     -1.16   1406.79      8.00 
    41.01     11.48   1418.92     -1.15   1406.79      0.00 
    41.02     11.47   1426.07     -1.15   1413.94      0.00 
    41.03     11.47   1420.71     -1.17   1408.58      7.00 
    41.04     11.48   1426.07     -1.19   1413.94      0.00 
    41.05     11.46   1434.11     -1.18   1421.98      0.00 
    41.06     11.46   1426.07     -1.20   1413.94      0.00 
    41.07     11.46   1434.11     -1.17   1421.98      0.00 
    41.08     11.46   1434.11     -1.18   1421.98      0.00 
    41.09     11.45   1441.27     -1.19   1429.14      0.00 
    41.10     11.46   1434.11     -1.19   1421.98      0.00 
    41.11     11.44   1441.27     -1.22   1429.14      8.00 
    41.12     11.45   1448.42     -1.21   1436.29      0.00 
    41.13     11.47   1448.42     -1.21   1436.29      8.00 
    41.14     11.47   1448.42     -1.21   1436.29      8.00 
    41.15     11.48   1456.46     -1.21   1444.33      0.00 
    41.16     11.47   1456.46     -1.21   1444.33      0.00 
    41.17     11.46   1463.62     -1.22   1451.49      0.00 
    41.18     11.44   1470.77     -1.23   1458.64      0.00 
    41.19     11.44   1470.77     -1.22   1458.64      0.00 
    41.20     11.44   1478.82     -1.22   1466.69      0.00 
    41.21     11.43   1485.97     -1.24   1473.84      8.00 
    41.22     11.45   1485.97     -1.22   1473.84      8.00 
    41.23     11.44   1493.13     -1.23   1481.00      0.00 
    41.24     11.42   1493.13     -1.23   1481.00      8.00 
    41.25     11.42   1501.18     -1.21   1489.04      0.00 
    41.26     11.39   1501.18     -1.25   1489.04      0.00 
    41.27     11.40   1501.18     -1.25   1489.04      0.00 
    41.28     11.42   1508.33     -1.24   1496.20      0.00 
    41.29     11.42   1515.49     -1.25   1503.36      0.00 
    41.30     11.42   1508.33     -1.26   1496.20      0.00 
    41.31     11.41   1515.49     -1.27   1503.36      0.00 
    41.32     11.40   1523.54     -1.29    980.10      0.00 
    41.33     11.40   1515.49     -1.29    824.64      0.00 
    41.34     11.40   1523.54     -1.27    777.59      0.00 
    41.35     11.40   1523.54     -1.26    164.49      0.00 
    41.36     11.40   1530.69     -1.26    154.67      0.00 
    41.37     11.39   1523.54     -1.27    134.11      0.00 
