#Written by Robertson Geologging WinLogger V1.0/311
~VERSION INFORMATION
#------------------------------------------------------------------------------
 VERS. 2.0 : CWLS LOG ASCII STANDARD - VERSION 2.0
 WRAP. NO  : ONE LINE PER DEPTH STEP
~WELL INFORMATION
#MNEM.UNIT         DATA                                DESCRIPTION OF MNEMONIC
#------------------------------------------------------------------------------
 STRT.M         57.1000                            :   START DEPTH
 STOP.M        520.1000                            :   STOP DEPTH
 STEP.M          0.1000                            :   STEP VALUE
 NULL.        -999.2500                            :   NULL VALUE
 COMP.    IMC                                      :   COMPANY NAME
 WELL.    THERESA SHAFT                            :   WELL NAME
 FLD.     DAWDON                                   :   FIELD NAME
 LOC.     N/A                                      :   LOCATION
 PROV.    N/A                                      :   PROVINCE
 SRVC.    N/A                                      :   SERVICE COMPANY NAME
 DATE.    03 Oct 03                                :   DATE
 UWI.     N/A                                      :   UNIQUE WELL IDENTIFIER
~PARAMETER INFORMATION
#MNEMO.UNIT         VALUE                 DESCRIPTION OF MNEMONIC
#------------------------------------------------------------------------------
~OTHER INFORMATION SECTION
#------------------------------------------------------------------------------
 TCDS 2822
~CURVE INFORMATION
#MNEMO.UNIT         API CODE              CURVE DESCRIPTION
#------------------------------------------------------------------------------
 DEPTH.M                                 :   0     Depth
 TEMP.DegC                               :   1     Temperature
 COND.uS/cm                              :   2     Conductivity
 DELT.DegC                               :   3     Delta T
 DELC.uS/cm                              :   4     Delta C
 NGAM.API                                :   5     Natural Gamma
#------------------------------------------------------------------------------
~A  DEPTH     TEMP      COND      DELT      DELC      NGAM      
# ...
   294.70     16.11  49375.12     -0.01      6.17      0.82 
   294.80     16.12  49376.63     -0.01      6.17      0.41 
   294.90     16.12  49376.85      0.01      6.28      0.41 
   295.00     16.11  49376.74      0.01      7.04      0.41 
   295.10     16.11  49375.98     -0.00      5.52      1.29 
   295.20     16.11  49375.01      0.00      3.57      0.88 
   295.30     16.12  49375.01      0.01      3.57      0.47 
   295.40     16.11  49374.03     -0.01      2.27      1.35 
   295.50     16.12  49373.28      0.00      1.08      1.71 
   295.60     16.12  49372.41      0.00     -0.97      1.24 
   295.70     16.11  49370.46      0.01     -4.65      1.24 
   295.80     16.12  49370.57      0.00     -6.06      0.41 
   295.90     16.12  49370.35      0.00     -6.49      0.82 
   296.00     16.13  49368.84      0.01     -7.90      1.29 
   296.10     16.11  49368.95     -0.01     -7.03      0.94 
   296.20     16.12  49366.89      0.00     -8.12      1.41 
   296.30     16.12  49366.78     -0.00     -9.20      1.41 
   296.40     16.12  49366.89      0.01     -7.14      0.47 
   296.50     16.12  49365.92      0.01     -7.36      0.82 
   296.60     16.11  49367.65     -0.01     -3.79      2.53 
   296.70     16.11  49369.60     -0.00     -0.87      2.12 
   296.80     16.11  49371.33     -0.01     -0.11      0.47 
   296.90     16.12  49373.17     -0.00      2.71      0.41 
   297.00     16.12  49376.63     -0.00      6.82      0.41 
   297.10     16.12  49379.12      0.01     10.39      0.88 
   297.20     16.12  49381.61     -0.00     15.69      0.41 
   297.30     16.13  49384.21      0.01     17.53      0.82 
   297.40     16.12  49384.86      0.00     17.97      0.41 
   297.50     16.13  49385.94      0.00     20.13      0.41 
   297.60     16.13  49386.48      0.02     17.97      0.47 
   297.70     16.13  49386.48      0.02     16.02      2.18 
   297.80     16.13  49388.21      0.02     16.88      0.88 
   297.90     16.13  49389.73      0.01     16.56      0.88 
   298.00     16.12  49391.03     -0.00     14.40      0.88 
   298.10     16.13  49392.33      0.00     13.20      1.29 
   298.20     16.13  49394.38      0.01     12.77      1.29 
   298.30     16.14  49396.98      0.01     12.88      1.29 
   298.40     16.14  49402.83      0.01     18.08      0.88 
   298.50     16.14  49406.07      0.01     19.27      0.47 
   298.60     16.14  49409.54      0.01     22.95      0.94 
   298.70     16.13  49414.30      0.00     26.84      0.88 
   298.80     16.14  49419.06      0.00     29.33      0.94 
   298.90     16.14  49424.15      0.01     33.56      0.47 
   299.00     16.15  49428.16      0.03     36.37      1.24 
   299.10     16.15  49432.92      0.03     40.05      2.18 
   299.20     16.15  49437.03      0.02     42.65      0.82 
   299.30     16.14  49441.91      0.00     43.41      0.41 
   299.40     16.14  49446.24      0.01     43.41      1.24 
   299.50     16.14  49450.35      0.00     44.28      2.12 
   299.60     16.13  49453.38     -0.00     42.98      1.71 
   299.70     16.15  49456.96      0.01     42.11      0.41 
   299.80     16.14  49459.55      0.00     40.49      0.00 
   299.90     16.16  49462.37      0.02     38.22      0.00 
   300.00     16.14  49463.78     -0.02     35.62      0.41 
   300.10     16.15  49465.83      0.00     31.18      0.41 
   300.20     16.16  49467.46      0.00     28.80      1.76 
   300.30     16.15  49469.73      0.01     27.07      2.12 
   300.40     16.17  49472.22      0.03     25.23      2.06 
   300.50     16.15  49475.15      0.01     24.04      1.29 
   300.60     16.15  49478.39      0.01     24.80      0.41 
   300.70     16.16  49482.08      0.01     24.36      1.29 
   300.80     16.16  49484.67      0.01     23.93      1.35 
   300.90     16.17  49487.27      0.01     24.90      1.76 
   301.00     16.15  49489.55      0.02     25.45      0.88 
   301.10     16.16  49491.61      0.01     24.47      1.24 
   301.20     16.17  49492.25      0.01     23.50      2.12 
   301.30     16.17  49495.07      0.02     24.58      2.18 
   301.40     16.17  49497.56     -0.00     25.01      2.18 
   301.50     16.17  49499.84      0.01     25.56      0.88 
   301.60     16.17  49501.57      0.02     24.26      1.71 
   301.70     16.17  49503.73      0.01     23.17      0.88 
   301.80     16.17  49506.12      0.02     22.09      1.65 
   301.90     16.17  49508.39      0.01     22.09      0.82 
   302.00     16.16  49509.80      0.01     20.25      1.29 
   302.10     16.17  49511.75      0.01     21.12      1.71 
   302.20     16.17  49511.86      0.00     19.60      0.82 
   302.30     16.17  49512.72      0.00     16.89      0.41 
   302.40     16.17  49514.24      0.00     16.68      1.35 
   302.50     16.17  49515.43     -0.00     16.46      1.35 
   302.60     16.18  49518.03      0.02     16.46      1.29 
   302.70     16.18  49519.22      0.01     15.49      0.82 
   302.80     16.19  49520.30      0.01     14.30      0.41 
   302.90     16.18  49520.74      0.00     12.35      0.41 
   303.00     16.18  49523.01      0.02     12.24      0.94 
   303.10     16.18  49523.88      0.02     11.91      0.00 
   303.20     16.18  49524.53      0.01     12.67      0.47 
   303.30     16.19  49526.04      0.02     12.78      1.71 
   303.40     16.19  49526.04      0.02     12.02      1.29 
   303.50     16.20  49526.59      0.04     10.40      1.35 
   303.60     16.20  49527.45      0.02      9.42      0.82 
   303.70     16.19  49528.54      0.01      9.31      1.24 
   303.80     16.19  49529.73      0.01      9.42      0.82 
   303.90     16.19  49529.73      0.01      8.56      0.41 
   304.00     16.19  49528.97      0.01      5.20      1.24 
   304.10     16.19  49530.16      0.01      5.85      1.24 
   304.20     16.22  49530.92      0.03      5.63      0.41 
   304.30     16.20  49529.83      0.01      4.12      0.00 
   304.40     16.21  49529.83      0.02      4.12      0.41 
   304.50     16.21  49531.57      0.01      4.98      1.76 
   304.60     16.20  49532.00      0.00      4.22      1.76 
   304.70     16.21  49532.22      0.02      4.22      1.35 
   304.80     16.21  49532.98      0.01      3.25      0.94 
   304.90     16.22  49533.41      0.04      4.55      0.00 
   305.00     16.22  49532.65      0.03      3.68      0.47 
   305.10     16.21  49532.87      0.01      2.71      0.47 
   305.20     16.22  49533.19      0.01      2.27      1.71 
   305.30     16.22  49533.95      0.02      2.60      1.35 
   305.40     16.22  49534.17      0.01      2.27      1.29 
   305.50     16.23  49534.93      0.02      2.92      1.65 
   305.60     16.23  49535.79      0.03      4.55      0.41 
   305.70     16.24  49536.44      0.03      5.52      1.24 
   305.80     16.24  49536.33      0.04      4.66      2.12 
   305.90     16.24  49536.23      0.02      4.87      2.12 
   306.00     16.24  49536.98      0.02      4.55      2.12 
   306.10     16.23  49536.23      0.02      2.82      0.41 
   306.20     16.23  49536.77      0.01      3.90      0.47 
   306.30     16.24  49534.93      0.02      0.97      0.82 
   306.40     16.24  49534.71      0.02     -0.22      1.71 
   306.50     16.23  49534.82     -0.00     -0.76      0.88 
   306.60     16.25  49534.60      0.02     -1.95      0.47 
   306.70     16.24  49535.68      0.00     -1.52      1.29 
   306.80     16.25  49537.20      0.01      1.08      2.53 
   306.90     16.25  49537.74      0.01      1.52      0.82 
   307.00     16.24  49537.63     -0.00      0.87      1.76 
   307.10     16.26  49538.39      0.03      1.52      1.76 
   307.20     16.26  49537.96      0.03      1.19      1.71 
   307.30     16.25  49539.26      0.02      4.12      1.24 
   307.40     16.28  49539.15      0.04      4.22      0.41 
   307.50     16.26  49539.15      0.03      3.57      0.00 
   307.60     16.27  49540.34      0.02      4.77      0.82 
   307.70     16.27  49541.10      0.02      4.66      1.24 
   307.80     16.27  49542.62      0.02      5.42      0.41 
