#Written by Robertson Geologging WinLogger V1.0/370
~VERSION INFORMATION
#------------------------------------------------------------------------------
 VERS. 2.0 : CWLS LOG ASCII STANDARD - VERSION 2.0
 WRAP. NO  : ONE LINE PER DEPTH STEP
~WELL INFORMATION
#MNEM.UNIT         DATA                                DESCRIPTION OF MNEMONIC
#------------------------------------------------------------------------------
 STRT.M         37.0600                            :   START DEPTH
 STOP.M        510.0000                            :   STOP DEPTH
 STEP.M          0.0100                            :   STEP VALUE
 NULL.        -999.2500                            :   NULL VALUE
 COMP.    WHITE YOUN GREEN                         :   COMPANY NAME
 WELL.    DAWDON SHAFT                             :   WELL NAME
 FLD.     DAWDON                                   :   FIELD NAME
 LOC.     N/A                                      :   LOCATION
 PROV.    N/A                                      :   PROVINCE
 SRVC.    N/A                                      :   SERVICE COMPANY NAME
 DATE.    13 Dec 06                                :   DATE
 UWI.     N/A                                      :   UNIQUE WELL IDENTIFIER
~PARAMETER INFORMATION
#MNEMO.UNIT         VALUE                 DESCRIPTION OF MNEMONIC
#------------------------------------------------------------------------------
~OTHER INFORMATION SECTION
#------------------------------------------------------------------------------
 lLOGGING DOWN
~CURVE INFORMATION
#MNEMO.UNIT         API CODE              CURVE DESCRIPTION
#------------------------------------------------------------------------------
 DEPTH.M                                 :   0     Depth
 TEMP.DegC                               :   1     Temperature
 CN25.mS/cm                              :   2     Conductivity@25DegC
 COND.mS/cm                              :   3     Conductivity
 DELT.DegC                               :   4     Delta T
 DELC.mS/cm                              :   5     Delta C
 NGAM.CPS                                :   6     Natural Gamma
#------------------------------------------------------------------------------
~A  DEPTH     TEMP      CN25      COND      DELT      DELC      NGAM      
# ...
   194.13     15.79     60.70     47.57      0.01     -0.01      2.47 
   194.14     15.79     60.69     47.57      0.01     -0.02      2.47 
   194.15     15.80     60.69     47.56      0.01     -0.02      2.47 
   194.16     15.80     60.69     47.57      0.01     -0.02      2.06 
   194.17     15.80     60.69     47.57      0.01     -0.02      2.06 
   194.18     15.80     60.68     47.56      0.01     -0.02      2.06 
   194.19     15.80     60.69     47.56      0.01     -0.02      2.47 
   194.20     15.80     60.69     47.57      0.00     -0.01      2.47 
   194.21     15.79     60.69     47.57      0.00     -0.00      2.47 
   194.22     15.79     60.69     47.56      0.00     -0.00      2.47 
   194.23     15.79     60.69     47.57      0.00     -0.00      2.06 
   194.24     15.79     60.70     47.57     -0.00      0.01      1.65 
   194.25     15.79     60.69     47.56     -0.00      0.01      1.24 
   194.26     15.79     60.70     47.57     -0.01      0.02      1.24 
   194.27     15.79     60.70     47.56     -0.01      0.03      1.65 
   194.28     15.79     60.70     47.56     -0.02      0.03      1.65 
   194.29     15.79     60.71     47.56     -0.02      0.04      1.24 
   194.30     15.79     60.71     47.56     -0.02      0.05      0.82 
   194.31     15.78     60.72     47.56     -0.02      0.05      0.82 
   194.32     15.78     60.71     47.56     -0.02      0.04      0.82 
   194.33     15.78     60.72     47.56     -0.02      0.04      0.82 
   194.34     15.78     60.72     47.56     -0.02      0.05      1.24 
   194.35     15.78     60.71     47.56     -0.01      0.04      1.24 
   194.36     15.79     60.71     47.56     -0.01      0.03      0.82 
   194.37     15.79     60.71     47.56     -0.01      0.02      0.82 
   194.38     15.79     60.71     47.57     -0.00      0.01      0.82 
   194.39     15.79     60.71     47.57      0.00      0.00      0.82 
   194.40     15.79     60.71     47.57      0.00      0.00      0.82 
   194.41     15.79     60.72     47.57      0.00      0.00      0.82 
   194.42     15.79     60.72     47.57      0.00     -0.00      0.82 
   194.43     15.79     60.72     47.57      0.00      0.00      0.82 
   194.44     15.78     60.72     47.57     -0.00      0.01      0.41 
   194.45     15.78     60.72     47.57     -0.00      0.01      0.41 
   194.46     15.78     60.72     47.56     -0.00      0.01      0.41 
   194.47     15.78     60.72     47.56     -0.01      0.02      0.41 
   194.48     15.79     60.72     47.56     -0.01      0.02      0.41 
   194.49     15.79     60.71     47.56     -0.01      0.02      0.41 
   194.50     15.79     60.70     47.56     -0.01      0.02      0.41 
   194.51     15.79     60.69     47.56     -0.01      0.02      0.00 
   194.52     15.80     60.69     47.56     -0.01      0.01      0.00 
   194.53     15.80     60.68     47.56     -0.00      0.02      0.00 
   194.54     15.80     60.68     47.56     -0.00      0.01      0.00 
   194.55     15.80     60.68     47.56     -0.00      0.00      0.00 
   194.56     15.80     60.68     47.56     -0.00      0.01      0.00 
   194.57     15.80     60.69     47.57     -0.00      0.01      0.00 
   194.58     15.80     60.69     47.57     -0.00      0.01      0.00 
   194.59     15.80     60.69     47.57     -0.00      0.01      0.00 
   194.60     15.79     60.70     47.57     -0.00      0.01      0.00 
   194.61     15.79     60.70     47.57      0.00      0.00      0.00 
   194.62     15.79     60.70     47.57      0.00      0.00      0.00 
   194.63     15.79     60.70     47.57      0.00     -0.00      0.00 
   194.64     15.79     60.71     47.57      0.00     -0.00      0.00 
   194.65     15.79     60.71     47.57      0.00      0.00      0.00 
   194.66     15.79     60.71     47.57      0.00      0.00      0.00 
   194.67     15.79     60.71     47.57      0.00     -0.00      0.41 
   194.68     15.79     60.71     47.57     -0.00      0.01      0.41 
   194.69     15.79     60.72     47.57     -0.00      0.01      0.41 
   194.70     15.79     60.72     47.57     -0.00      0.01      0.41 
   194.71     15.78     60.72     47.57     -0.00      0.01      0.41 
   194.72     15.78     60.73     47.57     -0.01      0.02      0.41 
   194.73     15.78     60.73     47.56     -0.01      0.02      0.41 
   194.74     15.78     60.73     47.56     -0.01      0.02      0.88 
   194.75     15.78     60.74     47.56     -0.01      0.02      1.29 
   194.76     15.78     60.74     47.57     -0.01      0.02      1.29 
   194.77     15.78     60.74     47.57     -0.01      0.03      1.29 
   194.78     15.78     60.74     47.56     -0.01      0.03      1.29 
   194.79     15.77     60.74     47.56     -0.01      0.03      1.29 
   194.80     15.77     60.75     47.57     -0.01      0.04      1.29 
   194.81     15.77     60.75     47.56     -0.01      0.04      1.29 
   194.82     15.77     60.75     47.56     -0.01      0.04      1.29 
   194.83     15.77     60.75     47.56     -0.01      0.03      1.29 
   194.84     15.77     60.75     47.57     -0.01      0.04      0.88 
   194.85     15.77     60.75     47.57     -0.01      0.05      0.88 
   194.86     15.77     60.75     47.57     -0.01      0.04      0.88 
   194.87     15.78     60.74     47.57     -0.01      0.04      0.88 
   194.88     15.78     60.74     47.57     -0.01      0.05      1.35 
   194.89     15.78     60.74     47.57     -0.01      0.04      1.35 
   194.90     15.78     60.73     47.57     -0.01      0.03      1.35 
   194.91     15.78     60.73     47.57     -0.01      0.02      0.88 
   194.92     15.78     60.73     47.57     -0.00      0.02      0.47 
   194.93     15.78     60.73     47.57     -0.00      0.02      0.47 
   194.94     15.78     60.73     47.57     -0.00      0.02      0.47 
   194.95     15.78     60.72     47.57     -0.00      0.02      0.47 
   194.96     15.78     60.72     47.57     -0.00      0.01      0.47 
   194.97     15.78     60.73     47.57     -0.00      0.02      0.47 
   194.98     15.78     60.73     47.57     -0.00      0.02      0.47 
   194.99     15.78     60.73     47.57     -0.00      0.00      0.47 
   195.00     15.78     60.73     47.57     -0.00      0.01      0.47 
   195.01     15.78     60.74     47.57     -0.00      0.02      0.47 
   195.02     15.78     60.74     47.57     -0.00      0.01      0.47 
   195.03     15.78     60.73     47.57     -0.00      0.01      0.47 
   195.04     15.78     60.73     47.57     -0.00      0.01      0.47 
   195.05     15.78     60.73     47.57     -0.00      0.01      0.00 
   195.06     15.78     60.74     47.57     -0.00      0.01      0.00 
   195.07     15.78     60.73     47.57     -0.00      0.02      0.00 
   195.08     15.78     60.72     47.57     -0.00      0.01      0.00 
   195.09     15.79     60.72     47.57     -0.00      0.01      0.00 
   195.10     15.79     60.72     47.57     -0.00      0.01      0.00 
   195.11     15.79     60.71     47.57     -0.00      0.01      0.41 
   195.12     15.79     60.70     47.57     -0.00      0.01      0.41 
   195.13     15.79     60.71     47.57     -0.00      0.01      0.82 
   195.14     15.79     60.72     47.57     -0.01      0.03      0.82 
   195.15     15.79     60.72     47.57     -0.01      0.03      0.82 
   195.16     15.79     60.71     47.57     -0.01      0.02      0.82 
   195.17     15.79     60.71     47.57     -0.01      0.03      0.82 
   195.18     15.79     60.71     47.57     -0.01      0.02      0.82 
   195.19     15.79     60.71     47.57     -0.01      0.02      0.82 
   195.20     15.79     60.71     47.57     -0.01      0.02      0.82 
   195.21     15.79     60.71     47.56     -0.01      0.02      1.24 
   195.22     15.79     60.71     47.56     -0.01      0.01      1.24 
   195.23     15.79     60.71     47.57     -0.00      0.01      1.24 
   195.24     15.79     60.70     47.57     -0.00      0.01      1.24 
   195.25     15.79     60.70     47.56      0.00     -0.01      1.24 
