#Written by Robertson Geologging WinLogger V1.0/311
~VERSION INFORMATION
#------------------------------------------------------------------------------
 VERS. 2.0 : CWLS LOG ASCII STANDARD - VERSION 2.0
 WRAP. NO  : ONE LINE PER DEPTH STEP
~WELL INFORMATION
#MNEM.UNIT         DATA                                DESCRIPTION OF MNEMONIC
#------------------------------------------------------------------------------
 STRT.M         57.1000                            :   START DEPTH
 STOP.M        520.1000                            :   STOP DEPTH
 STEP.M          0.1000                            :   STEP VALUE
 NULL.        -999.2500                            :   NULL VALUE
 COMP.    IMC                                      :   COMPANY NAME
 WELL.    THERESA SHAFT                            :   WELL NAME
 FLD.     DAWDON                                   :   FIELD NAME
 LOC.     N/A                                      :   LOCATION
 PROV.    N/A                                      :   PROVINCE
 SRVC.    N/A                                      :   SERVICE COMPANY NAME
 DATE.    03 Oct 03                                :   DATE
 UWI.     N/A                                      :   UNIQUE WELL IDENTIFIER
~PARAMETER INFORMATION
#MNEMO.UNIT         VALUE                 DESCRIPTION OF MNEMONIC
#------------------------------------------------------------------------------
~OTHER INFORMATION SECTION
#------------------------------------------------------------------------------
 TCDS 2822
~CURVE INFORMATION
#MNEMO.UNIT         API CODE              CURVE DESCRIPTION
#------------------------------------------------------------------------------
 DEPTH.M                                 :   0     Depth
 TEMP.DegC                               :   1     Temperature
 COND.uS/cm                              :   2     Conductivity
 DELT.DegC                               :   3     Delta T
 DELC.uS/cm                              :   4     Delta C
 NGAM.API                                :   5     Natural Gamma
#------------------------------------------------------------------------------
~A  DEPTH     TEMP      COND      DELT      DELC      NGAM      
# ...
   505.90     22.95  49687.81     -0.00    -62.55      3.35 
   506.00     22.95  49699.62     -0.01    -88.80      2.06 
   506.10     22.95  49686.40      0.01    -42.93      0.82 
   506.20     22.95  49681.63      0.01    -37.61      1.71 
   506.30     22.94  49690.41     -0.01    -12.90      3.41 
   506.40     22.96  49707.86      0.00      7.48      2.53 
   506.50     22.95  49699.40      0.00     15.72      2.18 
   506.60     22.95  49700.16      0.01     29.70      2.59 
   506.70     22.95  49696.80      0.00     27.64      1.65 
   506.80     22.95  49682.28      0.01     12.25      2.47 
   506.90     22.95  49682.60      0.00     -8.35      2.12 
   507.00     22.96  49685.20      0.01    -11.38      1.29 
   507.10     22.95  49685.85     -0.00      1.84      2.18 
   507.20     22.95  49694.53      0.00     12.90      2.18 
   507.30     22.95  49724.66      0.01     32.84      3.00 
   507.40     22.95  49696.59     -0.01     -9.76      1.71 
   507.50     22.94  49699.08     -0.00      0.87      3.29 
   507.60     22.96  49711.65      0.01      6.94      2.06 
   507.70     22.96  49722.93      0.01     27.64      0.41 
   507.80     22.95  49705.26      0.00     22.00      1.35 
   507.90     22.95  49711.87     -0.01     29.27      1.29 
   508.00     22.95  49704.17     -0.01     18.97      1.24 
   508.10     22.95  49705.15     -0.00     20.05      3.76 
   508.20     22.94  49701.35     -0.01      5.53      2.94 
   508.30     22.95  49697.13     -0.00    -25.26      1.76 
   508.40     22.95  49703.20      0.00      7.15      2.53 
   508.50     22.95  49707.75      0.00      8.67      2.06 
   508.60     22.96  49687.91     -0.00    -24.50      2.94 
   508.70     22.96  49688.02      0.00    -35.34      2.53 
   508.80     22.93  49680.11     -0.02    -24.39      1.71 
   508.90     22.95  49680.00     -0.00    -31.87      2.47 
   509.00     22.96  49673.82      0.01    -31.43      2.06 
   509.10     22.94  49671.22     -0.00    -34.25      1.71 
   509.20     22.95  49667.65      0.01    -33.71      2.59 
   509.30     22.95  49667.86     -0.00    -28.50      5.59 
   509.40     22.95  49667.76      0.01    -36.96      4.71 
   509.50     22.95  49666.02      0.00    -40.32      5.00 
   509.60     22.94  49666.02     -0.02    -19.73      3.00 
   509.70     22.95  49667.00     -0.01    -20.27      2.71 
   509.80     22.95  49666.89      0.01    -13.22      3.06 
   509.90     22.96  49664.40      0.00    -14.85      2.94 
   510.00     22.95  49662.77     -0.01    -11.05      2.47 
   510.10     22.95  49660.93      0.00    -10.30      2.47 
   510.20     22.94  49660.17     -0.01     -7.48      0.88 
   510.30     22.95  49654.86      0.00    -13.00      2.06 
   510.40     22.95  49650.85      0.00    -16.04      3.29 
   510.50     22.95  49648.68     -0.01    -17.34      2.88 
   510.60     22.96  49648.79      0.01    -18.10      2.59 
   510.70     22.95  49647.81     -0.01    -19.29      2.76 
   510.80     22.95  49646.95      0.01    -19.07      2.24 
   510.90     22.96  49643.26     -0.00    -20.37      2.47 
   511.00     22.96  49641.42      0.01    -20.59      2.94 
   511.10     22.96  49640.66      0.01    -18.42      0.88 
   511.20     22.95  49639.80      0.01    -18.86      1.76 
   511.30     22.94  49635.46     -0.01    -17.88      2.53 
   511.40     22.95  49633.73     -0.00    -16.36      2.18 
   511.50     22.95  49633.62      0.01    -14.30      1.35 
   511.60     22.95  49632.97     -0.01    -16.58      0.00 
   511.70     22.96  49631.56      0.02    -16.80      0.00 
   511.80     22.95  49628.53      0.00    -17.66      0.88 
   511.90     22.94  49630.04     -0.01    -12.89      2.18 
   512.00     22.96  49627.44      0.00    -13.22      3.00 
   512.10     22.95  49619.53     -0.01    -21.13      3.29 
   512.20     22.95  49615.74     -0.00    -22.86      2.53 
   512.30     22.94  49610.54     -0.00    -24.38      2.18 
   512.40     22.95  49603.06     -0.00    -30.66      2.06 
   512.50     22.97  49600.03      0.02    -33.59      2.88 
   512.60     22.95  49597.75      0.00    -35.21      3.35 
   512.70     22.95  49597.65     -0.01    -33.70      1.65 
   512.80     22.96  49598.40      0.01    -30.12      2.59 
   512.90     22.96  49598.19      0.01    -31.85      1.82 
   513.00     22.94  49592.77     -0.02    -33.15      1.82 
   513.10     22.95  49591.47     -0.00    -27.30      1.35 
   513.20     22.95  49591.25      0.00    -23.73      2.59 
   513.30     22.95  49593.10      0.00    -17.44      2.53 
   513.40     22.94  49587.35     -0.01    -15.71      2.47 
   513.50     22.95  49585.19     -0.02    -14.84      4.18 
   513.60     22.95  49581.40      0.00    -17.12      2.53 
   513.70     22.94  49579.45     -0.01    -19.72      2.18 
   513.80     22.95  49579.45     -0.01    -21.34      0.82 
   513.90     22.95  49573.49     -0.01    -23.94      2.06 
   514.00     22.93  49571.00     -0.01    -22.53      2.88 
   514.10     22.96  49565.58      0.02    -26.65      4.12 
   514.20     22.96  49562.33      0.01    -28.92      2.88 
   514.30     22.96  49561.68      0.02    -30.12      2.47 
   514.40     22.95  49559.41      0.00    -27.08      2.06 
   514.50     22.96  49553.77      0.01    -29.90      2.06 
   514.60     22.96  49552.36      0.00    -28.27      3.29 
   514.70     22.96  49552.91      0.01    -27.30      4.12 
   514.80     22.95  49552.91     -0.00    -25.78      5.35 
   514.90     22.95  49566.88      0.00     -6.61      4.94 
   515.00     22.96  49716.32      0.02    145.54      7.41 
   515.10     22.95  49840.04     -0.01    274.46      8.35 
   515.20     22.94  49923.56     -0.02    361.23      9.06 
   515.30     22.94  49962.09     -0.02    399.65      8.06 
   515.40     22.94  49975.22     -0.01    416.57      9.88 
   515.50     22.95  49982.05     -0.01    429.69      8.24 
   515.60     22.94  49985.74     -0.02    434.25      7.00 
   515.70     22.95  49979.67     -0.00    427.63      6.59 
   515.80     22.96  49982.71      0.01    429.80      5.35 
   515.90     22.95  50015.59      0.00    443.30      9.88 
   516.00     22.95  50036.43     -0.01    301.47     10.59 
   516.10     22.97  50034.91      0.02    183.27      8.24 
   516.20     22.97  50040.99      0.04    112.76     10.00 
   516.30     22.96  50025.25      0.02     60.78     16.71 
   516.40     22.97  50017.00      0.03     41.03     20.82 
   516.50     22.97  49915.00      0.02    -67.06     15.18 
   516.60     22.96  49942.01      0.01    -44.49     21.12 
   516.70     22.96  49987.92      0.01      9.01     26.59 
   516.80     22.96  50038.83     -0.00     55.36     25.29 
   516.90     22.95  49979.89     -0.00    -38.10     16.41 
   517.00     22.96  49965.78      0.01    -69.90     21.82 
   517.10     22.95  49971.09     -0.02    -64.58     21.06 
   517.20     22.94  49948.20     -0.03    -92.80     18.82 
   517.30     22.94  49938.43     -0.02    -84.11     21.47 
   517.40     22.95  49921.07     -0.02    -91.27     26.41 
   517.50     22.96  49937.45     -0.00     29.51     23.71 
   517.60     22.97  49916.51      0.01    -33.97     18.88 
   517.70     22.96  49898.61      0.01    -93.21     18.59 
   517.80     22.96  49894.05     -0.00   -143.91     15.47 
   517.90     22.96  49887.22      0.01    -95.81     16.59 
   518.00     22.96  49877.89     -0.00    -85.61     12.06 
   518.10     22.97  49870.40      0.02    -97.54     13.47 
   518.20     22.97  49860.53      0.03    -87.66     15.94 
   518.30     22.96  49855.00      0.02    -80.39     18.35 
   518.40     22.97  49851.86      0.02    -69.21     19.76 
   518.50     22.97  49845.24      0.01    -89.94     16.65 
   518.60     22.98  49841.01      0.01    -73.22     15.65 
   518.70     22.97  49837.21      0.01    -62.16     12.35 
   518.80     22.98  49833.63      0.02    -58.79     18.24 
   518.90     22.97  49832.66      0.01    -53.04     19.12 
   519.00     22.99  49830.38      0.03    -46.75     18.12 
