#Written by Robertson Geologging WinLogger V1.0/370
~VERSION INFORMATION
#------------------------------------------------------------------------------
 VERS. 2.0 : CWLS LOG ASCII STANDARD - VERSION 2.0
 WRAP. NO  : ONE LINE PER DEPTH STEP
~WELL INFORMATION
#MNEM.UNIT         DATA                                DESCRIPTION OF MNEMONIC
#------------------------------------------------------------------------------
 STRT.M         37.0600                            :   START DEPTH
 STOP.M        510.0000                            :   STOP DEPTH
 STEP.M          0.0100                            :   STEP VALUE
 NULL.        -999.2500                            :   NULL VALUE
 COMP.    WHITE YOUN GREEN                         :   COMPANY NAME
 WELL.    DAWDON SHAFT                             :   WELL NAME
 FLD.     DAWDON                                   :   FIELD NAME
 LOC.     N/A                                      :   LOCATION
 PROV.    N/A                                      :   PROVINCE
 SRVC.    N/A                                      :   SERVICE COMPANY NAME
 DATE.    13 Dec 06                                :   DATE
 UWI.     N/A                                      :   UNIQUE WELL IDENTIFIER
~PARAMETER INFORMATION
#MNEMO.UNIT         VALUE                 DESCRIPTION OF MNEMONIC
#------------------------------------------------------------------------------
~OTHER INFORMATION SECTION
#------------------------------------------------------------------------------
 lLOGGING DOWN
~CURVE INFORMATION
#MNEMO.UNIT         API CODE              CURVE DESCRIPTION
#------------------------------------------------------------------------------
 DEPTH.M                                 :   0     Depth
 TEMP.DegC                               :   1     Temperature
 CN25.mS/cm                              :   2     Conductivity@25DegC
 COND.mS/cm                              :   3     Conductivity
 DELT.DegC                               :   4     Delta T
 DELC.mS/cm                              :   5     Delta C
 NGAM.CPS                                :   6     Natural Gamma
#------------------------------------------------------------------------------
~A  DEPTH     TEMP      CN25      COND      DELT      DELC      NGAM      
# ...
   225.77     15.82     60.69     47.61      0.00     -0.01      0.00 
   225.78     15.82     60.68     47.61      0.00     -0.01      0.00 
   225.79     15.82     60.68     47.61      0.01     -0.02      0.00 
   225.80     15.82     60.68     47.61      0.01     -0.03      0.00 
   225.81     15.82     60.67     47.61      0.01     -0.03      0.00 
   225.82     15.83     60.67     47.61      0.01     -0.03      0.00 
   225.83     15.83     60.67     47.61      0.02     -0.03      0.00 
   225.84     15.83     60.67     47.61      0.01     -0.03      0.00 
   225.85     15.83     60.67     47.61      0.01     -0.03      0.00 
   225.86     15.83     60.67     47.61      0.01     -0.02      0.35 
   225.87     15.83     60.67     47.61      0.01     -0.02      0.76 
   225.88     15.83     60.67     47.61      0.01     -0.02      0.76 
   225.89     15.82     60.67     47.61      0.01     -0.02      0.76 
   225.90     15.82     60.68     47.61      0.01     -0.01      0.76 
   225.91     15.82     60.68     47.61      0.00     -0.01      0.76 
   225.92     15.82     60.69     47.61      0.00     -0.01      0.76 
   225.93     15.82     60.69     47.61      0.00     -0.00      0.76 
   225.94     15.82     60.70     47.61      0.00     -0.00      0.76 
   225.95     15.82     60.70     47.61      0.00     -0.00      0.76 
   225.96     15.82     60.70     47.61      0.00     -0.00      0.76 
   225.97     15.82     60.70     47.61      0.00     -0.00      0.76 
   225.98     15.81     60.70     47.61      0.00     -0.00      0.76 
   225.99     15.81     60.70     47.61      0.00      0.00      0.76 
   226.00     15.81     60.71     47.61     -0.00      0.01      0.76 
   226.01     15.81     60.71     47.61     -0.00      0.01      0.76 
   226.02     15.81     60.71     47.61     -0.01      0.02      0.76 
   226.03     15.81     60.71     47.61     -0.01      0.02      0.41 
   226.04     15.81     60.71     47.61     -0.01      0.03      0.00 
   226.05     15.81     60.71     47.61     -0.01      0.04      0.35 
   226.06     15.81     60.71     47.61     -0.01      0.04      0.35 
   226.07     15.81     60.71     47.61     -0.01      0.04      0.35 
   226.08     15.81     60.71     47.61     -0.01      0.04      0.76 
   226.09     15.81     60.71     47.61     -0.01      0.04      0.76 
   226.10     15.81     60.71     47.61     -0.01      0.04      0.76 
   226.11     15.81     60.71     47.61     -0.01      0.04      0.76 
   226.12     15.81     60.71     47.61     -0.01      0.03      0.76 
   226.13     15.82     60.70     47.61     -0.01      0.02      0.76 
   226.14     15.82     60.70     47.61     -0.01      0.01      0.76 
   226.15     15.82     60.69     47.61     -0.00      0.00      0.76 
   226.16     15.82     60.69     47.61     -0.00     -0.00      0.76 
   226.17     15.82     60.69     47.61      0.00     -0.00      0.76 
   226.18     15.82     60.69     47.61      0.00     -0.01      0.76 
   226.19     15.82     60.68     47.61      0.00     -0.01      0.76 
   226.20     15.82     60.68     47.61      0.00     -0.02      1.12 
   226.21     15.82     60.68     47.60      0.01     -0.02      1.12 
   226.22     15.82     60.68     47.60      0.01     -0.03      0.76 
   226.23     15.82     60.68     47.61      0.01     -0.03      0.76 
   226.24     15.82     60.68     47.61      0.00     -0.02      0.76 
   226.25     15.82     60.68     47.60      0.00     -0.01      0.35 
   226.26     15.82     60.68     47.61     -0.00      0.00      0.35 
   226.27     15.82     60.69     47.61     -0.00      0.01      0.35 
   226.28     15.82     60.69     47.61     -0.00      0.01      0.35 
   226.29     15.82     60.69     47.61     -0.00      0.02      0.35 
   226.30     15.82     60.69     47.61     -0.00      0.02      0.35 
   226.31     15.82     60.69     47.61     -0.01      0.02      0.35 
   226.32     15.82     60.69     47.61     -0.01      0.02      0.35 
   226.33     15.82     60.69     47.61     -0.01      0.03      0.35 
   226.34     15.82     60.69     47.61     -0.01      0.03      0.35 
   226.35     15.82     60.69     47.61     -0.01      0.03      0.35 
   226.36     15.82     60.69     47.61     -0.01      0.02      0.35 
   226.37     15.82     60.69     47.61     -0.01      0.01      0.00 
   226.38     15.82     60.69     47.61     -0.00      0.01      0.00 
   226.39     15.82     60.69     47.61     -0.00      0.01      0.00 
   226.40     15.82     60.69     47.61     -0.01      0.02      0.00 
   226.41     15.82     60.70     47.61     -0.01      0.02      0.00 
   226.42     15.82     60.70     47.61     -0.01      0.02      0.00 
   226.43     15.81     60.70     47.61     -0.01      0.02      0.00 
   226.44     15.82     60.70     47.61     -0.01      0.02      0.00 
   226.45     15.82     60.70     47.61     -0.00      0.01      0.00 
   226.46     15.82     60.69     47.61     -0.00      0.01      0.41 
   226.47     15.82     60.70     47.61     -0.00      0.01      0.41 
   226.48     15.82     60.70     47.61     -0.01      0.02      0.82 
   226.49     15.81     60.71     47.61     -0.01      0.02      0.82 
   226.50     15.81     60.71     47.61     -0.01      0.02      0.82 
   226.51     15.81     60.71     47.61     -0.01      0.02      0.82 
   226.52     15.81     60.70     47.61     -0.00      0.01      0.82 
   226.53     15.82     60.70     47.61     -0.00      0.01      0.82 
   226.54     15.82     60.70     47.61     -0.00      0.01      1.24 
   226.55     15.82     60.70     47.61     -0.00      0.01      1.24 
   226.56     15.81     60.70     47.61     -0.00      0.01      1.24 
   226.57     15.82     60.70     47.61     -0.00      0.01      1.65 
   226.58     15.82     60.70     47.61     -0.00      0.01      1.65 
   226.59     15.82     60.70     47.61     -0.00      0.01      1.65 
   226.60     15.82     60.69     47.61     -0.00      0.01      1.65 
   226.61     15.82     60.69     47.61     -0.00      0.00      1.65 
   226.62     15.82     60.69     47.61     -0.00     -0.00      2.06 
   226.63     15.82     60.69     47.61      0.00     -0.00      1.65 
   226.64     15.82     60.70     47.61      0.00      0.00      1.65 
   226.65     15.81     60.70     47.61      0.00     -0.00      1.24 
   226.66     15.81     60.70     47.61     -0.00      0.00      1.24 
   226.67     15.81     60.70     47.60     -0.00     -0.00      1.24 
   226.68     15.81     60.70     47.61     -0.00     -0.00      1.24 
   226.69     15.81     60.70     47.61      0.00     -0.00      1.65 
   226.70     15.81     60.70     47.61      0.00      0.00      1.65 
   226.71     15.81     60.69     47.60      0.00     -0.01      1.24 
   226.72     15.82     60.69     47.61      0.00     -0.01      1.24 
   226.73     15.82     60.70     47.61      0.00      0.00      1.24 
   226.74     15.82     60.70     47.61     -0.00      0.01      0.82 
   226.75     15.82     60.69     47.61     -0.00     -0.00      0.82 
   226.76     15.82     60.69     47.61     -0.00      0.00      1.24 
   226.77     15.82     60.69     47.61     -0.00      0.00      1.24 
   226.78     15.82     60.69     47.61     -0.00      0.00      1.24 
   226.79     15.82     60.69     47.61     -0.00      0.01      0.82 
   226.80     15.82     60.69     47.61     -0.01      0.01      0.82 
   226.81     15.82     60.69     47.61     -0.01      0.02      0.82 
   226.82     15.82     60.70     47.62     -0.01      0.03      1.24 
   226.83     15.82     60.69     47.61     -0.01      0.03      1.24 
   226.84     15.82     60.69     47.62     -0.01      0.02      1.24 
   226.85     15.82     60.69     47.61     -0.01      0.02      1.24 
   226.86     15.82     60.69     47.61     -0.01      0.02      0.82 
   226.87     15.82     60.69     47.61     -0.01      0.02      0.82 
   226.88     15.82     60.70     47.61     -0.01      0.03      0.82 
   226.89     15.81     60.71     47.61     -0.01      0.03      0.82 
