#Written by Robertson Geologging WinLogger V1.0/406
~VERSION INFORMATION
#------------------------------------------------------------------------------
 VERS. 2.0 : CWLS LOG ASCII STANDARD - VERSION 2.0
 WRAP. NO  : ONE LINE PER DEPTH STEP
~WELL INFORMATION
#MNEM.UNIT         DATA                                DESCRIPTION OF MNEMONIC
#------------------------------------------------------------------------------
 STRT.M         40.0600                            :   START DEPTH
 STOP.M        498.0000                            :   STOP DEPTH
 STEP.M          0.0100                            :   STEP VALUE
 NULL.        -999.2500                            :   NULL VALUE
 COMP.    Coal Authority                           :   COMPANY NAME
 WELL.    Dawdon                                   :   WELL NAME
 FLD.     N/A                                      :   FIELD NAME
 LOC.     N/A                                      :   LOCATION
 PROV.    N/A                                      :   PROVINCE
 SRVC.    N/A                                      :   SERVICE COMPANY NAME
 DATE.    30 Sep 08                                :   DATE
 UWI.     N/A                                      :   UNIQUE WELL IDENTIFIER
~PARAMETER INFORMATION
#MNEMO.UNIT         VALUE                 DESCRIPTION OF MNEMONIC
#------------------------------------------------------------------------------
~OTHER INFORMATION SECTION
#------------------------------------------------------------------------------
 TCGS2822
~CURVE INFORMATION
#MNEMO.UNIT         API CODE              CURVE DESCRIPTION
#------------------------------------------------------------------------------
 DEPTH.M                                 :   0     Depth
 TEMP.DegC                               :   1     Temperature
 COND.uS/cm                              :   2     Conductivity
 DELT.DegC                               :   3     Delta T
 DELC.uS/cm                              :   4     Delta C
 NGAM.CPS                                :   5     Natural Gamma
#------------------------------------------------------------------------------
~A  DEPTH     TEMP      COND      DELT      DELC      NGAM      
# ...
   466.42     21.75  46635.62      0.04    -19.99      0.00 
   466.43     21.75  46646.20      0.03      1.18      0.00 
   466.44     21.75  46645.02      0.03      7.05      8.00 
   466.45     21.74  46635.62      0.02     -9.41      0.00 
   466.46     21.74  46645.02      0.03      0.00      0.00 
   466.47     21.76  46646.20      0.04      1.18      7.00 
   466.48     21.75  46645.02      0.03      0.00      0.00 
   466.49     21.75  46635.62      0.03    -10.58      8.00 
   466.50     21.74  46635.62      0.03    -19.99      8.00 
   466.51     21.74  46645.02      0.03      0.00      0.00 
   466.52     21.74  46646.20      0.03      0.00      0.00 
   466.53     21.74  46635.62      0.02     -9.41      8.00 
   466.54     21.73  46645.02      0.02      0.00      0.00 
   466.55     21.74  46645.02      0.03      0.00      0.00 
   466.56     21.73  46637.97      0.03      0.00      0.00 
   466.57     21.73  46645.02      0.03      0.00      8.00 
   466.58     21.74  46645.02      0.04      0.00      0.00 
   466.59     21.74  46645.02      0.02      0.00      0.00 
   466.60     21.76  46646.20      0.03      0.00      0.00 
   466.61     21.77  46626.21      0.05    -18.81      8.00 
   466.62     21.76  46645.02      0.03      0.00      0.00 
   466.63     21.76  46645.02      0.04      0.00      0.00 
   466.64     21.77  46637.97      0.06     -8.23      0.00 
   466.65     21.77  46645.02      0.05      0.00      0.00 
   466.66     21.77  46645.02      0.04    -10.58      0.00 
   466.67     21.76  46635.62      0.02      0.00      0.00 
   466.68     21.75  46645.02      0.01     -1.18      0.00 
   466.69     21.75  46646.20      0.00      1.18      0.00 
   466.70     21.75  46635.62      0.03     -9.41      0.00 
   466.71     21.77  46645.02      0.06      0.00     16.00 
   466.72     21.76  46645.02      0.06     -1.18      0.00 
   466.73     21.76  46629.74      0.07    -15.28      0.00 
   466.74     21.77  46645.02      0.06      0.00      0.00 
   466.75     21.75  46645.02      0.03      0.00      8.00 
   466.76     21.76  46635.62      0.03     -9.41      0.00 
   466.77     21.75  46646.20      0.02      0.00      0.00 
   466.78     21.74  46635.62      0.01     -9.41      0.00 
   466.79     21.75  46645.02      0.02      9.41      0.00 
   466.80     21.74  46645.02      0.00    -10.58      0.00 
   466.81     21.75  46635.62      0.02     -9.41      8.00 
   466.82     21.77  46645.02      0.04     -1.18      0.00 
   466.83     21.78  46645.02      0.06      0.00      0.00 
   466.84     21.77  46637.97      0.06     -7.05      0.00 
   466.85     21.77  46635.62      0.06     -9.41      0.00 
   466.86     21.75  46645.02      0.04      0.00      8.00 
   466.87     21.73  46645.02      0.01      0.00      8.00 
   466.88     21.74  46635.62      0.02     -9.41      0.00 
   466.89     21.74  46645.02      0.02     -1.18      0.00 
   466.90     21.75  46645.02      0.03      9.41      0.00 
   466.91     21.75  46637.97      0.03     -7.05      7.00 
   466.92     21.76  46645.02      0.05      0.00      0.00 
   466.93     21.77  46635.62      0.04     -9.41      0.00 
   466.94     21.76  46645.02      0.02     -1.18      0.00 
   466.95     21.77  46637.97      0.03     -7.05      0.00 
   466.96     21.77  46635.62      0.03     -9.41      8.00 
   466.97     21.76  46645.02      0.02      0.00      0.00 
   466.98     21.76  46635.62      0.03     -9.41      0.00 
   466.99     21.75  46646.20      0.01      8.23      0.00 
   467.00     21.75  46645.02      0.01    -10.58      0.00 
   467.01     21.76  46635.62      0.02      0.00      8.00 
   467.02     21.77  46645.02      0.04      7.05      0.00 
   467.03     21.77  46645.02      0.04      0.00      0.00 
   467.04     21.78  46637.97      0.03     -7.05      7.00 
   467.05     21.76  46645.02      0.03      0.00      0.00 
   467.06     21.76  46635.62      0.01    -10.58      0.00 
   467.07     21.76  46645.02      0.02      0.00     16.00 
   467.08     21.76  46637.97      0.04     -7.05      0.00 
   467.09     21.77  46635.62      0.03     -9.41      0.00 
   467.10     21.77  46645.02      0.04     -1.18      8.00 
   467.11     21.77  46637.97      0.06      2.35      7.00 
   467.12     21.77  46645.02      0.05      0.00      0.00 
   467.13     21.77  46645.02      0.06      0.00      0.00 
   467.14     21.76  46635.62      0.04     -2.35      8.00 
   467.15     21.75  46637.97      0.02     -7.05      7.00 
   467.16     21.76  46645.02      0.03      0.00      8.00 
   467.17     21.76  46645.02      0.00      0.00      0.00 
   467.18     21.77  46645.02      0.01      0.00      8.00 
   467.19     21.77  46637.97      0.02     -8.23      7.00 
   467.20     21.77  46635.62      0.04     -9.41      0.00 
   467.21     21.78  46645.02      0.06      0.00      0.00 
   467.22     21.78  46635.62      0.07     -9.41      0.00 
   467.23     21.78  46645.02      0.06      9.41      0.00 
   467.24     21.77  46645.02      0.03    -10.58      0.00 
   467.25     21.77  46635.62      0.02      9.40      0.00 
   467.26     21.78  46645.02      0.02      0.00      0.00 
   467.27     21.78  46635.62      0.03     -9.41      0.00 
   467.28     21.79  46645.02      0.04      0.00      0.00 
   467.29     21.80  46637.97      0.04      0.00      0.00 
   467.30     21.79  46645.02      0.04      1.18      0.00 
   467.31     21.78  46635.62      0.04    -10.58      8.00 
   467.32     21.77  46635.62      0.04     -9.41      0.00 
   467.33     21.75  46645.02      0.03      0.00      0.00 
   467.34     21.76  46635.62      0.04     -9.41      0.00 
   467.35     21.76  46645.02      0.02      0.00      8.00 
   467.36     21.77  46645.02      0.01      0.00      0.00 
   467.37     21.78  46637.97      0.02      8.23      0.00 
   467.38     21.76  46645.02      0.01      0.00      0.00 
   467.39     21.76  46645.02      0.02      0.00      0.00 
   467.40     21.76  46635.62      0.02     -9.41      8.00 
   467.41     21.77  46646.20      0.02     10.58     14.00 
   467.42     21.76  46635.62      0.01    -10.58      0.00 
   467.43     21.75  46635.62      0.00     -9.41      8.00 
   467.44     21.77  46635.62      0.03      0.00      0.00 
   467.45     21.76  46645.02      0.02      0.00      0.00 
   467.46     21.77  46637.97      0.01     -8.23      0.00 
   467.47     21.77  46645.02      0.02      0.00      0.00 
   467.48     21.76  46635.62      0.01      0.00      8.00 
   467.49     21.77  46645.02      0.02      9.41      0.00 
   467.50     21.78  46646.20      0.04      1.18      0.00 
   467.51     21.78  46635.62      0.04    -10.58      8.00 
   467.52     21.78  46645.02      0.04      9.41      0.00 
   467.53     21.78  46635.62      0.05     -9.41      0.00 
   467.54     21.77  46646.20      0.03      1.18      7.00 
   467.55     21.76  46635.62      0.03     -2.35      8.00 
   467.56     21.77  46635.62      0.03     -9.41      0.00 
   467.57     21.77  46645.02      0.02      0.00      0.00 
   467.58     21.78  46637.97      0.03     -7.05      0.00 
   467.59     21.77  46645.02      0.01     -1.18      8.00 
   467.60     21.77  46635.62      0.00      9.40      0.00 
   467.61     21.76  46645.02      0.00      0.00      0.00 
   467.62     21.76  46637.97     -0.00     -7.05      0.00 
   467.63     21.76  46645.02     -0.01      7.05      0.00 
   467.64     21.76  46645.02     -0.01      0.00      0.00 
   467.65     21.76  46637.97     -0.01     -7.05      0.00 
   467.66     21.75  46626.21     -0.00     -9.40      8.00 
   467.67     21.76  46645.02      0.01      0.00      8.00 
   467.68     21.77  46645.02      0.02     -1.18      0.00 
   467.69     21.78  46635.62      0.02      0.00      0.00 
   467.70     21.79  46646.20      0.02      1.18      0.00 
   467.71     21.79  46645.02      0.03      0.00      8.00 
   467.72     21.78  46635.62      0.02      5.88      0.00 
   467.73     21.79  46645.02      0.02      0.00      0.00 
