#Written by Robertson Geologging WinLogger V1.0/370
~VERSION INFORMATION
#------------------------------------------------------------------------------
 VERS. 2.0 : CWLS LOG ASCII STANDARD - VERSION 2.0
 WRAP. NO  : ONE LINE PER DEPTH STEP
~WELL INFORMATION
#MNEM.UNIT         DATA                                DESCRIPTION OF MNEMONIC
#------------------------------------------------------------------------------
 STRT.M         37.0600                            :   START DEPTH
 STOP.M        510.0000                            :   STOP DEPTH
 STEP.M          0.0100                            :   STEP VALUE
 NULL.        -999.2500                            :   NULL VALUE
 COMP.    WHITE YOUN GREEN                         :   COMPANY NAME
 WELL.    DAWDON SHAFT                             :   WELL NAME
 FLD.     DAWDON                                   :   FIELD NAME
 LOC.     N/A                                      :   LOCATION
 PROV.    N/A                                      :   PROVINCE
 SRVC.    N/A                                      :   SERVICE COMPANY NAME
 DATE.    13 Dec 06                                :   DATE
 UWI.     N/A                                      :   UNIQUE WELL IDENTIFIER
~PARAMETER INFORMATION
#MNEMO.UNIT         VALUE                 DESCRIPTION OF MNEMONIC
#------------------------------------------------------------------------------
~OTHER INFORMATION SECTION
#------------------------------------------------------------------------------
 lLOGGING DOWN
~CURVE INFORMATION
#MNEMO.UNIT         API CODE              CURVE DESCRIPTION
#------------------------------------------------------------------------------
 DEPTH.M                                 :   0     Depth
 TEMP.DegC                               :   1     Temperature
 CN25.mS/cm                              :   2     Conductivity@25DegC
 COND.mS/cm                              :   3     Conductivity
 DELT.DegC                               :   4     Delta T
 DELC.mS/cm                              :   5     Delta C
 NGAM.CPS                                :   6     Natural Gamma
#------------------------------------------------------------------------------
~A  DEPTH     TEMP      CN25      COND      DELT      DELC      NGAM      
# ...
   289.05     15.93     61.31     48.36      0.01      0.06      1.12 
   289.06     15.94     61.30     48.36      0.01      0.05      1.12 
   289.07     15.94     61.30     48.36      0.01      0.03      0.76 
   289.08     15.94     61.31     48.36      0.02      0.04      0.76 
   289.09     15.94     61.30     48.36      0.02      0.03      0.76 
   289.10     15.93     61.31     48.36      0.01      0.04      0.76 
   289.11     15.93     61.32     48.36      0.01      0.04      0.76 
   289.12     15.93     61.32     48.36      0.01      0.05      0.76 
   289.13     15.93     61.33     48.36      0.01      0.06      0.35 
   289.14     15.93     61.33     48.36      0.00      0.06      0.35 
   289.15     15.93     61.33     48.36      0.00      0.07      0.35 
   289.16     15.93     61.34     48.36     -0.00      0.08      0.35 
   289.17     15.92     61.35     48.37     -0.01      0.09      0.35 
   289.18     15.92     61.35     48.37     -0.01      0.10      0.35 
   289.19     15.92     61.36     48.37     -0.01      0.11      0.35 
   289.20     15.92     61.35     48.37     -0.01      0.11      0.35 
   289.21     15.92     61.35     48.37     -0.01      0.11      0.00 
   289.22     15.93     61.34     48.37     -0.01      0.11      0.00 
   289.23     15.93     61.34     48.37     -0.01      0.11      0.00 
   289.24     15.93     61.35     48.37     -0.01      0.11      0.00 
   289.25     15.93     61.34     48.37     -0.01      0.10      0.00 
   289.26     15.93     61.34     48.37     -0.01      0.10      0.00 
   289.27     15.93     61.35     48.37     -0.01      0.10      0.00 
   289.28     15.93     61.34     48.37     -0.01      0.09      0.00 
   289.29     15.93     61.34     48.37     -0.00      0.09      0.00 
   289.30     15.93     61.33     48.37     -0.00      0.08      0.00 
   289.31     15.93     61.33     48.37     -0.00      0.08      0.00 
   289.32     15.93     61.33     48.37     -0.00      0.07      0.00 
   289.33     15.93     61.33     48.37      0.00      0.07      0.00 
   289.34     15.93     61.33     48.37      0.00      0.06      0.00 
   289.35     15.93     61.33     48.37      0.01      0.05      0.00 
   289.36     15.93     61.34     48.38      0.01      0.05      0.00 
   289.37     15.93     61.34     48.38      0.01      0.05      0.00 
   289.38     15.93     61.35     48.38      0.01      0.05      0.00 
   289.39     15.93     61.36     48.38      0.00      0.07      0.00 
   289.40     15.92     61.37     48.38     -0.00      0.08      0.00 
   289.41     15.92     61.37     48.38     -0.00      0.08      0.00 
   289.42     15.92     61.38     48.38     -0.01      0.09      0.00 
   289.43     15.92     61.38     48.38     -0.01      0.10      0.00 
   289.44     15.92     61.39     48.38     -0.01      0.11      0.00 
   289.45     15.92     61.38     48.38     -0.02      0.12      0.00 
   289.46     15.92     61.38     48.38     -0.02      0.11      0.00 
   289.47     15.92     61.38     48.38     -0.02      0.12      0.00 
   289.48     15.92     61.37     48.38     -0.02      0.12      0.00 
   289.49     15.93     61.36     48.38     -0.02      0.11      0.00 
   289.50     15.93     61.36     48.38     -0.01      0.10      0.00 
   289.51     15.93     61.35     48.38     -0.01      0.10      0.00 
   289.52     15.93     61.35     48.39     -0.01      0.09      0.00 
   289.53     15.93     61.35     48.39     -0.01      0.09      0.00 
   289.54     15.93     61.35     48.39     -0.01      0.08      0.00 
   289.55     15.93     61.35     48.39     -0.00      0.08      0.00 
   289.56     15.93     61.35     48.39     -0.00      0.08      0.41 
   289.57     15.93     61.35     48.39     -0.00      0.08      0.41 
   289.58     15.93     61.35     48.39     -0.00      0.07      0.41 
   289.59     15.93     61.35     48.39     -0.00      0.08      0.41 
   289.60     15.93     61.36     48.39     -0.00      0.08      0.76 
   289.61     15.93     61.36     48.39     -0.00      0.08      0.76 
   289.62     15.93     61.35     48.39      0.00      0.07      0.76 
   289.63     15.94     61.35     48.40      0.00      0.07      0.76 
   289.64     15.94     61.35     48.40      0.01      0.06      0.76 
   289.65     15.94     61.35     48.40      0.01      0.06      0.76 
   289.66     15.94     61.35     48.40      0.01      0.05      0.76 
   289.67     15.94     61.34     48.40      0.01      0.05      1.18 
   289.68     15.94     61.34     48.40      0.01      0.05      1.18 
   289.69     15.94     61.35     48.40      0.01      0.05      1.18 
   289.70     15.94     61.34     48.40      0.01      0.04      1.18 
   289.71     15.94     61.35     48.40      0.01      0.05      1.18 
   289.72     15.94     61.35     48.40      0.01      0.05      1.18 
   289.73     15.94     61.36     48.40      0.01      0.06      0.76 
   289.74     15.94     61.36     48.40      0.00      0.06      1.18 
   289.75     15.94     61.36     48.40      0.00      0.06      1.18 
   289.76     15.94     61.36     48.41      0.00      0.07      1.18 
   289.77     15.94     61.36     48.41      0.00      0.07      0.82 
   289.78     15.94     61.36     48.41      0.00      0.07      0.82 
   289.79     15.94     61.36     48.41      0.00      0.07      0.82 
   289.80     15.94     61.36     48.41      0.00      0.06      0.82 
   289.81     15.94     61.36     48.41      0.01      0.06      0.82 
   289.82     15.94     61.36     48.41      0.01      0.06      0.82 
   289.83     15.94     61.36     48.41      0.01      0.05      0.82 
   289.84     15.94     61.36     48.41      0.01      0.05      0.41 
   289.85     15.94     61.37     48.41      0.02      0.04      0.41 
   289.86     15.94     61.37     48.41      0.02      0.04      0.41 
   289.87     15.94     61.37     48.41      0.02      0.04      0.41 
   289.88     15.94     61.37     48.41      0.02      0.04      0.41 
   289.89     15.94     61.38     48.42      0.02      0.04      0.41 
   289.90     15.94     61.38     48.42      0.02      0.04      0.41 
   289.91     15.93     61.39     48.42      0.01      0.04      0.00 
   289.92     15.93     61.38     48.41      0.01      0.04      0.00 
   289.93     15.93     61.39     48.42      0.01      0.05      0.35 
   289.94     15.93     61.39     48.42      0.01      0.06      0.35 
   289.95     15.93     61.39     48.42      0.01      0.06      0.35 
   289.96     15.93     61.39     48.42      0.00      0.07      0.35 
   289.97     15.93     61.39     48.42      0.00      0.08      0.76 
   289.98     15.93     61.39     48.42      0.00      0.08      0.76 
   289.99     15.93     61.39     48.42      0.00      0.08      0.76 
   290.00     15.93     61.40     48.42      0.00      0.08      0.76 
   290.01     15.93     61.39     48.42      0.00      0.08      0.76 
   290.02     15.93     61.40     48.43      0.00      0.08      0.76 
   290.03     15.93     61.40     48.43      0.00      0.08      0.76 
   290.04     15.94     61.39     48.43      0.00      0.09      0.76 
   290.05     15.94     61.39     48.43      0.00      0.09      0.76 
   290.06     15.94     61.39     48.43      0.00      0.09      0.76 
   290.07     15.94     61.38     48.43      0.01      0.07      0.76 
   290.08     15.95     61.37     48.43      0.01      0.07      0.76 
   290.09     15.95     61.37     48.44      0.01      0.06      1.18 
   290.10     15.95     61.37     48.44      0.02      0.05      0.82 
   290.11     15.95     61.37     48.44      0.02      0.04      0.82 
   290.12     15.95     61.37     48.44      0.02      0.04      0.82 
   290.13     15.95     61.37     48.44      0.02      0.04      0.82 
   290.14     15.95     61.37     48.44      0.02      0.04      0.41 
   290.15     15.95     61.37     48.44      0.02      0.04      0.41 
   290.16     15.95     61.37     48.44      0.03      0.03      0.76 
   290.17     15.95     61.38     48.44      0.03      0.03      0.76 
