#Written by Robertson Geologging WinLogger V1.0/370
~VERSION INFORMATION
#------------------------------------------------------------------------------
 VERS. 2.0 : CWLS LOG ASCII STANDARD - VERSION 2.0
 WRAP. NO  : ONE LINE PER DEPTH STEP
~WELL INFORMATION
#MNEM.UNIT         DATA                                DESCRIPTION OF MNEMONIC
#------------------------------------------------------------------------------
 STRT.M         37.0600                            :   START DEPTH
 STOP.M        510.0000                            :   STOP DEPTH
 STEP.M          0.0100                            :   STEP VALUE
 NULL.        -999.2500                            :   NULL VALUE
 COMP.    WHITE YOUN GREEN                         :   COMPANY NAME
 WELL.    DAWDON SHAFT                             :   WELL NAME
 FLD.     DAWDON                                   :   FIELD NAME
 LOC.     N/A                                      :   LOCATION
 PROV.    N/A                                      :   PROVINCE
 SRVC.    N/A                                      :   SERVICE COMPANY NAME
 DATE.    13 Dec 06                                :   DATE
 UWI.     N/A                                      :   UNIQUE WELL IDENTIFIER
~PARAMETER INFORMATION
#MNEMO.UNIT         VALUE                 DESCRIPTION OF MNEMONIC
#------------------------------------------------------------------------------
~OTHER INFORMATION SECTION
#------------------------------------------------------------------------------
 lLOGGING DOWN
~CURVE INFORMATION
#MNEMO.UNIT         API CODE              CURVE DESCRIPTION
#------------------------------------------------------------------------------
 DEPTH.M                                 :   0     Depth
 TEMP.DegC                               :   1     Temperature
 CN25.mS/cm                              :   2     Conductivity@25DegC
 COND.mS/cm                              :   3     Conductivity
 DELT.DegC                               :   4     Delta T
 DELC.mS/cm                              :   5     Delta C
 NGAM.CPS                                :   6     Natural Gamma
#------------------------------------------------------------------------------
~A  DEPTH     TEMP      CN25      COND      DELT      DELC      NGAM      
# ...
   320.69     16.38     68.09     54.89      0.03      0.16      0.00 
   320.70     16.37     68.10     54.89      0.03      0.16      0.00 
   320.71     16.37     68.10     54.90      0.03      0.15      0.41 
   320.72     16.37     68.11     54.90      0.03      0.15      0.82 
   320.73     16.37     68.11     54.90      0.03      0.15      0.82 
   320.74     16.37     68.12     54.90      0.03      0.15      0.82 
   320.75     16.37     68.12     54.90      0.03      0.14      0.82 
   320.76     16.37     68.12     54.90      0.03      0.15      0.82 
   320.77     16.37     68.12     54.90      0.03      0.15      1.24 
   320.78     16.37     68.12     54.91      0.03      0.16      1.24 
   320.79     16.37     68.13     54.91      0.03      0.16      1.24 
   320.80     16.37     68.13     54.91      0.03      0.15      1.24 
   320.81     16.37     68.14     54.91      0.02      0.16      1.24 
   320.82     16.37     68.13     54.91      0.02      0.16      1.24 
   320.83     16.37     68.13     54.91      0.02      0.16      1.24 
   320.84     16.38     68.12     54.92      0.02      0.16      1.24 
   320.85     16.38     68.11     54.91      0.02      0.15      1.24 
   320.86     16.38     68.12     54.92      0.02      0.16      1.24 
   320.87     16.38     68.12     54.92      0.02      0.15      1.24 
   320.88     16.37     68.13     54.92      0.02      0.16      0.82 
   320.89     16.37     68.13     54.92      0.02      0.16      0.41 
   320.90     16.38     68.13     54.92      0.02      0.14      0.41 
   320.91     16.38     68.13     54.93      0.02      0.15      0.41 
   320.92     16.38     68.13     54.93      0.02      0.15      0.41 
   320.93     16.38     68.13     54.93      0.03      0.14      0.41 
   320.94     16.37     68.14     54.93      0.02      0.14      0.00 
   320.95     16.37     68.15     54.93      0.02      0.15      0.00 
   320.96     16.37     68.16     54.93      0.02      0.15      0.82 
   320.97     16.37     68.15     54.93      0.02      0.14      0.82 
   320.98     16.38     68.14     54.93      0.03      0.12      0.82 
   320.99     16.38     68.13     54.93      0.03      0.11      0.82 
   321.00     16.38     68.12     54.93      0.04      0.09      1.24 
   321.01     16.39     68.12     54.94      0.04      0.09      1.24 
   321.02     16.39     68.12     54.93      0.04      0.08      1.24 
   321.03     16.38     68.12     54.94      0.04      0.09      1.24 
   321.04     16.38     68.12     54.94      0.04      0.09      1.24 
   321.05     16.38     68.13     54.94      0.04      0.09      2.47 
   321.06     16.39     68.12     54.94      0.04      0.08      2.47 
   321.07     16.39     68.12     54.94      0.04      0.09      2.47 
   321.08     16.38     68.14     54.95      0.04      0.10      2.47 
   321.09     16.38     68.14     54.95      0.03      0.11      2.47 
   321.10     16.38     68.15     54.95      0.02      0.12      2.47 
   321.11     16.38     68.16     54.95      0.02      0.14      2.47 
   321.12     16.38     68.16     54.95      0.02      0.14      2.47 
   321.13     16.38     68.16     54.95      0.02      0.15      1.65 
   321.14     16.38     68.16     54.95      0.02      0.14      1.65 
   321.15     16.38     68.16     54.95      0.02      0.15      1.65 
   321.16     16.38     68.16     54.95      0.01      0.15      1.65 
   321.17     16.38     68.16     54.96      0.01      0.16      1.65 
   321.18     16.38     68.17     54.96      0.01      0.16      1.65 
   321.19     16.38     68.17     54.96      0.01      0.16      1.65 
   321.20     16.38     68.17     54.96      0.01      0.16      1.65 
   321.21     16.38     68.16     54.96      0.01      0.15      1.65 
   321.22     16.38     68.16     54.96      0.02      0.14      0.41 
   321.23     16.38     68.16     54.96      0.02      0.13      0.41 
   321.24     16.39     68.16     54.97      0.02      0.13      0.41 
   321.25     16.39     68.16     54.97      0.02      0.12      0.41 
   321.26     16.39     68.16     54.97      0.02      0.12      0.41 
   321.27     16.39     68.16     54.97      0.02      0.12      0.41 
   321.28     16.39     68.16     54.97      0.02      0.12      0.82 
   321.29     16.39     68.16     54.97      0.02      0.12      0.82 
   321.30     16.39     68.16     54.97      0.03      0.11      0.82 
   321.31     16.39     68.15     54.97      0.03      0.11      0.82 
   321.32     16.39     68.16     54.97      0.02      0.11      1.24 
   321.33     16.39     68.16     54.98      0.02      0.13      1.24 
   321.34     16.38     68.18     54.98      0.01      0.15      0.82 
   321.35     16.38     68.18     54.98      0.01      0.15      1.24 
   321.36     16.38     68.18     54.98      0.01      0.15      1.24 
   321.37     16.38     68.19     54.98      0.01      0.14      1.24 
   321.38     16.38     68.18     54.98      0.01      0.13      1.24 
   321.39     16.38     68.18     54.98      0.02      0.13      1.65 
   321.40     16.38     68.18     54.98      0.02      0.12      1.65 
   321.41     16.38     68.18     54.98      0.02      0.12      1.65 
   321.42     16.38     68.18     54.98      0.02      0.12      1.65 
   321.43     16.39     68.18     54.99      0.02      0.11      1.65 
   321.44     16.39     68.17     54.99      0.03      0.09      1.65 
   321.45     16.39     68.16     54.98      0.04      0.07      1.24 
   321.46     16.39     68.16     54.99      0.04      0.06      1.24 
   321.47     16.40     68.16     54.99      0.04      0.06      1.24 
   321.48     16.40     68.15     54.99      0.04      0.05      1.24 
   321.49     16.40     68.15     55.00      0.04      0.06      0.82 
   321.50     16.40     68.15     55.00      0.04      0.06      0.82 
   321.51     16.40     68.16     55.00      0.04      0.06      0.82 
   321.52     16.39     68.17     55.00      0.04      0.07      0.41 
   321.53     16.39     68.18     55.00      0.03      0.07      0.41 
   321.54     16.39     68.19     55.00      0.03      0.08      0.82 
   321.55     16.39     68.19     55.00      0.03      0.09      0.82 
   321.56     16.39     68.19     55.01      0.03      0.10      0.88 
   321.57     16.39     68.19     55.00      0.03      0.10      0.88 
   321.58     16.39     68.19     55.01      0.02      0.10      0.88 
   321.59     16.39     68.19     55.01      0.02      0.11      0.88 
   321.60     16.39     68.19     55.01      0.02      0.11      1.35 
   321.61     16.39     68.19     55.01      0.02      0.11      1.35 
   321.62     16.40     68.18     55.01      0.02      0.10      1.35 
   321.63     16.40     68.18     55.02      0.03      0.10      1.76 
   321.64     16.40     68.17     55.02      0.03      0.09      1.76 
   321.65     16.40     68.17     55.02      0.03      0.09      1.76 
   321.66     16.40     68.16     55.02      0.03      0.08      1.76 
   321.67     16.40     68.18     55.02      0.03      0.08      1.76 
   321.68     16.40     68.18     55.02      0.02      0.09      1.76 
   321.69     16.40     68.19     55.02      0.02      0.10      1.76 
   321.70     16.39     68.20     55.02      0.02      0.10      1.76 
   321.71     16.39     68.20     55.02      0.02      0.10      1.35 
   321.72     16.39     68.21     55.02      0.02      0.10      1.35 
   321.73     16.39     68.21     55.03      0.02      0.10      0.88 
   321.74     16.39     68.21     55.02      0.02      0.10      0.88 
   321.75     16.39     68.22     55.03      0.02      0.10      0.88 
   321.76     16.39     68.22     55.03      0.02      0.10      0.88 
   321.77     16.39     68.23     55.03      0.02      0.10      0.82 
   321.78     16.39     68.23     55.03      0.02      0.10      1.24 
   321.79     16.39     68.22     55.03      0.02      0.09      1.24 
   321.80     16.39     68.21     55.03      0.03      0.07      1.65 
   321.81     16.40     68.21     55.03      0.03      0.07      1.65 
