#Written by Robertson Geologging WinLogger V1.0/370
~VERSION INFORMATION
#------------------------------------------------------------------------------
 VERS. 2.0 : CWLS LOG ASCII STANDARD - VERSION 2.0
 WRAP. NO  : ONE LINE PER DEPTH STEP
~WELL INFORMATION
#MNEM.UNIT         DATA                                DESCRIPTION OF MNEMONIC
#------------------------------------------------------------------------------
 STRT.M         37.0600                            :   START DEPTH
 STOP.M        510.0000                            :   STOP DEPTH
 STEP.M          0.0100                            :   STEP VALUE
 NULL.        -999.2500                            :   NULL VALUE
 COMP.    WHITE YOUN GREEN                         :   COMPANY NAME
 WELL.    DAWDON SHAFT                             :   WELL NAME
 FLD.     DAWDON                                   :   FIELD NAME
 LOC.     N/A                                      :   LOCATION
 PROV.    N/A                                      :   PROVINCE
 SRVC.    N/A                                      :   SERVICE COMPANY NAME
 DATE.    13 Dec 06                                :   DATE
 UWI.     N/A                                      :   UNIQUE WELL IDENTIFIER
~PARAMETER INFORMATION
#MNEMO.UNIT         VALUE                 DESCRIPTION OF MNEMONIC
#------------------------------------------------------------------------------
~OTHER INFORMATION SECTION
#------------------------------------------------------------------------------
 lLOGGING DOWN
~CURVE INFORMATION
#MNEMO.UNIT         API CODE              CURVE DESCRIPTION
#------------------------------------------------------------------------------
 DEPTH.M                                 :   0     Depth
 TEMP.DegC                               :   1     Temperature
 CN25.mS/cm                              :   2     Conductivity@25DegC
 COND.mS/cm                              :   3     Conductivity
 DELT.DegC                               :   4     Delta T
 DELC.mS/cm                              :   5     Delta C
 NGAM.CPS                                :   6     Natural Gamma
#------------------------------------------------------------------------------
~A  DEPTH     TEMP      CN25      COND      DELT      DELC      NGAM      
# ...
   352.33     18.08     70.22     60.64      0.12     -0.19      0.41 
   352.34     18.08     70.21     60.64      0.12     -0.19      0.41 
   352.35     18.07     70.22     60.64      0.11     -0.19      0.41 
   352.36     18.07     70.23     60.64      0.11     -0.18      0.41 
   352.37     18.07     70.23     60.64      0.11     -0.18      0.41 
   352.38     18.07     70.23     60.64      0.10     -0.18      0.41 
   352.39     18.07     70.23     60.64      0.10     -0.18      0.41 
   352.40     18.07     70.22     60.64      0.10     -0.18      0.82 
   352.41     18.08     70.22     60.64      0.10     -0.17      0.82 
   352.42     18.08     70.22     60.64      0.09     -0.16      0.41 
   352.43     18.08     70.22     60.64      0.09     -0.15      0.41 
   352.44     18.07     70.23     60.65      0.08     -0.14      0.41 
   352.45     18.07     70.23     60.64      0.08     -0.13      0.82 
   352.46     18.07     70.24     60.65      0.07     -0.12      1.24 
   352.47     18.07     70.23     60.64      0.07     -0.12      1.24 
   352.48     18.07     70.24     60.65      0.07     -0.11      1.24 
   352.49     18.07     70.23     60.64      0.06     -0.10      1.24 
   352.50     18.07     70.23     60.64      0.06     -0.10      1.24 
   352.51     18.07     70.23     60.64      0.06     -0.09      1.24 
   352.52     18.07     70.24     60.64      0.05     -0.09      1.24 
   352.53     18.07     70.24     60.64      0.05     -0.09      1.24 
   352.54     18.07     70.23     60.64      0.05     -0.09      1.24 
   352.55     18.08     70.22     60.64      0.05     -0.09      1.24 
   352.56     18.08     70.21     60.65      0.06     -0.09      1.24 
   352.57     18.08     70.20     60.65      0.06     -0.11      0.82 
   352.58     18.08     70.20     60.65      0.06     -0.11      2.06 
   352.59     18.08     70.20     60.64      0.06     -0.11      2.06 
   352.60     18.08     70.20     60.65      0.06     -0.10      2.06 
   352.61     18.08     70.21     60.65      0.06     -0.10      2.06 
   352.62     18.08     70.21     60.65      0.05     -0.09      1.65 
   352.63     18.08     70.21     60.65      0.05     -0.09      1.24 
   352.64     18.09     70.20     60.65      0.05     -0.08      1.24 
   352.65     18.09     70.19     60.65      0.05     -0.07      1.24 
   352.66     18.09     70.18     60.65      0.05     -0.08      1.24 
   352.67     18.09     70.19     60.65      0.04     -0.07      1.65 
   352.68     18.09     70.19     60.65      0.04     -0.05      1.65 
   352.69     18.09     70.19     60.65      0.04     -0.05      1.65 
   352.70     18.09     70.19     60.65      0.03     -0.04      1.65 
   352.71     18.09     70.19     60.65      0.03     -0.04      2.06 
   352.72     18.09     70.18     60.65      0.03     -0.04      2.06 
   352.73     18.09     70.19     60.65      0.03     -0.03      2.06 
   352.74     18.09     70.20     60.65      0.02     -0.03      2.06 
   352.75     18.09     70.20     60.65      0.02     -0.01      0.82 
   352.76     18.08     70.21     60.65      0.02     -0.01      0.82 
   352.77     18.08     70.21     60.66      0.02      0.01      0.82 
   352.78     18.08     70.21     60.65      0.02      0.01      0.82 
   352.79     18.08     70.21     60.65      0.01      0.01      0.82 
   352.80     18.08     70.22     60.66      0.01      0.01      0.82 
   352.81     18.08     70.22     60.65      0.01      0.01      0.82 
   352.82     18.08     70.22     60.65      0.01      0.01      1.24 
   352.83     18.08     70.22     60.66      0.01      0.01      1.24 
   352.84     18.08     70.22     60.66      0.02      0.00      0.82 
   352.85     18.08     70.21     60.66      0.02     -0.01      0.82 
   352.86     18.08     70.22     60.66      0.02     -0.01      1.24 
   352.87     18.08     70.22     60.65      0.02     -0.01      1.24 
   352.88     18.08     70.23     60.65      0.02     -0.02      0.82 
   352.89     18.07     70.24     60.65      0.02     -0.01      0.82 
   352.90     18.07     70.24     60.65      0.02     -0.01      0.82 
   352.91     18.08     70.23     60.65      0.02     -0.01      0.82 
   352.92     18.08     70.23     60.65      0.01     -0.00      0.82 
   352.93     18.08     70.23     60.65      0.01      0.01      1.24 
   352.94     18.08     70.23     60.65      0.01      0.01      1.65 
   352.95     18.08     70.23     60.65      0.00      0.02      2.47 
   352.96     18.07     70.24     60.66      0.00      0.03      2.47 
   352.97     18.08     70.23     60.66      0.00      0.03      2.47 
   352.98     18.08     70.23     60.66      0.00      0.03      2.47 
   352.99     18.08     70.23     60.66     -0.00      0.04      2.06 
   353.00     18.08     70.23     60.66      0.00      0.04      2.06 
   353.01     18.08     70.23     60.66      0.00      0.03      2.06 
   353.02     18.08     70.23     60.66      0.00      0.03      2.47 
   353.03     18.08     70.23     60.66      0.01      0.01      2.06 
   353.04     18.08     70.23     60.66      0.01     -0.00      2.06 
   353.05     18.08     70.22     60.66      0.01     -0.00      2.06 
   353.06     18.08     70.21     60.66      0.02     -0.02      2.06 
   353.07     18.08     70.21     60.66      0.02     -0.01      2.06 
   353.08     18.09     70.21     60.66      0.02     -0.01      2.06 
   353.09     18.09     70.21     60.66      0.02     -0.01      2.06 
   353.10     18.09     70.21     60.66      0.02     -0.01      2.06 
   353.11     18.09     70.21     60.66      0.01     -0.00      1.65 
   353.12     18.09     70.21     60.66      0.01      0.01      0.82 
   353.13     18.08     70.22     60.66      0.00      0.03      0.82 
   353.14     18.08     70.23     60.66     -0.00      0.05      1.24 
   353.15     18.08     70.23     60.66     -0.01      0.06      1.24 
   353.16     18.08     70.23     60.66     -0.01      0.06      1.24 
   353.17     18.08     70.24     60.66     -0.01      0.07      1.24 
   353.18     18.08     70.24     60.66     -0.01      0.08      1.24 
   353.19     18.08     70.23     60.66     -0.01      0.07      1.24 
   353.20     18.08     70.24     60.66     -0.01      0.07      1.24 
   353.21     18.08     70.23     60.66     -0.01      0.06      1.24 
   353.22     18.08     70.23     60.66     -0.01      0.05      1.24 
   353.23     18.08     70.22     60.66     -0.00      0.03      1.24 
   353.24     18.08     70.21     60.66      0.00      0.02      1.24 
   353.25     18.09     70.20     60.66      0.00      0.02      1.24 
   353.26     18.09     70.20     60.66      0.00      0.01      1.24 
   353.27     18.09     70.20     60.66      0.01      0.01      0.82 
   353.28     18.09     70.20     60.66      0.01      0.00      0.82 
   353.29     18.09     70.21     60.66      0.01     -0.00      0.82 
   353.30     18.09     70.21     60.66      0.01      0.00      0.82 
   353.31     18.08     70.22     60.66      0.01      0.01      0.41 
   353.32     18.08     70.22     60.66      0.00      0.01      0.82 
   353.33     18.08     70.22     60.66      0.00      0.01      0.82 
   353.34     18.08     70.22     60.66      0.01      0.00      0.82 
   353.35     18.09     70.22     60.66      0.01     -0.01      1.24 
   353.36     18.09     70.21     60.66      0.01     -0.02      0.82 
   353.37     18.09     70.21     60.66      0.01     -0.02      0.82 
   353.38     18.09     70.22     60.66      0.01     -0.01      0.82 
   353.39     18.09     70.22     60.67      0.01     -0.00      0.82 
   353.40     18.09     70.21     60.66      0.01     -0.01      0.82 
   353.41     18.09     70.20     60.66      0.01     -0.01      0.82 
   353.42     18.09     70.20     60.66      0.02     -0.03      0.82 
   353.43     18.09     70.19     60.66      0.02     -0.04      0.82 
   353.44     18.10     70.19     60.66      0.02     -0.04      0.82 
   353.45     18.09     70.20     60.67      0.02     -0.04      0.82 
