#Written by Robertson Geologging WinLogger V1.0/370
~VERSION INFORMATION
#------------------------------------------------------------------------------
 VERS. 2.0 : CWLS LOG ASCII STANDARD - VERSION 2.0
 WRAP. NO  : ONE LINE PER DEPTH STEP
~WELL INFORMATION
#MNEM.UNIT         DATA                                DESCRIPTION OF MNEMONIC
#------------------------------------------------------------------------------
 STRT.M         37.0600                            :   START DEPTH
 STOP.M        510.0000                            :   STOP DEPTH
 STEP.M          0.0100                            :   STEP VALUE
 NULL.        -999.2500                            :   NULL VALUE
 COMP.    WHITE YOUN GREEN                         :   COMPANY NAME
 WELL.    DAWDON SHAFT                             :   WELL NAME
 FLD.     DAWDON                                   :   FIELD NAME
 LOC.     N/A                                      :   LOCATION
 PROV.    N/A                                      :   PROVINCE
 SRVC.    N/A                                      :   SERVICE COMPANY NAME
 DATE.    13 Dec 06                                :   DATE
 UWI.     N/A                                      :   UNIQUE WELL IDENTIFIER
~PARAMETER INFORMATION
#MNEMO.UNIT         VALUE                 DESCRIPTION OF MNEMONIC
#------------------------------------------------------------------------------
~OTHER INFORMATION SECTION
#------------------------------------------------------------------------------
 lLOGGING DOWN
~CURVE INFORMATION
#MNEMO.UNIT         API CODE              CURVE DESCRIPTION
#------------------------------------------------------------------------------
 DEPTH.M                                 :   0     Depth
 TEMP.DegC                               :   1     Temperature
 CN25.mS/cm                              :   2     Conductivity@25DegC
 COND.mS/cm                              :   3     Conductivity
 DELT.DegC                               :   4     Delta T
 DELC.mS/cm                              :   5     Delta C
 NGAM.CPS                                :   6     Natural Gamma
#------------------------------------------------------------------------------
~A  DEPTH     TEMP      CN25      COND      DELT      DELC      NGAM      
# ...
    68.70     11.33     15.20      6.00      0.00     -0.00      0.76 
    68.71     11.33     15.20      6.00     -0.00     -0.00      0.76 
    68.72     11.33     15.19      5.99     -0.00      0.00      0.76 
    68.73     11.33     15.20      5.99     -0.00      0.00      0.76 
    68.74     11.33     15.20      5.99     -0.00      0.00      0.76 
    68.75     11.33     15.20      6.00     -0.00      0.00      0.35 
    68.76     11.33     15.19      5.99      0.00     -0.00      0.35 
    68.77     11.34     15.19      5.99      0.00     -0.01      0.00 
    68.78     11.34     15.18      5.99      0.01     -0.01      0.00 
    68.79     11.34     15.18      5.99      0.00     -0.01      0.35 
    68.80     11.34     15.19      6.00      0.00     -0.01      0.35 
    68.81     11.34     15.18      5.99      0.00     -0.01      0.35 
    68.82     11.34     15.18      5.99      0.01     -0.01      0.35 
    68.83     11.34     15.18      5.99      0.01     -0.01      0.35 
    68.84     11.34     15.18      5.99      0.01     -0.02      0.35 
    68.85     11.34     15.18      6.00      0.01     -0.01      0.35 
    68.86     11.34     15.18      5.99      0.01     -0.01      0.35 
    68.87     11.34     15.19      5.99      0.01     -0.01      0.35 
    68.88     11.34     15.19      5.99      0.01     -0.01      0.35 
    68.89     11.34     15.19      5.99      0.01     -0.01      0.35 
    68.90     11.34     15.19      6.00      0.01     -0.01      0.35 
    68.91     11.34     15.18      5.99      0.01     -0.01      0.35 
    68.92     11.34     15.18      5.99      0.01     -0.01      0.35 
    68.93     11.34     15.18      5.99      0.00     -0.01      0.35 
    68.94     11.34     15.19      5.99      0.00     -0.00      0.35 
    68.95     11.34     15.19      6.00     -0.00      0.01      0.35 
    68.96     11.34     15.19      5.99     -0.00      0.00      0.00 
    68.97     11.34     15.19      5.99      0.00     -0.01      0.00 
    68.98     11.34     15.18      5.99      0.00     -0.01      0.00 
    68.99     11.34     15.18      5.99      0.00     -0.00      0.00 
    69.00     11.34     15.19      6.00      0.00      0.00      0.00 
    69.01     11.34     15.19      5.99      0.00     -0.01      0.00 
    69.02     11.33     15.19      5.99      0.00     -0.01      0.00 
    69.03     11.33     15.19      5.99      0.01     -0.01      0.00 
    69.04     11.34     15.19      5.99      0.01     -0.01      0.00 
    69.05     11.34     15.19      6.00      0.01     -0.01      0.00 
    69.06     11.34     15.19      5.99      0.01     -0.02      0.00 
    69.07     11.34     15.19      5.99      0.01     -0.02      0.00 
    69.08     11.33     15.19      5.99      0.01     -0.01      0.00 
    69.09     11.33     15.19      5.99      0.01     -0.01      0.00 
    69.10     11.33     15.19      5.99      0.01     -0.02      0.00 
    69.11     11.34     15.19      5.99      0.01     -0.02      0.00 
    69.12     11.34     15.19      5.99      0.01     -0.01      0.00 
    69.13     11.34     15.19      5.99      0.01     -0.01      0.00 
    69.14     11.34     15.19      5.99      0.01     -0.01      0.00 
    69.15     11.34     15.19      5.99      0.01     -0.02      0.00 
    69.16     11.34     15.19      5.99      0.01     -0.01      0.00 
    69.17     11.34     15.19      5.99      0.01     -0.01      0.00 
    69.18     11.34     15.18      5.99      0.01     -0.01      0.41 
    69.19     11.34     15.19      5.99      0.01     -0.01      0.41 
    69.20     11.34     15.19      5.99      0.01     -0.01      0.41 
    69.21     11.33     15.20      6.00      0.00      0.00      0.41 
    69.22     11.33     15.20      5.99     -0.00      0.00      0.41 
    69.23     11.33     15.20      5.99     -0.01      0.01      0.41 
    69.24     11.33     15.20      5.99     -0.01      0.01      0.41 
    69.25     11.32     15.20      5.99     -0.01      0.01      0.41 
    69.26     11.33     15.20      6.00     -0.01      0.02      0.41 
    69.27     11.33     15.20      5.99     -0.01      0.01      0.41 
    69.28     11.33     15.20      5.99     -0.01      0.01      0.41 
    69.29     11.33     15.20      5.99     -0.01      0.01      0.41 
    69.30     11.33     15.20      6.00     -0.01      0.01      0.41 
    69.31     11.33     15.20      6.00     -0.01      0.02      0.41 
    69.32     11.33     15.19      5.99     -0.01      0.01      0.82 
    69.33     11.34     15.19      5.99     -0.00     -0.00      0.82 
    69.34     11.34     15.18      5.99      0.00     -0.00      0.82 
    69.35     11.34     15.19      6.00      0.00     -0.00      0.41 
    69.36     11.34     15.19      6.00      0.00      0.00      0.41 
    69.37     11.34     15.19      5.99      0.00     -0.00      0.41 
    69.38     11.34     15.19      5.99     -0.00     -0.00      0.41 
    69.39     11.34     15.19      5.99     -0.00      0.00      0.41 
    69.40     11.33     15.19      6.00      0.00     -0.00      0.41 
    69.41     11.33     15.19      5.99      0.00     -0.00      0.82 
    69.42     11.33     15.19      5.99     -0.00     -0.00      0.82 
    69.43     11.33     15.20      5.99     -0.00      0.00      0.82 
    69.44     11.33     15.20      5.99     -0.00      0.00      0.82 
    69.45     11.33     15.20      6.00     -0.00      0.00      0.82 
    69.46     11.33     15.19      5.99     -0.00      0.00      0.82 
    69.47     11.33     15.19      5.99      0.00      0.00      0.82 
    69.48     11.33     15.19      5.99      0.00     -0.00      0.82 
    69.49     11.34     15.19      5.99      0.00     -0.01      0.41 
    69.50     11.34     15.19      5.99      0.01     -0.01      0.41 
    69.51     11.34     15.19      5.99      0.01     -0.01      0.41 
    69.52     11.34     15.19      5.99      0.01     -0.01      0.41 
    69.53     11.34     15.18      6.00      0.01     -0.01      0.41 
    69.54     11.34     15.18      5.99      0.01     -0.01      0.41 
    69.55     11.34     15.18      5.99      0.01     -0.01      0.41 
    69.56     11.34     15.18      5.99      0.01     -0.01      0.41 
    69.57     11.34     15.18      5.99      0.01     -0.01      0.41 
    69.58     11.34     15.18      5.99      0.01     -0.01      0.00 
    69.59     11.34     15.18      5.99      0.00     -0.01      0.00 
    69.60     11.34     15.18      5.99      0.00     -0.01      0.00 
    69.61     11.34     15.18      5.99      0.00     -0.00      0.00 
    69.62     11.34     15.18      5.99      0.00     -0.00      0.00 
    69.63     11.34     15.18      5.99      0.00     -0.00      0.00 
    69.64     11.34     15.18      5.99      0.01     -0.01      0.00 
    69.65     11.34     15.18      5.99      0.01     -0.01      0.00 
    69.66     11.34     15.18      5.99      0.01     -0.01      0.00 
    69.67     11.34     15.18      5.99      0.01     -0.01      0.00 
    69.68     11.34     15.18      5.99      0.01     -0.01      0.00 
    69.69     11.34     15.18      5.99      0.01     -0.01      0.00 
    69.70     11.34     15.18      5.99      0.01     -0.01      0.00 
    69.71     11.34     15.18      5.99      0.01     -0.01      0.00 
    69.72     11.34     15.19      6.00      0.01     -0.00      0.00 
    69.73     11.33     15.19      5.99      0.01     -0.01      0.00 
    69.74     11.33     15.19      5.99      0.00     -0.01      0.00 
    69.75     11.33     15.19      5.99     -0.00      0.00      0.00 
    69.76     11.33     15.19      5.99     -0.00      0.01      0.00 
    69.77     11.33     15.19      5.99     -0.01      0.01      0.00 
    69.78     11.33     15.19      5.99     -0.01      0.01      0.00 
    69.79     11.33     15.19      5.99     -0.01      0.00      0.00 
    69.80     11.34     15.19      5.99     -0.00      0.01      0.00 
    69.81     11.34     15.19      5.99     -0.00      0.00      0.00 
    69.82     11.34     15.19      5.99     -0.00      0.01      0.00 
