#Written by Robertson Geologging WinLogger V1.0/406
~VERSION INFORMATION
#------------------------------------------------------------------------------
 VERS. 2.0 : CWLS LOG ASCII STANDARD - VERSION 2.0
 WRAP. NO  : ONE LINE PER DEPTH STEP
~WELL INFORMATION
#MNEM.UNIT         DATA                                DESCRIPTION OF MNEMONIC
#------------------------------------------------------------------------------
 STRT.M         40.0600                            :   START DEPTH
 STOP.M        498.0000                            :   STOP DEPTH
 STEP.M          0.0100                            :   STEP VALUE
 NULL.        -999.2500                            :   NULL VALUE
 COMP.    Coal Authority                           :   COMPANY NAME
 WELL.    Dawdon                                   :   WELL NAME
 FLD.     N/A                                      :   FIELD NAME
 LOC.     N/A                                      :   LOCATION
 PROV.    N/A                                      :   PROVINCE
 SRVC.    N/A                                      :   SERVICE COMPANY NAME
 DATE.    30 Sep 08                                :   DATE
 UWI.     N/A                                      :   UNIQUE WELL IDENTIFIER
~PARAMETER INFORMATION
#MNEMO.UNIT         VALUE                 DESCRIPTION OF MNEMONIC
#------------------------------------------------------------------------------
~OTHER INFORMATION SECTION
#------------------------------------------------------------------------------
 TCGS2822
~CURVE INFORMATION
#MNEMO.UNIT         API CODE              CURVE DESCRIPTION
#------------------------------------------------------------------------------
 DEPTH.M                                 :   0     Depth
 TEMP.DegC                               :   1     Temperature
 COND.uS/cm                              :   2     Conductivity
 DELT.DegC                               :   3     Delta T
 DELC.uS/cm                              :   4     Delta C
 NGAM.CPS                                :   5     Natural Gamma
#------------------------------------------------------------------------------
~A  DEPTH     TEMP      COND      DELT      DELC      NGAM      
# ...
   284.26     15.88  44365.88      0.02     68.61      0.00 
   284.27     15.88  44375.18      0.03     68.62      0.00 
   284.28     15.87  44364.71      0.01     58.15      0.00 
   284.29     15.87  44364.71      0.01     58.15      0.00 
   284.30     15.86  44375.18      0.00     68.62      0.00 
   284.31     15.87  44364.71      0.02     58.15      0.00 
   284.32     15.87  44375.18      0.03     68.62      8.00 
   284.33     15.87  44375.18      0.03     68.62      0.00 
   284.34     15.87  44375.18      0.04     77.92      0.00 
   284.35     15.87  44375.18      0.03     58.15      0.00 
   284.36     15.87  44364.71      0.01     58.15      0.00 
   284.37     15.86  44375.18      0.00     68.62      0.00 
   284.38     15.86  44375.18      0.00     58.15      0.00 
   284.39     15.86  44375.18      0.00     68.62      0.00 
   284.40     15.86  44375.18      0.01     58.15      0.00 
   284.41     15.87  44384.49      0.02     77.92      0.00 
   284.42     15.87  44375.18      0.00     58.15      0.00 
   284.43     15.87  44375.18     -0.01     58.15      0.00 
   284.44     15.88  44384.49      0.00     67.46      0.00 
   284.45     15.88  44375.18     -0.01     68.62      0.00 
   284.46     15.88  44384.49     -0.00     67.46      0.00 
   284.47     15.88  44375.18      0.00     58.15      0.00 
   284.48     15.87  44384.49     -0.01     67.46      0.00 
   284.49     15.87  44375.18     -0.00     68.62      0.00 
   284.50     15.87  44384.49     -0.00     55.83      0.00 
   284.51     15.87  44384.49     -0.01     67.46      0.00 
   284.52     15.87  44384.49      0.00     67.46      0.00 
   284.53     15.88  44383.33      0.01     66.29      0.00 
   284.54     15.88  44384.49      0.02     58.15      8.00 
   284.55     15.87  44393.79      0.02     76.76      0.00 
   284.56     15.88  44384.49      0.03     58.15      0.00 
   284.57     15.88  44393.79      0.03     76.76      0.00 
   284.58     15.86  44384.49      0.00     58.15      0.00 
   284.59     15.87  44393.79      0.01     76.76      0.00 
   284.60     15.88  44393.79      0.02     67.46      0.00 
   284.61     15.88  44384.49      0.03     67.46      0.00 
   284.62     15.88  44384.49      0.03     58.15      0.00 
   284.63     15.87  44393.79      0.02     67.46      0.00 
   284.64     15.88  44393.79      0.04     67.46      0.00 
   284.65     15.88  44393.79      0.04     67.46      0.00 
   284.66     15.88  44393.79      0.04     67.46      0.00 
   284.67     15.89  44398.45      0.05     62.81      0.00 
   284.68     15.89  44393.79      0.04     67.46      0.00 
   284.69     15.89  44404.26      0.04     68.62      0.00 
   284.70     15.90  44404.26      0.05     77.93      0.00 
   284.71     15.89  44393.79      0.04     67.46      0.00 
   284.72     15.88  44404.26      0.03     77.93      0.00 
   284.73     15.88  44404.26      0.02     68.62      0.00 
   284.74     15.87  44393.79      0.01     67.46      0.00 
   284.75     15.87  44404.26      0.01     68.62      0.00 
   284.76     15.86  44404.26      0.00     68.62      0.00 
   284.77     15.86  44404.26      0.01     68.62      0.00 
   284.78     15.88  44404.26      0.02     68.62      0.00 
   284.79     15.88  44413.57      0.01     77.93      0.00 
   284.80     15.88  44404.26      0.02     68.62      0.00 
   284.81     15.88  44413.57      0.01     87.23      0.00 
   284.82     15.87  44413.57      0.01     77.93      0.00 
   284.83     15.87  44404.26      0.00     58.16      0.00 
   284.84     15.86  44413.57     -0.01     87.23      0.00 
   284.85     15.86  44413.57      0.00     77.93      0.00 
   284.86     15.86  44404.26     -0.01     68.62      8.00 
   284.87     15.88  44413.57      0.00     77.93      0.00 
   284.88     15.88  44413.57      0.01     67.46      0.00 
   284.89     15.86  44413.57     -0.02     67.46      8.00 
   284.90     15.85  44413.57     -0.02     77.93      8.00 
   284.91     15.86  44413.57     -0.01     67.46      0.00 
   284.92     15.86  44413.57      0.00     77.93      0.00 
   284.93     15.87  44413.57      0.03     67.46      0.00 
   284.94     15.88  44422.88      0.04     76.77      0.00 
   284.95     15.86  44413.57      0.02     67.46      0.00 
   284.96     15.87  44424.04      0.01     77.94      0.00 
   284.97     15.88  44410.08      0.00     81.42      0.00 
   284.98     15.87  44424.04     -0.01     77.94      0.00 
   284.99     15.87  44413.57     -0.01     58.16      0.00 
   285.00     15.87  44422.88     -0.00     76.77      0.00 
   285.01     15.87  44422.88     -0.00     76.77      0.00 
   285.02     15.88  44422.88      0.01     67.47      0.00 
   285.03     15.90  44422.88      0.04     76.77      0.00 
   285.04     15.90  44422.88      0.05     67.47      0.00 
   285.05     15.91  44433.35      0.05     87.24      0.00 
   285.06     15.90  44422.88      0.03     59.33      0.00 
   285.07     15.89  44433.35      0.02     87.24      0.00 
   285.08     15.88  44422.88      0.00     67.47     16.00 
   285.09     15.87  44433.35     -0.01     77.94      0.00 
   285.10     15.86  44422.88     -0.02     76.77      0.00 
   285.11     15.86  44433.35     -0.02     77.94      0.00 
   285.12     15.87  44422.88     -0.02     58.16      0.00 
   285.13     15.87  44433.35     -0.02     75.61      0.00 
   285.14     15.88  44433.35     -0.00     77.94      0.00 
   285.15     15.88  44433.35     -0.01     69.80      0.00 
   285.16     15.89  44433.35     -0.01     75.61      0.00 
   285.17     15.89  44433.35      0.01     68.63      0.00 
   285.18     15.89  44433.35      0.01     69.80     16.00 
   285.19     15.89  44442.66      0.01     87.25      0.00 
   285.20     15.88  44433.35      0.00     67.47     16.00 
   285.21     15.87  44442.66     -0.01     79.11      8.00 
   285.22     15.87  44433.35     -0.01     77.94      0.00 
   285.23     15.86  44442.66     -0.02     77.94      0.00 
   285.24     15.85  44433.35     -0.02     68.63      0.00 
   285.25     15.87  44433.35     -0.00     67.47     16.00 
   285.26     15.88  44442.66     -0.00     67.47      8.00 
   285.27     15.89  44442.66      0.02     77.94      0.00 
   285.28     15.89  44442.66      0.02     77.94      0.00 
   285.29     15.89  44442.66      0.03     67.47      0.00 
   285.30     15.89  44451.97      0.02     87.25      0.00 
   285.31     15.87  44442.66      0.00     67.47      0.00 
   285.32     15.86  44442.66     -0.01     67.47      8.00 
   285.33     15.87  44442.66     -0.00     67.47      0.00 
   285.34     15.87  44442.66     -0.00     67.47      0.00 
   285.35     15.87  44451.97      0.00     87.25      0.00 
   285.36     15.89  44442.66      0.03     67.47      0.00 
   285.37     15.88  44442.66      0.02     67.47      0.00 
   285.38     15.88  44444.98      0.02     69.80      0.00 
   285.39     15.90  44451.97      0.03     76.78      0.00 
   285.40     15.90  44442.66      0.03     58.17      0.00 
   285.41     15.90  44451.97      0.03     76.78      0.00 
   285.42     15.89  44451.97      0.02     76.78      0.00 
   285.43     15.88  44451.97      0.00     67.48      8.00 
   285.44     15.89  44449.64      0.01     74.46      0.00 
   285.45     15.89  44451.97      0.01     67.48      0.00 
   285.46     15.89  44462.44      0.01     87.25      0.00 
   285.47     15.88  44451.97      0.01     67.48      8.00 
   285.48     15.86  44462.44     -0.00     87.25      8.00 
   285.49     15.87  44442.66      0.00     58.17      0.00 
   285.50     15.87  44451.97      0.00     67.48      8.00 
   285.51     15.88  44462.44      0.01     77.95      8.00 
   285.52     15.88  44462.44      0.00     79.11      0.00 
   285.53     15.88  44462.44      0.00     77.95      0.00 
   285.54     15.88  44451.97      0.01     58.17      0.00 
   285.55     15.89  44462.44      0.01     77.95      0.00 
   285.56     15.90  44471.75      0.02     77.95      0.00 
   285.57     15.90  44462.44      0.04     77.95      0.00 
