#Written by Robertson Geologging WinLogger V1.0/370
~VERSION INFORMATION
#------------------------------------------------------------------------------
 VERS. 2.0 : CWLS LOG ASCII STANDARD - VERSION 2.0
 WRAP. NO  : ONE LINE PER DEPTH STEP
~WELL INFORMATION
#MNEM.UNIT         DATA                                DESCRIPTION OF MNEMONIC
#------------------------------------------------------------------------------
 STRT.M         37.0600                            :   START DEPTH
 STOP.M        510.0000                            :   STOP DEPTH
 STEP.M          0.0100                            :   STEP VALUE
 NULL.        -999.2500                            :   NULL VALUE
 COMP.    WHITE YOUN GREEN                         :   COMPANY NAME
 WELL.    DAWDON SHAFT                             :   WELL NAME
 FLD.     DAWDON                                   :   FIELD NAME
 LOC.     N/A                                      :   LOCATION
 PROV.    N/A                                      :   PROVINCE
 SRVC.    N/A                                      :   SERVICE COMPANY NAME
 DATE.    13 Dec 06                                :   DATE
 UWI.     N/A                                      :   UNIQUE WELL IDENTIFIER
~PARAMETER INFORMATION
#MNEMO.UNIT         VALUE                 DESCRIPTION OF MNEMONIC
#------------------------------------------------------------------------------
~OTHER INFORMATION SECTION
#------------------------------------------------------------------------------
 lLOGGING DOWN
~CURVE INFORMATION
#MNEMO.UNIT         API CODE              CURVE DESCRIPTION
#------------------------------------------------------------------------------
 DEPTH.M                                 :   0     Depth
 TEMP.DegC                               :   1     Temperature
 CN25.mS/cm                              :   2     Conductivity@25DegC
 COND.mS/cm                              :   3     Conductivity
 DELT.DegC                               :   4     Delta T
 DELC.mS/cm                              :   5     Delta C
 NGAM.CPS                                :   6     Natural Gamma
#------------------------------------------------------------------------------
~A  DEPTH     TEMP      CN25      COND      DELT      DELC      NGAM      
# ...
   131.98     12.15     27.15     15.60      0.01      0.48      0.76 
   131.99     12.15     27.15     15.60      0.01      0.48      0.76 
   132.00     12.15     27.15     15.61      0.01      0.48      0.76 
   132.01     12.15     27.16     15.61      0.01      0.48      0.76 
   132.02     12.15     27.17     15.62      0.01      0.48      0.76 
   132.03     12.15     27.17     15.62      0.01      0.49      0.76 
   132.04     12.15     27.17     15.62      0.01      0.48      0.76 
   132.05     12.16     27.18     15.63      0.01      0.48      0.76 
   132.06     12.16     27.19     15.63      0.01      0.48      0.76 
   132.07     12.16     27.19     15.64      0.01      0.48      0.76 
   132.08     12.16     27.20     15.64      0.01      0.48      0.76 
   132.09     12.16     27.20     15.64      0.01      0.48      0.76 
   132.10     12.16     27.21     15.65      0.01      0.48      0.41 
   132.11     12.16     27.21     15.65      0.01      0.48      0.00 
   132.12     12.16     27.22     15.65      0.01      0.48      0.00 
   132.13     12.16     27.22     15.66      0.01      0.48      0.00 
   132.14     12.16     27.23     15.66      0.01      0.48      0.00 
   132.15     12.16     27.23     15.66      0.01      0.48      0.00 
   132.16     12.16     27.23     15.67      0.00      0.49      0.00 
   132.17     12.16     27.24     15.67      0.00      0.49      0.00 
   132.18     12.16     27.24     15.67      0.01      0.48      0.00 
   132.19     12.16     27.24     15.68      0.01      0.48      0.00 
   132.20     12.16     27.24     15.68      0.01      0.47      0.00 
   132.21     12.17     27.24     15.68      0.02      0.46      0.00 
   132.22     12.17     27.24     15.69      0.02      0.45      0.00 
   132.23     12.17     27.25     15.69      0.03      0.45      0.00 
   132.24     12.17     27.25     15.69      0.03      0.44      0.00 
   132.25     12.17     27.25     15.70      0.03      0.44      0.00 
   132.26     12.17     27.26     15.70      0.03      0.44      0.00 
   132.27     12.17     27.26     15.71      0.03      0.44      0.00 
   132.28     12.17     27.27     15.71      0.03      0.44      0.00 
   132.29     12.17     27.27     15.71      0.03      0.44      0.00 
   132.30     12.17     27.28     15.72      0.03      0.44      0.00 
   132.31     12.17     27.29     15.72      0.02      0.45      0.35 
   132.32     12.16     27.30     15.72      0.02      0.45      0.35 
   132.33     12.16     27.31     15.73      0.01      0.46      0.35 
   132.34     12.16     27.31     15.73      0.01      0.47      0.35 
   132.35     12.16     27.32     15.73      0.01      0.47      0.76 
   132.36     12.16     27.33     15.74      0.01      0.47      0.76 
   132.37     12.16     27.33     15.74      0.01      0.47      0.76 
   132.38     12.16     27.33     15.74      0.01      0.46      0.76 
   132.39     12.16     27.33     15.75      0.01      0.46      0.76 
   132.40     12.16     27.34     15.75      0.02      0.46      0.76 
   132.41     12.17     27.34     15.76      0.02      0.46      0.76 
   132.42     12.17     27.34     15.76      0.02      0.46      0.76 
   132.43     12.17     27.35     15.76      0.02      0.45      0.76 
   132.44     12.17     27.35     15.77      0.02      0.45      0.76 
   132.45     12.17     27.36     15.77      0.02      0.45      0.76 
   132.46     12.17     27.36     15.78      0.02      0.45      0.76 
   132.47     12.17     27.36     15.78      0.02      0.45      0.76 
   132.48     12.17     27.37     15.78      0.02      0.45      0.41 
   132.49     12.17     27.38     15.79      0.02      0.46      0.41 
   132.50     12.17     27.38     15.79      0.01      0.46      0.41 
   132.51     12.16     27.39     15.79      0.01      0.46      0.41 
   132.52     12.16     27.40     15.80      0.01      0.47      0.00 
   132.53     12.16     27.40     15.80      0.01      0.47      0.00 
   132.54     12.16     27.41     15.81      0.01      0.48      0.00 
   132.55     12.17     27.41     15.81      0.01      0.47      0.41 
   132.56     12.17     27.41     15.81      0.01      0.47      0.41 
   132.57     12.17     27.42     15.82      0.01      0.47      0.41 
   132.58     12.17     27.42     15.82      0.01      0.46      0.41 
   132.59     12.17     27.43     15.83      0.02      0.46      0.41 
   132.60     12.17     27.43     15.83      0.02      0.47      0.41 
   132.61     12.17     27.44     15.84      0.02      0.46      0.41 
   132.62     12.17     27.44     15.84      0.02      0.46      0.41 
   132.63     12.17     27.44     15.84      0.02      0.46      0.41 
   132.64     12.17     27.45     15.85      0.02      0.45      0.41 
   132.65     12.17     27.45     15.85      0.02      0.45      0.41 
   132.66     12.17     27.46     15.85      0.02      0.46      0.41 
   132.67     12.17     27.47     15.86      0.02      0.46      0.41 
   132.68     12.17     27.47     15.86      0.02      0.46      0.41 
   132.69     12.17     27.48     15.86      0.02      0.46      0.41 
   132.70     12.17     27.48     15.87      0.02      0.45      0.41 
   132.71     12.17     27.48     15.87      0.02      0.45      0.41 
   132.72     12.17     27.49     15.87      0.02      0.45      0.00 
   132.73     12.17     27.49     15.88      0.02      0.45      0.00 
   132.74     12.17     27.50     15.88      0.02      0.45      0.00 
   132.75     12.17     27.51     15.88      0.02      0.45      0.00 
   132.76     12.17     27.51     15.89      0.02      0.45      0.00 
   132.77     12.17     27.51     15.89      0.02      0.46      0.00 
   132.78     12.17     27.51     15.89      0.02      0.45      0.00 
   132.79     12.17     27.52     15.90      0.02      0.46      0.00 
   132.80     12.17     27.52     15.90      0.02      0.45      0.00 
   132.81     12.17     27.53     15.90      0.02      0.46      0.00 
   132.82     12.17     27.53     15.91      0.01      0.46      0.00 
   132.83     12.17     27.54     15.91      0.01      0.46      0.00 
   132.84     12.17     27.54     15.91      0.01      0.46      0.00 
   132.85     12.17     27.54     15.92      0.01      0.47      0.00 
   132.86     12.17     27.55     15.92      0.01      0.47      0.00 
   132.87     12.17     27.56     15.93      0.01      0.47      0.00 
   132.88     12.17     27.57     15.93      0.01      0.47      0.00 
   132.89     12.17     27.58     15.93      0.01      0.47      0.00 
   132.90     12.16     27.58     15.94      0.01      0.47      0.00 
   132.91     12.16     27.59     15.94      0.00      0.48      0.00 
   132.92     12.16     27.60     15.94      0.00      0.48      0.00 
   132.93     12.16     27.60     15.95      0.00      0.48      0.00 
   132.94     12.16     27.61     15.95      0.01      0.48      0.00 
   132.95     12.16     27.61     15.96      0.01      0.48      0.41 
   132.96     12.16     27.62     15.96      0.01      0.48      0.41 
   132.97     12.16     27.62     15.96      0.01      0.48      0.41 
   132.98     12.16     27.63     15.97      0.01      0.48      0.41 
   132.99     12.16     27.63     15.97      0.01      0.48      0.41 
   133.00     12.16     27.64     15.98      0.01      0.48      0.41 
   133.01     12.16     27.64     15.98      0.01      0.48      0.41 
   133.02     12.16     27.65     15.98      0.01      0.47      0.41 
   133.03     12.16     27.65     15.99      0.01      0.48      0.41 
   133.04     12.16     27.66     15.99      0.01      0.48      0.41 
   133.05     12.16     27.66     15.99      0.01      0.48      0.41 
   133.06     12.16     27.67     16.00      0.01      0.48      0.41 
   133.07     12.16     27.67     16.00      0.01      0.48      0.41 
   133.08     12.16     27.68     16.01      0.01      0.48      0.41 
   133.09     12.16     27.68     16.01      0.01      0.47      0.41 
   133.10     12.16     27.69     16.01      0.01      0.48      0.41 
