#Written by Robertson Geologging WinLogger V1.0/311
~VERSION INFORMATION
#------------------------------------------------------------------------------
 VERS. 2.0 : CWLS LOG ASCII STANDARD - VERSION 2.0
 WRAP. NO  : ONE LINE PER DEPTH STEP
~WELL INFORMATION
#MNEM.UNIT         DATA                                DESCRIPTION OF MNEMONIC
#------------------------------------------------------------------------------
 STRT.M         57.1000                            :   START DEPTH
 STOP.M        520.1000                            :   STOP DEPTH
 STEP.M          0.1000                            :   STEP VALUE
 NULL.        -999.2500                            :   NULL VALUE
 COMP.    IMC                                      :   COMPANY NAME
 WELL.    THERESA SHAFT                            :   WELL NAME
 FLD.     DAWDON                                   :   FIELD NAME
 LOC.     N/A                                      :   LOCATION
 PROV.    N/A                                      :   PROVINCE
 SRVC.    N/A                                      :   SERVICE COMPANY NAME
 DATE.    03 Oct 03                                :   DATE
 UWI.     N/A                                      :   UNIQUE WELL IDENTIFIER
~PARAMETER INFORMATION
#MNEMO.UNIT         VALUE                 DESCRIPTION OF MNEMONIC
#------------------------------------------------------------------------------
~OTHER INFORMATION SECTION
#------------------------------------------------------------------------------
 TCDS 2822
~CURVE INFORMATION
#MNEMO.UNIT         API CODE              CURVE DESCRIPTION
#------------------------------------------------------------------------------
 DEPTH.M                                 :   0     Depth
 TEMP.DegC                               :   1     Temperature
 COND.uS/cm                              :   2     Conductivity
 DELT.DegC                               :   3     Delta T
 DELC.uS/cm                              :   4     Delta C
 NGAM.API                                :   5     Natural Gamma
#------------------------------------------------------------------------------
~A  DEPTH     TEMP      COND      DELT      DELC      NGAM      
# ...
   123.10     12.05   6127.69      0.01    145.73      0.41 
   123.20     12.05   6148.26      0.00    165.46      0.00 
   123.30     12.06   6172.03      0.02    187.13      0.94 
   123.40     12.08   6199.94      0.04    211.17      1.35 
   123.50     12.08   6223.73      0.06    225.69      0.88 
   123.60     12.08   6248.95      0.05    235.42      0.00 
   123.70     12.09   6277.89      0.05    242.21      1.41 
   123.80     12.09   6305.15      0.06    247.82      0.94 
   123.90     12.10   6329.54      0.07    247.27      2.35 
   124.00     12.11   6354.87      0.05    247.82      1.88 
   124.10     12.12   6379.10      0.07    249.30      0.47 
   124.20     12.12   6405.53      0.07    255.17      0.00 
   124.30     12.13   6434.08      0.07    258.85      0.00 
   124.40     12.14   6456.90      0.06    254.84      1.41 
   124.50     12.15   6479.80      0.07    253.96      0.00 
   124.60     12.15   6505.57      0.07    253.08      0.00 
   124.70     12.15   6528.82      0.06    247.98      0.00 
   124.80     12.17   6552.49      0.08    244.56      0.41 
   124.90     12.17   6575.66      0.07    243.34      0.41 
   125.00     12.18   6607.55      0.07    249.90      0.00 
   125.10     12.18   6635.21      0.06    254.00      0.00 
   125.20     12.19   6659.41      0.07    250.67      0.00 
   125.30     12.20   6685.05      0.07    248.86      0.00 
   125.40     12.20   6714.34      0.06    255.33      0.00 
   125.50     12.20   6738.89      0.05    256.99      1.41 
   125.60     12.21   6761.67      0.06    253.99      1.41 
   125.70     12.21   6790.47      0.06    259.54      0.00 
   125.80     12.23   6825.71      0.05    271.10      0.47 
   125.90     12.21   6854.01      0.04    275.56      0.47 
   126.00     12.23   6877.40      0.05    267.57      0.00 
   126.10     12.23   6902.15      0.04    264.83      0.47 
   126.20     12.23   6931.49      0.03    269.96      0.47 
   126.30     12.23   6956.42      0.03    268.49      0.00 
   126.40     12.23   6980.51      0.04    262.61      0.41 
   126.50     12.23   7008.42      0.03    266.73      1.35 
   126.60     12.23   7051.53      0.03    287.06      0.94 
   126.70     12.24   7090.82      0.03    296.88      0.00 
   126.80     12.25   7113.83      0.03    285.24      0.00 
   126.90     12.26   7130.64      0.05    273.84      1.53 
   127.00     12.25   7156.55      0.02    277.03      2.00 
   127.10     12.26   7187.13      0.04    282.17      0.47 
   127.20     12.27   7216.35      0.05    281.39      0.00 
   127.30     12.27   7244.82      0.04    286.11      0.00 
   127.40     12.27   7267.94      0.04    284.55      0.00 
   127.50     12.28   7295.74      0.05    283.08      0.94 
   127.60     12.29   7319.72      0.05    263.61      0.47 
   127.70     12.28   7345.57      0.04    251.18      1.41 
   127.80     12.28   7370.67      0.03    255.39      0.94 
   127.90     12.30   7400.61      0.04    267.84      0.00 
   128.00     12.30   7436.27      0.05    276.83      0.47 
   128.10     12.30   7473.72      0.03    283.28      0.47 
   128.20     12.30   7507.35      0.03    288.28      0.41 
   128.30     12.32   7535.71      0.05    288.77      0.47 
   128.40     12.31   7562.72      0.04    291.88      0.47 
   128.50     12.32   7595.60      0.04    296.97      0.00 
   128.60     12.31   7630.37      0.02    307.93      0.00 
   128.70     12.31   7663.70      0.03    315.32      0.00 
   128.80     12.30   7693.29      0.02    319.13      0.00 
   128.90     12.33   7718.70      0.03    314.60      0.00 
   129.00     12.33   7744.88      0.03    305.04      0.47 
   129.10     12.32   7777.56      0.02    299.58      1.41 
   129.20     12.35   7811.44      0.04    301.19      0.94 
   129.30     12.32   7847.03      0.00    309.19      0.88 
   129.40     12.34   7885.19      0.03    319.67      0.00 
   129.50     12.34   7917.22      0.03    318.72      0.41 
   129.60     12.35   7947.97      0.04    314.10      0.41 
   129.70     12.35   7976.08      0.04    309.91      0.47 
   129.80     12.35   8006.42      0.05    310.32      0.47 
   129.90     12.37   8041.29      0.04    319.69      0.00 
   130.00     12.36   8068.22      0.03    320.52      0.00 
   130.10     12.36   8096.87      0.04    316.49      0.47 
   130.20     12.36   8133.48      0.01    318.46      0.47 
   130.30     12.37   8175.23      0.04    324.61      0.47 
   130.40     12.37   8207.75      0.03    319.82      0.00 
   130.50     12.37   8240.19      0.02    320.16      0.00 
   130.60     12.38   8274.96      0.03    324.08      0.47 
   130.70     12.39   8312.38      0.04    333.40      0.47 
   130.80     12.38   8346.22      0.02    336.21      0.47 
   130.90     12.38   8384.27      0.01    339.73      0.47 
   131.00     12.38   8423.78      0.01    352.65      0.47 
   131.10     12.40   8464.42      0.04    364.56      0.00 
   131.20     12.40   8502.33      0.04    364.57      0.00 
   131.30     12.39   8531.15      0.02    351.64      0.94 
   131.40     12.39   8561.44      0.02    350.09      1.41 
   131.50     12.41   8597.48      0.04    353.78      0.94 
   131.60     12.40   8633.80      0.02    354.56      0.94 
   131.70     12.41   8664.79      0.03    348.13      0.47 
   131.80     12.42   8699.32      0.04    348.82      0.47 
   131.90     12.43   8739.10      0.05    350.54      0.94 
   132.00     12.43   8773.98      0.05    345.23      0.47 
   132.10     12.43   8809.83      0.04    340.43      0.59 
   132.20     12.43   8848.95      0.04    343.79      1.94 
   132.30     12.45   8889.97      0.05    355.22      1.82 
   132.40     12.46   8928.25      0.06    362.52      1.41 
   132.50     12.42   8961.38      0.01    360.38      0.47 
   132.60     12.44   8997.79      0.05    361.07      0.00 
   132.70     12.45   9036.62      0.04    368.30      0.94 
   132.80     12.44   9073.13      0.03    369.77      2.35 
   132.90     12.45   9107.84      0.02    364.45      1.41 
   133.00     12.45   9147.91      0.02    371.00      0.00 
   133.10     12.45   9183.85      0.01    370.50      0.94 
   133.20     12.46   9230.23      0.03    377.67      0.47 
   133.30     12.45   9277.92      0.00    384.08      0.47 
   133.40     12.47   9317.43      0.01    386.34      0.47 
   133.50     12.47   9354.97      0.05    390.66      0.47 
   133.60     12.46   9392.26      0.02    391.46      0.47 
   133.70     12.46   9434.73      0.01    394.50      0.00 
   133.80     12.49   9469.88      0.04    393.22      0.47 
   133.90     12.48   9507.46      0.03    395.31      0.47 
   134.00     12.47   9550.58      0.02    399.74      0.47 
   134.10     12.49   9584.72      0.04    397.34      1.47 
   134.20     12.47   9620.77      0.01    386.23      1.47 
   134.30     12.49   9661.07      0.04    378.84      0.47 
   134.40     12.49   9703.20      0.02    382.15      0.47 
   134.50     12.48   9742.23      0.01    384.41      0.47 
   134.60     12.48   9783.60      0.02    387.72      0.47 
   134.70     12.50   9834.34      0.04    395.97      0.47 
   134.80     12.49   9877.90      0.01    404.39      0.41 
   134.90     12.50   9917.32      0.02    405.02      0.94 
   135.00     12.49   9963.17      0.02    408.01      0.94 
   135.10     12.50   9998.45      0.01    410.10      0.94 
   135.20     12.50  10030.88      0.03    406.47      0.94 
   135.30     12.51  10064.96      0.03    399.56      0.94 
   135.40     12.51  10104.87      0.02    398.03      0.47 
   135.50     12.52  10148.43      0.04    402.31      0.00 
   135.60     12.52  10191.40      0.03    403.47      0.41 
   135.70     12.51  10239.07      0.01    400.40      1.35 
   135.80     12.52  10278.85      0.03    396.62      1.41 
   135.90     12.52  10315.95      0.02    394.30      0.00 
   136.00     12.53  10355.14      0.03    387.64      1.35 
   136.10     12.52  10400.96      0.02    398.96      0.88 
   136.20     12.52  10447.13      0.02    413.31      0.00 
