#Written by Robertson Geologging WinLogger V1.0/311
~VERSION INFORMATION
#------------------------------------------------------------------------------
 VERS. 2.0 : CWLS LOG ASCII STANDARD - VERSION 2.0
 WRAP. NO  : ONE LINE PER DEPTH STEP
~WELL INFORMATION
#MNEM.UNIT         DATA                                DESCRIPTION OF MNEMONIC
#------------------------------------------------------------------------------
 STRT.M         57.1000                            :   START DEPTH
 STOP.M        520.1000                            :   STOP DEPTH
 STEP.M          0.1000                            :   STEP VALUE
 NULL.        -999.2500                            :   NULL VALUE
 COMP.    IMC                                      :   COMPANY NAME
 WELL.    THERESA SHAFT                            :   WELL NAME
 FLD.     DAWDON                                   :   FIELD NAME
 LOC.     N/A                                      :   LOCATION
 PROV.    N/A                                      :   PROVINCE
 SRVC.    N/A                                      :   SERVICE COMPANY NAME
 DATE.    03 Oct 03                                :   DATE
 UWI.     N/A                                      :   UNIQUE WELL IDENTIFIER
~PARAMETER INFORMATION
#MNEMO.UNIT         VALUE                 DESCRIPTION OF MNEMONIC
#------------------------------------------------------------------------------
~OTHER INFORMATION SECTION
#------------------------------------------------------------------------------
 TCDS 2822
~CURVE INFORMATION
#MNEMO.UNIT         API CODE              CURVE DESCRIPTION
#------------------------------------------------------------------------------
 DEPTH.M                                 :   0     Depth
 TEMP.DegC                               :   1     Temperature
 COND.uS/cm                              :   2     Conductivity
 DELT.DegC                               :   3     Delta T
 DELC.uS/cm                              :   4     Delta C
 NGAM.API                                :   5     Natural Gamma
#------------------------------------------------------------------------------
~A  DEPTH     TEMP      COND      DELT      DELC      NGAM      
# ...
   268.30     16.01  49151.95     -0.01     -7.57      0.47 
   268.40     16.03  49149.35     -0.02    -12.43      0.94 
   268.50     16.03  49145.35     -0.01    -17.95      0.94 
   268.60     16.02  49145.13     -0.01    -20.87      0.47 
   268.70     16.02  49147.73     -0.01    -20.76      0.88 
   268.80     16.03  49147.84      0.01    -20.22      0.94 
   268.90     16.04  49151.84      0.00    -12.22      0.88 
   269.00     16.03  49155.30      0.00     -5.08      0.82 
   269.10     16.03  49162.22     -0.00      3.14      0.88 
   269.20     16.03  49166.76      0.01     10.60      2.12 
   269.30     16.03  49168.81      0.02     16.87      1.29 
   269.40     16.03  49173.14      0.00     23.90      0.82 
   269.50     16.03  49176.92      0.01     31.57      0.47 
   269.60     16.03  49181.03      0.00     35.79      2.24 
   269.70     16.03  49183.74      0.01     36.01      1.76 
   269.80     16.03  49184.17     -0.00     35.47      0.88 
   269.90     16.03  49186.87     -0.00     35.79      1.82 
   270.00     16.02  49190.33     -0.01     34.49      0.88 
   270.10     16.02  49189.36     -0.00     26.17      0.00 
   270.20     16.04  49184.71      0.01     18.49      1.41 
   270.30     16.04  49181.25      0.01     12.76      1.35 
   270.40     16.04  49173.68      0.01      0.54      0.47 
   270.50     16.04  49167.84      0.01     -8.54      1.35 
   270.60     16.04  49162.54      0.01    -18.49      2.65 
   270.70     16.04  49158.54      0.01    -24.98      2.18 
   270.80     16.03  49154.43      0.00    -29.63      0.94 
   270.90     16.04  49151.73      0.00    -35.03      0.94 
   271.00     16.04  49147.73      0.01    -42.50      1.41 
   271.10     16.03  49146.22      0.00    -42.17      1.88 
   271.20     16.04  49146.11      0.00    -37.63      0.47 
   271.30     16.03  49145.35     -0.01    -34.93      0.94 
   271.40     16.03  49143.62     -0.01    -30.82      2.18 
   271.50     16.05  49145.35      0.01    -22.49      3.06 
   271.60     16.03  49149.13     -0.01    -11.89      1.76 
   271.70     16.04  49153.89     -0.00     -3.46      1.24 
   271.80     16.03  49158.11     -0.00      3.68      2.53 
   271.90     16.03  49163.73     -0.00     12.87      2.18 
   272.00     16.03  49169.68     -0.00     21.95      1.35 
   272.10     16.03  49174.44      0.00     28.33      0.82 
   272.20     16.02  49180.17     -0.03     34.93      0.82 
   272.30     16.03  49184.17     -0.00     38.71      0.41 
   272.40     16.04  49187.52      0.00     43.79      1.76 
   272.50     16.04  49187.74     -0.00     42.39      0.88 
   272.60     16.03  49188.39     -0.00     39.25      0.41 
   272.70     16.04  49189.47      0.00     35.36      1.76 
   272.80     16.04  49193.90      0.01     35.04      1.76 
   272.90     16.04  49196.61      0.01     31.58      1.71 
   273.00     16.04  49198.98      0.01     28.44      0.82 
   273.10     16.03  49199.96      0.00     24.76      0.82 
   273.20     16.04  49199.74      0.02     19.57      0.41 
   273.30     16.03  49200.71     -0.01     15.79      0.41 
   273.40     16.03  49201.58     -0.01     14.71      1.35 
   273.50     16.04  49203.09     -0.00     15.25      0.41 
   273.60     16.03  49205.69      0.01     17.30      0.00 
   273.70     16.03  49206.45     -0.01     16.11      1.35 
   273.80     16.03  49206.55     -0.01     12.54      2.18 
   273.90     16.03  49208.83     -0.01     12.22      1.71 
   274.00     16.04  49208.93     -0.00      9.95      1.82 
   274.10     16.04  49206.45      0.00      6.49      1.35 
   274.20     16.03  49206.45     -0.01      5.95      2.12 
   274.30     16.03  49201.69      0.01      0.11      0.88 
   274.40     16.04  49198.88      0.00     -3.46      0.00 
   274.50     16.04  49197.36      0.00     -5.73      0.41 
   274.60     16.03  49194.87     -0.00    -10.81      0.00 
   274.70     16.03  49194.87      0.00    -12.33      1.88 
   274.80     16.03  49196.61      0.01     -9.95      1.41 
   274.90     16.04  49197.36      0.01    -10.60      0.94 
   275.00     16.03  49194.66     -0.01    -13.63      0.88 
   275.10     16.03  49192.93     -0.01    -14.28      1.24 
   275.20     16.03  49194.55      0.00    -11.03      1.29 
   275.30     16.03  49196.50      0.00     -5.08      1.29 
   275.40     16.03  49196.50     -0.01     -2.38      1.71 
   275.50     16.03  49193.69     -0.01     -3.68      1.24 
   275.60     16.04  49190.44      0.01     -4.43      0.41 
   275.70     16.03  49187.63     -0.00     -7.25      1.82 
   275.80     16.03  49182.76     -0.00    -13.84      1.29 
   275.90     16.03  49175.30     -0.00    -21.09      1.35 
   276.00     16.03  49171.95     -0.00    -22.71      1.35 
   276.10     16.02  49166.22     -0.00    -27.57      1.24 
   276.20     16.04  49163.19      0.01    -31.25      1.29 
   276.30     16.02  49157.68     -0.01    -38.82      0.88 
   276.40     16.04  49156.27      0.01    -41.09      0.82 
   276.50     16.04  49156.49      0.01    -37.20      0.41 
   276.60     16.04  49156.38      0.01    -33.95      1.35 
   276.70     16.03  49155.84      0.00    -31.03      1.29 
   276.80     16.03  49156.81     -0.00    -23.57      0.00 
   276.90     16.03  49157.35     -0.01    -17.30      0.00 
   277.00     16.03  49158.97      0.01    -12.54      1.35 
   277.10     16.04  49160.92      0.01     -5.30      1.82 
   277.20     16.05  49164.27      0.01      1.84      0.41 
   277.30     16.04  49166.22      0.01      9.52      1.29 
   277.40     16.04  49168.27      0.00     11.79      1.76 
   277.50     16.03  49172.71     -0.01     16.98      0.47 
   277.60     16.04  49176.38      0.00     19.79      0.00 
   277.70     16.03  49178.65      0.00     22.82      0.41 
   277.80     16.04  49182.01      0.01     24.65      1.29 
   277.90     16.04  49182.98      0.01     25.63      2.12 
   278.00     16.02  49185.03     -0.01     25.30      0.82 
   278.10     16.04  49186.44     -0.00     24.65      0.82 
   278.20     16.03  49188.17     -0.02     23.68      0.82 
   278.30     16.05  49190.33      0.01     23.36      0.00 
   278.40     16.03  49192.06     -0.01     23.47      0.41 
   278.50     16.04  49190.01      0.00     16.98      0.88 
   278.60     16.02  49185.90     -0.02      9.52      0.41 
   278.70     16.03  49183.09      0.00      4.43      1.65 
   278.80     16.04  49179.41     -0.00     -2.81      1.24 
   278.90     16.03  49175.52     -0.01     -6.49      0.41 
   279.00     16.03  49172.81      0.01    -12.22      0.41 
   279.10     16.03  49169.90     -0.01    -16.54      1.24 
   279.20     16.03  49166.76      0.00    -21.41      1.71 
   279.30     16.03  49164.70     -0.01    -26.60      0.82 
   279.40     16.03  49161.68      0.00    -30.28      1.65 
   279.50     16.03  49158.43     -0.01    -30.60      1.71 
   279.60     16.04  49154.76      0.02    -32.01      2.24 
   279.70     16.04  49153.35      0.01    -30.28      2.18 
   279.80     16.04  49156.70      0.01    -21.19      1.71 
   279.90     16.03  49160.60      0.00    -13.08      1.29 
   280.00     16.03  49165.79      0.00     -5.51      0.47 
   280.10     16.04  49169.03      0.01     -0.11      0.88 
   280.20     16.04  49172.27      0.01      5.19      1.82 
   280.30     16.03  49175.95     -0.00     11.68      1.41 
   280.40     16.03  49179.95      0.00     18.71      0.47 
   280.50     16.04  49185.03      0.01     27.47      0.00 
   280.60     16.04  49187.41     -0.00     33.41      0.00 
   280.70     16.04  49191.20      0.01     37.20      0.41 
   280.80     16.04  49191.20     -0.01     34.49      0.41 
   280.90     16.03  49190.98      0.00     29.95      1.65 
   281.00     16.03  49189.04     -0.00     22.82      1.29 
   281.10     16.03  49189.25     -0.01     20.55      0.47 
   281.20     16.03  49189.25     -0.01     16.22      0.00 
   281.30     16.03  49189.14      0.00     12.11      1.29 
   281.40     16.03  49190.98     -0.00      9.95      1.29 
