#Written by Robertson Geologging WinLogger V1.0/311
~VERSION INFORMATION
#------------------------------------------------------------------------------
 VERS. 2.0 : CWLS LOG ASCII STANDARD - VERSION 2.0
 WRAP. NO  : ONE LINE PER DEPTH STEP
~WELL INFORMATION
#MNEM.UNIT         DATA                                DESCRIPTION OF MNEMONIC
#------------------------------------------------------------------------------
 STRT.M         57.1000                            :   START DEPTH
 STOP.M        520.1000                            :   STOP DEPTH
 STEP.M          0.1000                            :   STEP VALUE
 NULL.        -999.2500                            :   NULL VALUE
 COMP.    IMC                                      :   COMPANY NAME
 WELL.    THERESA SHAFT                            :   WELL NAME
 FLD.     DAWDON                                   :   FIELD NAME
 LOC.     N/A                                      :   LOCATION
 PROV.    N/A                                      :   PROVINCE
 SRVC.    N/A                                      :   SERVICE COMPANY NAME
 DATE.    03 Oct 03                                :   DATE
 UWI.     N/A                                      :   UNIQUE WELL IDENTIFIER
~PARAMETER INFORMATION
#MNEMO.UNIT         VALUE                 DESCRIPTION OF MNEMONIC
#------------------------------------------------------------------------------
~OTHER INFORMATION SECTION
#------------------------------------------------------------------------------
 TCDS 2822
~CURVE INFORMATION
#MNEMO.UNIT         API CODE              CURVE DESCRIPTION
#------------------------------------------------------------------------------
 DEPTH.M                                 :   0     Depth
 TEMP.DegC                               :   1     Temperature
 COND.uS/cm                              :   2     Conductivity
 DELT.DegC                               :   3     Delta T
 DELC.uS/cm                              :   4     Delta C
 NGAM.API                                :   5     Natural Gamma
#------------------------------------------------------------------------------
~A  DEPTH     TEMP      COND      DELT      DELC      NGAM      
# ...
   321.10     16.51  49591.69      0.03      5.96      1.82 
   321.20     16.50  49592.45      0.04      5.09      4.47 
   321.30     16.51  49592.45      0.03      6.07      3.06 
   321.40     16.52  49592.66      0.04      4.77      1.24 
   321.50     16.52  49593.10      0.04      4.98      0.82 
   321.60     16.52  49593.20      0.04      4.88      1.71 
   321.70     16.54  49594.18      0.05      4.44      2.12 
   321.80     16.53  49595.37      0.04      4.33      0.82 
   321.90     16.53  49596.89      0.03      5.53      0.88 
   322.00     16.53  49598.19      0.04      6.50      1.29 
   322.10     16.55  49599.06      0.04      7.37      1.35 
   322.20     16.55  49599.71      0.05      8.02      0.88 
   322.30     16.54  49600.36      0.03      7.69      1.71 
   322.40     16.55  49600.57      0.03      7.15      1.76 
   322.50     16.56  49600.46      0.03      6.50      1.71 
   322.60     16.57  49602.96      0.04      8.99      0.41 
   322.70     16.57  49602.85      0.03      7.58      0.82 
   322.80     16.58  49603.71      0.05      6.83      1.65 
   322.90     16.57  49605.45      0.04      7.80      0.82 
   323.00     16.58  49607.29      0.04      9.86      0.00 
   323.10     16.58  49607.07      0.02      9.53      0.82 
   323.20     16.59  49608.91      0.04     10.08      1.29 
   323.30     16.58  49610.65      0.04     11.05      1.82 
   323.40     16.59  49610.76      0.04     10.18      1.76 
   323.50     16.59  49611.62      0.03     10.40      0.41 
   323.60     16.60  49613.47      0.03     10.51      0.41 
   323.70     16.60  49614.98      0.03     12.13      0.47 
   323.80     16.59  49616.39      0.02     11.92      1.29 
   323.90     16.60  49617.26      0.02     11.92      0.88 
   324.00     16.60  49617.37      0.02     10.94      0.82 
   324.10     16.61  49618.99      0.03     11.92      1.24 
   324.20     16.60  49620.62      0.01     11.70      1.24 
   324.30     16.60  49622.24      0.02     12.46      0.82 
   324.40     16.61  49622.02      0.03     11.27      0.82 
   324.50     16.62  49623.76      0.02     11.27      1.76 
   324.60     16.61  49624.63      0.01     11.16      2.24 
   324.70     16.62  49626.03      0.02     11.05      0.88 
   324.80     16.62  49626.03      0.03     10.40      0.88 
   324.90     16.62  49627.44      0.02     10.94      0.41 
   325.00     16.62  49627.55      0.02      9.43      0.88 
   325.10     16.62  49629.50      0.01      9.75      0.82 
   325.20     16.62  49629.61      0.02      9.10      1.24 
   325.30     16.62  49630.04      0.02      7.80      0.41 
   325.40     16.62  49631.67      0.00      8.89      0.88 
   325.50     16.63  49632.32      0.01      7.80      1.71 
   325.60     16.63  49633.73      0.02      9.21      1.65 
   325.70     16.64  49634.92      0.02      9.64      2.06 
   325.80     16.65  49636.22      0.02     10.19      2.47 
   325.90     16.64  49636.44      0.02      8.99      1.71 
   326.00     16.64  49636.98      0.02      9.43      0.47 
   326.10     16.65  49638.39      0.03      9.64      0.82 
   326.20     16.66  49638.39      0.04      8.99      3.29 
   326.30     16.66  49639.15      0.04      9.10      2.53 
   326.40     16.65  49639.47      0.03      7.80      2.59 
   326.50     16.66  49641.96      0.03      9.10      2.18 
   326.60     16.65  49642.50      0.02      7.59      1.29 
   326.70     16.66  49642.61      0.02      6.94      2.06 
   326.80     16.66  49644.24      0.01      8.56      1.24 
   326.90     16.66  49645.21      0.02      8.78      0.94 
   327.00     16.67  49647.06      0.03      9.64      0.41 
   327.10     16.68  49647.38      0.03      8.24      1.29 
   327.20     16.68  49648.90      0.02     10.29      0.82 
   327.30     16.69  49651.50      0.03     12.35      1.29 
   327.40     16.70  49652.04      0.05     11.38      1.29 
   327.50     16.69  49651.93      0.03      9.97      0.41 
   327.60     16.70  49652.69      0.04     11.70      0.41 
   327.70     16.70  49653.23      0.03     11.16      0.41 
   327.80     16.70  49653.88      0.04      9.64      2.12 
   327.90     16.69  49655.40      0.03     10.73      2.53 
   328.00     16.71  49656.27      0.03      9.97      0.82 
   328.10     16.72  49657.03      0.04      9.43      0.82 
   328.20     16.71  49657.78      0.03      8.56      1.24 
   328.30     16.71  49657.03      0.02      6.07      0.94 
   328.40     16.71  49657.78      0.02      6.39      0.47 
   328.50     16.70  49658.00      0.01      6.61      1.24 
   328.60     16.72  49658.11      0.02      5.42      0.82 
   328.70     16.72  49658.43      0.03      4.44      1.24 
   328.80     16.74  49659.41      0.04      4.77      0.41 
   328.90     16.73  49659.52      0.04      3.90      0.00 
   329.00     16.72  49659.41      0.02      3.90      0.47 
   329.10     16.73  49660.06      0.01      3.79      0.88 
   329.20     16.75  49659.84      0.04      2.71      1.76 
   329.30     16.75  49660.06      0.04      2.38      2.94 
   329.40     16.75  49659.84      0.04      2.06      1.24 
   329.50     16.75  49660.17      0.05      1.41      0.88 
   329.60     16.75  49661.04      0.03      2.93      2.12 
   329.70     16.76  49662.44      0.03      4.01      1.65 
   329.80     16.76  49662.44      0.02      3.14      0.82 
   329.90     16.77  49662.44      0.04      2.28      2.12 
   330.00     16.77  49663.42      0.04      4.01      1.65 
   330.10     16.77  49664.29      0.04      4.99      0.82 
   330.20     16.77  49664.29      0.03      5.09      1.24 
   330.30     16.76  49664.83      0.02      5.53      1.24 
   330.40     16.78  49666.56      0.02      7.37      0.00 
   330.50     16.78  49666.45      0.02      6.29      0.88 
   330.60     16.78  49667.54      0.02      5.85      1.29 
   330.70     16.78  49668.51      0.02      6.83      2.65 
   330.80     16.78  49670.36      0.02      8.78      2.53 
   330.90     16.79  49671.01      0.02      8.56      1.71 
   331.00     16.80  49671.98      0.04      8.45      0.82 
   331.10     16.80  49671.22      0.03      6.94      0.00 
   331.20     16.79  49672.96      0.02      8.67      0.00 
   331.30     16.80  49672.96      0.04      7.26      1.24 
   331.40     16.80  49673.72      0.03      7.04      2.53 
   331.50     16.81  49675.56      0.03      9.00      1.35 
   331.60     16.83  49676.10      0.05      7.69      1.35 
   331.70     16.82  49676.97      0.04      8.35      1.76 
   331.80     16.82  49678.59      0.03      8.24      2.59 
   331.90     16.83  49679.35      0.04      9.21      2.12 
   332.00     16.83  49680.22      0.03      8.24      1.71 
   332.10     16.82  49680.98      0.02      8.89      0.00 
   332.20     16.82  49680.33      0.03      6.50      0.00 
   332.30     16.84  49681.84      0.04      8.02      0.00 
   332.40     16.84  49681.74      0.03      7.15      0.88 
   332.50     16.85  49683.25      0.04      7.70      0.88 
   332.60     16.85  49684.99      0.02      8.89      1.65 
   332.70     16.85  49685.75      0.03      8.78      1.24 
   332.80     16.85  49686.72      0.03      9.00      1.71 
   332.90     16.86  49687.37      0.04      8.78      1.24 
   333.00     16.86  49688.24      0.02      8.02      2.53 
   333.10     16.86  49688.67      0.04      8.45      2.59 
   333.20     16.87  49689.00      0.05      8.67      1.29 
   333.30     16.86  49689.97      0.02      7.37      0.82 
   333.40     16.88  49690.30      0.04      8.67      0.41 
   333.50     16.87  49692.03      0.02      7.80      0.82 
   333.60     16.89  49693.55      0.04      8.56      1.24 
   333.70     16.88  49694.31      0.04      8.56      1.24 
   333.80     16.88  49695.07      0.03      9.10      0.82 
   333.90     16.88  49695.83      0.02      9.32      0.00 
   334.00     16.89  49696.04      0.04      7.80      0.41 
   334.10     16.89  49697.02      0.03      8.56      0.00 
   334.20     16.89  49697.24      0.02      8.24      1.24 
