#Written by Robertson Geologging WinLogger V1.0/311
~VERSION INFORMATION
#------------------------------------------------------------------------------
 VERS. 2.0 : CWLS LOG ASCII STANDARD - VERSION 2.0
 WRAP. NO  : ONE LINE PER DEPTH STEP
~WELL INFORMATION
#MNEM.UNIT         DATA                                DESCRIPTION OF MNEMONIC
#------------------------------------------------------------------------------
 STRT.M         57.1000                            :   START DEPTH
 STOP.M        520.1000                            :   STOP DEPTH
 STEP.M          0.1000                            :   STEP VALUE
 NULL.        -999.2500                            :   NULL VALUE
 COMP.    IMC                                      :   COMPANY NAME
 WELL.    THERESA SHAFT                            :   WELL NAME
 FLD.     DAWDON                                   :   FIELD NAME
 LOC.     N/A                                      :   LOCATION
 PROV.    N/A                                      :   PROVINCE
 SRVC.    N/A                                      :   SERVICE COMPANY NAME
 DATE.    03 Oct 03                                :   DATE
 UWI.     N/A                                      :   UNIQUE WELL IDENTIFIER
~PARAMETER INFORMATION
#MNEMO.UNIT         VALUE                 DESCRIPTION OF MNEMONIC
#------------------------------------------------------------------------------
~OTHER INFORMATION SECTION
#------------------------------------------------------------------------------
 TCDS 2822
~CURVE INFORMATION
#MNEMO.UNIT         API CODE              CURVE DESCRIPTION
#------------------------------------------------------------------------------
 DEPTH.M                                 :   0     Depth
 TEMP.DegC                               :   1     Temperature
 COND.uS/cm                              :   2     Conductivity
 DELT.DegC                               :   3     Delta T
 DELC.uS/cm                              :   4     Delta C
 NGAM.API                                :   5     Natural Gamma
#------------------------------------------------------------------------------
~A  DEPTH     TEMP      COND      DELT      DELC      NGAM      
# ...
   175.90     13.69  36837.69      0.02    754.62      1.41 
   176.00     13.68  36921.65     -0.00    757.99      0.47 
   176.10     13.67  37004.12      0.01    758.42      0.47 
   176.20     13.70  37086.31      0.02    760.06      0.47 
   176.30     13.69  37157.01      0.02    747.83      0.94 
   176.40     13.70  37216.92      0.03    739.21      0.94 
   176.50     13.69  37281.74      0.02    732.64      0.47 
   176.60     13.70  37347.71      0.02    720.27      0.94 
   176.70     13.70  37415.85      0.02    713.09      0.47 
   176.80     13.70  37495.87      0.02    725.81      1.41 
   176.90     13.69  37570.60     -0.00    726.09      0.94 
   177.00     13.71  37631.56      0.03    701.45      0.94 
   177.10     13.71  37688.33      0.03    676.57      0.94 
   177.20     13.72  37751.78      0.02    657.00      0.00 
   177.30     13.71  37812.68      0.02    648.02      0.00 
   177.40     13.71  37855.48      0.01    632.65      0.00 
   177.50     13.71  37904.23      0.02    614.83      0.47 
   177.60     13.70  37963.65      0.00    609.50      0.94 
   177.70     13.72  38026.37      0.02    602.85      0.88 
   177.80     13.70  38086.13      0.00    581.77      0.88 
   177.90     13.72  38151.86      0.03    574.50      0.47 
   178.00     13.71  38213.60     -0.00    575.30      0.47 
   178.10     13.71  38274.24      0.01    579.98      0.47 
   178.20     13.72  38331.41      0.00    573.70      0.94 
   178.30     13.71  38380.48     -0.00    562.68      1.88 
   178.40     13.71  38423.51      0.01    563.72      1.41 
   178.50     13.72  38471.37      0.01    561.20      2.35 
   178.60     13.73  38522.02      0.02    551.61      0.94 
   178.70     13.71  38572.68     -0.00    538.63      0.00 
   178.80     13.73  38619.55      0.03    527.48      0.00 
   178.90     13.72  38662.73     -0.00    504.93      0.47 
   179.00     13.72  38709.11      0.02    489.56      0.47 
   179.10     13.73  38756.94      0.01    476.75      0.94 
   179.20     13.74  38806.02      0.02    469.47      0.94 
   179.30     13.73  38854.18      0.03    468.56      0.00 
   179.40     13.73  38903.90      0.02    475.25      0.00 
   179.50     13.72  38952.60      0.00    476.09      0.41 
   179.60     13.74  38995.13      0.01    467.56      0.88 
   179.70     13.73  39044.47      0.01    466.65      1.41 
   179.80     13.73  39093.30      0.00    470.26      1.41 
   179.90     13.73  39137.21      0.01    470.26      0.94 
   180.00     13.73  39176.99      0.00    461.92      0.47 
   180.10     13.73  39215.04      0.00    453.16      0.00 
   180.20     13.74  39262.68      0.00    451.52      0.00 
   180.30     13.73  39311.26      0.00    452.76      0.94 
   180.40     13.74  39357.48      0.00    449.26      0.94 
   180.50     13.73  39401.34      0.00    444.42      0.47 
   180.60     13.74  39447.47      0.00    447.20      0.94 
   180.70     13.73  39493.21      0.01    444.42      0.94 
   180.80     13.73  39538.85      0.01    440.40      0.88 
   180.90     13.75  39582.75      0.02    442.14      1.35 
   181.00     13.74  39628.31      0.01    448.74      1.41 
   181.10     13.75  39678.53      0.02    459.16      0.88 
   181.20     13.75  39727.62      0.02    460.61      0.88 
   181.30     13.75  39775.91      0.02    460.42      0.47 
   181.40     13.76  39818.51      0.02    456.70      0.94 
   181.50     13.76  39876.12      0.04    470.55      0.94 
   181.60     13.76  39935.20      0.02    483.18      0.94 
   181.70     13.76  39987.26      0.03    489.40      0.94 
   181.80     13.75  40034.67      0.02    490.65      0.88 
   181.90     13.76  40101.56      0.01    515.30      0.47 
   182.00     13.76  40174.07      0.02    541.53      0.47 
   182.10     13.75  40240.80      0.00    558.86      0.47 
   182.20     13.78  40301.96      0.02    569.16      0.47 
   182.30     13.77  40372.36      0.02    593.04      1.29 
   182.40     13.77  40457.73      0.02    634.05      0.88 
   182.50     13.77  40537.83      0.01    654.78      0.88 
   182.60     13.77  40599.91      0.01    657.78      1.35 
   182.70     13.78  40675.61      0.03    683.90      0.41 
   182.80     13.78  40788.64      0.03    748.80      0.88 
   182.90     13.77  40890.51      0.01    782.32      0.47 
   183.00     13.77  40967.67      0.01    786.76      0.00 
   183.10     13.79  41058.18      0.03    810.43      0.47 
   183.20     13.79  41160.18      0.02    853.04      0.47 
   183.30     13.78  41260.56      0.01    881.36      1.41 
   183.40     13.78  41366.84      0.01    900.39      0.94 
   183.50     13.79  41465.65      0.02    921.69      0.00 
   183.60     13.78  41548.14      0.01    942.21      0.00 
   183.70     13.80  41668.97      0.02    982.97      0.47 
   183.80     13.80  41809.81      0.02   1009.01      0.47 
   183.90     13.81  41955.98      0.04   1056.11      0.41 
   184.00     13.80  42115.21      0.03   1138.81      0.88 
   184.10     13.80  42280.44      0.02   1212.90      1.41 
   184.20     13.80  42426.10      0.01   1255.51      1.35 
   184.30     13.79  42583.08      0.01   1312.10      0.47 
   184.40     13.80  42751.94      0.02   1373.85      0.94 
   184.50     13.80  42908.01      0.01   1435.47      0.47 
   184.60     13.80  43044.97      0.02   1485.77      0.88 
   184.70     13.80  43188.44      0.00   1506.43      1.35 
   184.80     13.81  43374.84      0.01   1549.26      0.47 
   184.90     13.81  43573.20      0.01   1601.55      1.24 
   185.00     13.81  43730.21      0.01   1598.05      1.65 
   185.10     13.82  43872.15      0.01   1575.48      0.41 
   185.20     13.82  44030.65      0.02   1588.84      0.82 
   185.30     13.82  44185.79      0.02   1584.88      1.29 
   185.40     13.82  44352.46      0.02   1583.94      1.41 
   185.50     13.83  44500.53      0.03   1578.97      0.47 
   185.60     13.84  44633.36      0.03   1575.25      0.00 
   185.70     13.84  44762.98      0.04   1556.98      0.00 
   185.80     13.85  44877.95      0.04   1483.01      0.47 
   185.90     13.84  45000.94      0.03   1409.52      1.41 
   186.00     13.83  45127.93      0.02   1384.55      1.82 
   186.10     13.85  45230.04      0.03   1342.07      0.88 
   186.20     13.85  45331.89      0.04   1286.25      0.00 
   186.30     13.86  45395.31      0.04   1193.46      0.00 
   186.40     13.85  45468.21      0.03   1099.90      0.00 
   186.50     13.86  45571.55      0.03   1057.69      0.00 
   186.60     13.86  45676.75      0.02   1029.95      1.41 
   186.70     13.86  45758.91      0.02    983.00      0.94 
   186.80     13.85  45820.33      0.00    930.82      0.94 
   186.90     13.85  45883.26      0.01    868.21      1.82 
   187.00     13.86  45943.23      0.03    802.99      1.88 
   187.10     13.87  45996.07      0.02    756.26      0.94 
   187.20     13.86  46047.65      0.01    707.37      0.88 
   187.30     13.87  46090.39      0.02    690.52      0.47 
   187.40     13.89  46131.01      0.04    652.17      0.47 
   187.50     13.87  46173.35      0.01    590.41      0.47 
   187.60     13.88  46213.66      0.02    527.12      0.41 
   187.70     13.88  46262.31      0.02    497.33      0.88 
   187.80     13.88  46310.11      0.03    483.50      1.76 
   187.90     13.89  46358.88      0.04    469.13      0.47 
   188.00     13.88  46405.85      0.02    457.08      0.00 
   188.10     13.91  46449.31      0.03    448.44      0.00 
   188.20     13.90  46486.36      0.04    434.24      0.94 
   188.30     13.89  46524.71      0.02    430.80      0.47 
   188.40     13.89  46567.65      0.00    433.12      0.00 
   188.50     13.91  46600.56      0.04    423.80      0.00 
   188.60     13.90  46635.19      0.02    417.05      0.41 
   188.70     13.91  46677.30      0.03    409.66      1.35 
   188.80     13.91  46718.89      0.02    402.70      0.00 
   188.90     13.92  46754.92      0.03    391.13      0.47 
   189.00     13.91  46794.70      0.03    384.37      0.41 
