#Written by Robertson Geologging WinLogger V1.0/370
~VERSION INFORMATION
#------------------------------------------------------------------------------
 VERS. 2.0 : CWLS LOG ASCII STANDARD - VERSION 2.0
 WRAP. NO  : ONE LINE PER DEPTH STEP
~WELL INFORMATION
#MNEM.UNIT         DATA                                DESCRIPTION OF MNEMONIC
#------------------------------------------------------------------------------
 STRT.M         37.0600                            :   START DEPTH
 STOP.M        510.0000                            :   STOP DEPTH
 STEP.M          0.0100                            :   STEP VALUE
 NULL.        -999.2500                            :   NULL VALUE
 COMP.    WHITE YOUN GREEN                         :   COMPANY NAME
 WELL.    DAWDON SHAFT                             :   WELL NAME
 FLD.     DAWDON                                   :   FIELD NAME
 LOC.     N/A                                      :   LOCATION
 PROV.    N/A                                      :   PROVINCE
 SRVC.    N/A                                      :   SERVICE COMPANY NAME
 DATE.    13 Dec 06                                :   DATE
 UWI.     N/A                                      :   UNIQUE WELL IDENTIFIER
~PARAMETER INFORMATION
#MNEMO.UNIT         VALUE                 DESCRIPTION OF MNEMONIC
#------------------------------------------------------------------------------
~OTHER INFORMATION SECTION
#------------------------------------------------------------------------------
 lLOGGING DOWN
~CURVE INFORMATION
#MNEMO.UNIT         API CODE              CURVE DESCRIPTION
#------------------------------------------------------------------------------
 DEPTH.M                                 :   0     Depth
 TEMP.DegC                               :   1     Temperature
 CN25.mS/cm                              :   2     Conductivity@25DegC
 COND.mS/cm                              :   3     Conductivity
 DELT.DegC                               :   4     Delta T
 DELC.mS/cm                              :   5     Delta C
 NGAM.CPS                                :   6     Natural Gamma
#------------------------------------------------------------------------------
~A  DEPTH     TEMP      CN25      COND      DELT      DELC      NGAM      
# ...
   383.97     19.54     74.68     68.23      0.00     -0.03      2.06 
   383.98     19.54     74.68     68.22      0.00     -0.03      2.06 
   383.99     19.53     74.69     68.22      0.00     -0.02      2.06 
   384.00     19.53     74.70     68.23     -0.00     -0.00      2.47 
   384.01     19.53     74.71     68.22     -0.01      0.01      2.88 
   384.02     19.52     74.71     68.22     -0.01      0.02      2.88 
   384.03     19.52     74.72     68.22     -0.02      0.03      2.47 
   384.04     19.52     74.72     68.22     -0.02      0.04      2.82 
   384.05     19.52     74.72     68.22     -0.02      0.03      2.82 
   384.06     19.52     74.73     68.22     -0.02      0.03      2.82 
   384.07     19.52     74.74     68.22     -0.02      0.04      2.41 
   384.08     19.52     74.74     68.22     -0.02      0.03      2.00 
   384.09     19.52     74.74     68.22     -0.02      0.03      2.00 
   384.10     19.52     74.73     68.22     -0.01      0.02      1.59 
   384.11     19.52     74.71     68.22     -0.00     -0.01      1.18 
   384.12     19.53     74.71     68.22      0.00     -0.02      1.59 
   384.13     19.53     74.71     68.22      0.00     -0.02      1.59 
   384.14     19.53     74.71     68.22      0.00     -0.01      3.24 
   384.15     19.53     74.70     68.22      0.00     -0.02      3.24 
   384.16     19.53     74.70     68.22      0.00     -0.02      3.24 
   384.17     19.53     74.69     68.22      0.00     -0.02      2.82 
   384.18     19.53     74.68     68.22      0.00     -0.03      2.41 
   384.19     19.53     74.68     68.22      0.00     -0.03      2.41 
   384.20     19.53     74.69     68.22      0.00     -0.02      2.82 
   384.21     19.53     74.69     68.22     -0.00     -0.01      2.47 
   384.22     19.53     74.70     68.22     -0.01      0.00      2.47 
   384.23     19.53     74.70     68.22     -0.01      0.00      2.47 
   384.24     19.52     74.71     68.22     -0.01      0.01      2.47 
   384.25     19.52     74.71     68.21     -0.01     -0.01      2.88 
   384.26     19.52     74.71     68.21     -0.01     -0.00      2.88 
   384.27     19.52     74.72     68.22     -0.01      0.00      2.88 
   384.28     19.52     74.73     68.22     -0.01      0.01      2.88 
   384.29     19.52     74.73     68.22     -0.01      0.02      2.47 
   384.30     19.52     74.73     68.22     -0.01      0.01      2.47 
   384.31     19.52     74.72     68.22     -0.01      0.00      1.53 
   384.32     19.52     74.72     68.22     -0.00     -0.01      1.94 
   384.33     19.52     74.72     68.22     -0.00     -0.00      1.94 
   384.34     19.52     74.73     68.22     -0.01      0.01      2.35 
   384.35     19.52     74.73     68.22     -0.01      0.01      3.18 
   384.36     19.52     74.74     68.22     -0.01      0.03      3.59 
   384.37     19.51     74.74     68.22     -0.02      0.03      3.18 
   384.38     19.51     74.74     68.22     -0.02      0.03      3.18 
   384.39     19.51     74.74     68.22     -0.01      0.02      4.12 
   384.40     19.52     74.74     68.22     -0.01      0.02      4.12 
   384.41     19.52     74.73     68.22     -0.01      0.02      4.53 
   384.42     19.52     74.73     68.22     -0.01      0.02      4.53 
   384.43     19.52     74.72     68.22     -0.01      0.01      4.53 
   384.44     19.53     74.71     68.22     -0.01      0.00      4.94 
   384.45     19.53     74.69     68.22      0.00     -0.03      5.35 
   384.46     19.53     74.68     68.22      0.01     -0.04      6.18 
   384.47     19.54     74.67     68.22      0.01     -0.06      6.59 
   384.48     19.54     74.67     68.22      0.02     -0.07      5.88 
   384.49     19.54     74.67     68.22      0.02     -0.07      5.47 
   384.50     19.54     74.66     68.21      0.02     -0.08      5.47 
   384.51     19.54     74.67     68.21      0.02     -0.09      5.06 
   384.52     19.53     74.67     68.21      0.03     -0.10      4.24 
   384.53     19.53     74.68     68.21      0.03     -0.11      3.82 
   384.54     19.53     74.68     68.21      0.03     -0.10      3.82 
   384.55     19.53     74.68     68.21      0.03     -0.10      3.82 
   384.56     19.53     74.68     68.21      0.03     -0.09      2.88 
   384.57     19.53     74.68     68.21      0.02     -0.08      2.88 
   384.58     19.53     74.68     68.21      0.02     -0.08      2.47 
   384.59     19.53     74.68     68.21      0.02     -0.08      2.47 
   384.60     19.53     74.68     68.21      0.02     -0.07      2.47 
   384.61     19.53     74.69     68.22      0.01     -0.06      2.06 
   384.62     19.53     74.69     68.21      0.01     -0.05      2.06 
   384.63     19.53     74.69     68.21      0.01     -0.04      1.65 
   384.64     19.53     74.69     68.21      0.00     -0.02      1.24 
   384.65     19.53     74.69     68.21     -0.00     -0.01      1.24 
   384.66     19.53     74.70     68.21     -0.00     -0.01      1.24 
   384.67     19.52     74.71     68.21     -0.00     -0.01      1.65 
   384.68     19.52     74.72     68.21     -0.01     -0.00      1.65 
   384.69     19.52     74.73     68.21     -0.01      0.01      1.65 
   384.70     19.52     74.72     68.21     -0.01      0.01      1.65 
   384.71     19.52     74.72     68.21     -0.01      0.00      1.65 
   384.72     19.52     74.71     68.21     -0.01      0.00      1.65 
   384.73     19.52     74.71     68.21     -0.01     -0.00      1.65 
   384.74     19.52     74.71     68.21     -0.00     -0.00      1.65 
   384.75     19.52     74.71     68.21     -0.00     -0.01      1.65 
   384.76     19.52     74.71     68.21     -0.00     -0.02      1.24 
   384.77     19.53     74.70     68.21      0.00     -0.02      1.24 
   384.78     19.53     74.69     68.21      0.00     -0.03      1.24 
   384.79     19.53     74.69     68.21      0.00     -0.02      0.82 
   384.80     19.53     74.69     68.21     -0.00     -0.01      0.41 
   384.81     19.53     74.69     68.21     -0.00     -0.02      0.41 
   384.82     19.53     74.70     68.21     -0.00     -0.01      0.41 
   384.83     19.53     74.70     68.21     -0.00     -0.01      0.41 
   384.84     19.52     74.70     68.21     -0.00     -0.00      0.00 
   384.85     19.52     74.70     68.21     -0.01      0.00      0.00 
   384.86     19.52     74.71     68.21     -0.01     -0.00      0.41 
   384.87     19.52     74.71     68.21     -0.01      0.01      0.82 
   384.88     19.52     74.71     68.21     -0.01      0.02      0.82 
   384.89     19.52     74.71     68.20     -0.01      0.02      0.82 
   384.90     19.52     74.71     68.20     -0.01      0.02      1.24 
   384.91     19.52     74.70     68.20     -0.01      0.02      1.24 
   384.92     19.52     74.70     68.20     -0.01      0.01      1.24 
   384.93     19.52     74.70     68.20     -0.01      0.01      1.65 
   384.94     19.52     74.70     68.21     -0.01      0.02      1.65 
   384.95     19.53     74.70     68.21     -0.01      0.02      1.65 
   384.96     19.53     74.69     68.21     -0.01      0.01      1.65 
   384.97     19.53     74.68     68.21     -0.01      0.00      1.65 
   384.98     19.53     74.67     68.21     -0.00     -0.01      1.65 
   384.99     19.54     74.66     68.21      0.01     -0.04      1.65 
   385.00     19.54     74.66     68.21      0.01     -0.04      1.65 
   385.01     19.54     74.66     68.21      0.01     -0.05      1.65 
   385.02     19.54     74.65     68.21      0.02     -0.06      2.06 
   385.03     19.54     74.65     68.21      0.02     -0.07      2.06 
   385.04     19.54     74.65     68.21      0.02     -0.08      1.65 
   385.05     19.55     74.64     68.21      0.03     -0.09      1.65 
   385.06     19.55     74.64     68.21      0.03     -0.10      1.65 
   385.07     19.55     74.64     68.21      0.03     -0.10      1.24 
   385.08     19.54     74.65     68.21      0.03     -0.09      1.24 
   385.09     19.54     74.66     68.21      0.02     -0.07      1.24 
