#Written by Robertson Geologging WinLogger V1.0/406
~VERSION INFORMATION
#------------------------------------------------------------------------------
 VERS. 2.0 : CWLS LOG ASCII STANDARD - VERSION 2.0
 WRAP. NO  : ONE LINE PER DEPTH STEP
~WELL INFORMATION
#MNEM.UNIT         DATA                                DESCRIPTION OF MNEMONIC
#------------------------------------------------------------------------------
 STRT.M         40.0600                            :   START DEPTH
 STOP.M        498.0000                            :   STOP DEPTH
 STEP.M          0.0100                            :   STEP VALUE
 NULL.        -999.2500                            :   NULL VALUE
 COMP.    Coal Authority                           :   COMPANY NAME
 WELL.    Dawdon                                   :   WELL NAME
 FLD.     N/A                                      :   FIELD NAME
 LOC.     N/A                                      :   LOCATION
 PROV.    N/A                                      :   PROVINCE
 SRVC.    N/A                                      :   SERVICE COMPANY NAME
 DATE.    30 Sep 08                                :   DATE
 UWI.     N/A                                      :   UNIQUE WELL IDENTIFIER
~PARAMETER INFORMATION
#MNEMO.UNIT         VALUE                 DESCRIPTION OF MNEMONIC
#------------------------------------------------------------------------------
~OTHER INFORMATION SECTION
#------------------------------------------------------------------------------
 TCGS2822
~CURVE INFORMATION
#MNEMO.UNIT         API CODE              CURVE DESCRIPTION
#------------------------------------------------------------------------------
 DEPTH.M                                 :   0     Depth
 TEMP.DegC                               :   1     Temperature
 COND.uS/cm                              :   2     Conductivity
 DELT.DegC                               :   3     Delta T
 DELC.uS/cm                              :   4     Delta C
 NGAM.CPS                                :   5     Natural Gamma
#------------------------------------------------------------------------------
~A  DEPTH     TEMP      COND      DELT      DELC      NGAM      
# ...
   375.34     19.34  45641.01     -0.01      2.34      0.00 
   375.35     19.34  45648.03     -0.01      9.36      0.00 
   375.36     19.36  45648.03      0.00      7.02      0.00 
   375.37     19.34  45638.66     -0.01      0.00      0.00 
   375.38     19.33  45649.20     -0.03     10.53      0.00 
   375.39     19.33  45638.66     -0.03      5.85      8.00 
   375.40     19.33  45648.03     -0.04     18.72      0.00 
   375.41     19.33  45641.01     -0.03      8.19      0.00 
   375.42     19.35  45648.03     -0.01      9.36      0.00 
   375.43     19.36  45638.66      0.00      5.85      0.00 
   375.44     19.35  45649.20      0.00     10.53      7.00 
   375.45     19.37  45629.30      0.01    -11.70      0.00 
   375.46     19.38  45641.01      0.03     11.70      7.00 
   375.47     19.37  45648.03      0.02      7.02      0.00 
   375.48     19.38  45638.66      0.03      9.36      0.00 
   375.49     19.38  45641.01      0.03      2.34      0.00 
   375.50     19.36  45648.03      0.02      7.02      0.00 
   375.51     19.36  45641.01      0.02      2.34      0.00 
   375.52     19.36  45638.66      0.01     14.04      0.00 
   375.53     19.34  45641.01     -0.01      2.34      0.00 
   375.54     19.34  45648.03     -0.01      7.02      0.00 
   375.55     19.34  45641.01     -0.00      2.34     14.00 
   375.56     19.35  45638.66      0.00      5.85      0.00 
   375.57     19.36  45641.01      0.00      2.34      7.00 
   375.58     19.37  45648.03      0.01      7.02      8.00 
   375.59     19.36  45641.01     -0.02      2.34      0.00 
   375.60     19.35  45638.66     -0.03      5.85      0.00 
   375.61     19.36  45649.20     -0.00      1.17      0.00 
   375.62     19.36  45648.03     -0.01      9.36      8.00 
   375.63     19.37  45641.01      0.02     16.38      7.00 
   375.64     19.38  45648.03      0.03      0.00      0.00 
   375.65     19.37  45641.01      0.00      2.34      0.00 
   375.66     19.34  45648.03     -0.02      7.02      0.00 
   375.67     19.36  45648.03     -0.01      9.36      0.00 
   375.68     19.35  45632.81     -0.03     -5.85      0.00 
   375.69     19.35  45648.03     -0.03      7.02      0.00 
   375.70     19.35  45648.03     -0.01      9.36      0.00 
   375.71     19.34  45649.20     -0.02      1.17      7.00 
   375.72     19.34  45648.03     -0.00      7.02      0.00 
   375.73     19.35  45648.03      0.02      9.36      8.00 
   375.74     19.35  45641.01      0.02      8.19      0.00 
   375.75     19.35  45658.56      0.03     19.89      8.00 
   375.76     19.37  45648.03      0.03      0.00      8.00 
   375.77     19.37  45638.66      0.02     -2.34      0.00 
   375.78     19.38  45649.20      0.02     10.53      0.00 
   375.79     19.39  45638.66      0.02     -2.34      0.00 
   375.80     19.37  45658.56      0.00     19.89      0.00 
   375.81     19.37  45641.01      0.01     -8.19      0.00 
   375.82     19.37  45658.56      0.04     10.53      8.00 
   375.83     19.36  45641.01      0.01      0.00      7.00 
   375.84     19.36  45658.56      0.02     19.89      0.00 
   375.85     19.36  45648.03      0.02      0.00      8.00 
   375.86     19.34  45649.20     -0.02     16.38      7.00 
   375.87     19.34  45648.03     -0.01      0.00      0.00 
   375.88     19.34  45649.20     -0.01      8.19      0.00 
   375.89     19.33  45658.56     -0.01     10.53      0.00 
   375.90     19.35  45649.20      0.00      8.19      0.00 
   375.91     19.36  45638.66      0.01     -9.36      0.00 
   375.92     19.37  45648.03      0.01      0.00      0.00 
   375.93     19.37  45649.20      0.01      8.19      0.00 
   375.94     19.38  45658.56      0.01     10.53      8.00 
   375.95     19.37  45649.20      0.01      0.00      0.00 
   375.96     19.38  45658.56      0.03     19.89      0.00 
   375.97     19.40  45649.20      0.05      8.19      7.00 
   375.98     19.38  45648.03      0.03      0.00      0.00 
   375.99     19.38  45649.20      0.03      8.19      7.00 
   376.00     19.36  45658.56      0.01     10.53      0.00 
   376.01     19.36  45648.03      0.02      0.00      0.00 
   376.02     19.36  45649.20      0.03      8.19      0.00 
   376.03     19.38  45648.03      0.03      7.02      0.00 
   376.04     19.39  45658.56      0.06     10.53      7.00 
   376.05     19.39  45648.03      0.05      0.00      8.00 
   376.06     19.38  45658.56      0.03      9.36      0.00 
   376.07     19.37  45658.56      0.03     19.89      0.00 
   376.08     19.36  45658.56      0.01      9.36      0.00 
   376.09     19.35  45649.20      0.00     10.53      0.00 
   376.10     19.35  45658.56      0.00     17.55      0.00 
   376.11     19.34  45658.56     -0.00     10.53      0.00 
   376.12     19.35  45658.56      0.00      9.36      0.00 
   376.13     19.35  45658.56     -0.00     19.89      7.00 
   376.14     19.35  45648.03     -0.02      0.00      0.00 
   376.15     19.36  45658.56      0.00      9.36      0.00 
   376.16     19.35  45658.56     -0.03     10.53      0.00 
   376.17     19.33  45658.56     -0.04      9.36      0.00 
   376.18     19.34  45666.75     -0.01     18.72      0.00 
   376.19     19.32  45658.56     -0.04     19.89      8.00 
   376.20     19.33  45658.56     -0.01     17.55      7.00 
   376.21     19.33  45667.92     -0.01     19.89      0.00 
   376.22     19.33  45658.56     -0.01     10.53      0.00 
   376.23     19.36  45658.56      0.00      9.36      0.00 
   376.24     19.35  45667.92     -0.01     29.26      0.00 
   376.25     19.37  45648.03      0.00    -10.53      0.00 
   376.26     19.37  45666.75      0.00     25.74      0.00 
   376.27     19.36  45658.56      0.01     10.53      0.00 
   376.28     19.37  45666.75      0.00     18.72      0.00 
   376.29     19.34  45667.92     -0.02     29.26      0.00 
   376.30     19.35  45658.56     -0.01      9.36      8.00 
   376.31     19.34  45667.92     -0.01     29.26      0.00 
   376.32     19.34  45666.75     -0.01     28.09      0.00 
   376.33     19.36  45667.92      0.01     26.92      0.00 
   376.34     19.37  45667.92      0.02     19.89      8.00 
   376.35     19.38  45658.56      0.02     10.53      7.00 
   376.36     19.37  45667.92      0.03     29.26      0.00 
   376.37     19.37  45658.56      0.03      9.36      0.00 
   376.38     19.37  45666.75      0.04     28.09      0.00 
   376.39     19.34  45667.92      0.01     19.89      8.00 
   376.40     19.36  45667.92      0.03     26.92      0.00 
   376.41     19.36  45666.75      0.01     18.72      0.00 
   376.42     19.36  45667.92      0.00     29.26      0.00 
   376.43     19.38  45667.92      0.03     18.72      8.00 
   376.44     19.38  45666.75      0.01     37.45      0.00 
   376.45     19.37  45667.92     -0.01     26.92      8.00 
   376.46     19.37  45667.92     -0.00     19.89      8.00 
   376.47     19.34  45666.75     -0.04     28.09      0.00 
   376.48     19.34  45658.56     -0.04     17.55     16.00 
   376.49     19.34  45677.28     -0.02     29.26      0.00 
   376.50     19.34  45666.75     -0.02     25.74      0.00 
   376.51     19.36  45667.92     -0.00     29.26      0.00 
   376.52     19.36  45666.75      0.02     25.74      7.00 
   376.53     19.37  45667.92      0.03     19.89      0.00 
   376.54     19.37  45674.94      0.03     33.94      0.00 
   376.55     19.36  45667.92      0.01     29.26      0.00 
   376.56     19.37  45666.75      0.00     25.74     14.00 
   376.57     19.37  45677.28      0.00     29.26      0.00 
   376.58     19.37  45667.92      0.01     26.92      0.00 
   376.59     19.37  45674.94      0.02     36.28      0.00 
   376.60     19.36  45658.56      0.00      9.36      8.00 
   376.61     19.36  45674.94      0.00     26.92      0.00 
   376.62     19.36  45667.92     -0.01     26.92      8.00 
   376.63     19.38  45674.94      0.00     26.92      0.00 
   376.64     19.39  45667.92      0.02     26.92      0.00 
   376.65     19.37  45674.94      0.03     26.92      0.00 
