#Written by Robertson Geologging WinLogger V1.0/312
~VERSION INFORMATION
#------------------------------------------------------------------------------
 VERS. 2.0 : CWLS LOG ASCII STANDARD - VERSION 2.0
 WRAP. NO  : ONE LINE PER DEPTH STEP
~WELL INFORMATION
#MNEM.UNIT         DATA                                DESCRIPTION OF MNEMONIC
#------------------------------------------------------------------------------
 STRT.M         56.2000                            :   START DEPTH
 STOP.M        520.0000                            :   STOP DEPTH
 STEP.M          0.1000                            :   STEP VALUE
 NULL.        -999.2500                            :   NULL VALUE
 COMP.    I.M..C.                                  :   COMPANY NAME
 WELL.    Dawdon Shaft                             :   WELL NAME
 FLD.     Dawdon                                   :   FIELD NAME
 LOC.     N/A                                      :   LOCATION
 PROV.    N/A                                      :   PROVINCE
 SRVC.    N/A                                      :   SERVICE COMPANY NAME
 DATE.    30 Jan 04                                :   DATE
 UWI.     N/A                                      :   UNIQUE WELL IDENTIFIER
~PARAMETER INFORMATION
#MNEMO.UNIT         VALUE                 DESCRIPTION OF MNEMONIC
#------------------------------------------------------------------------------
~OTHER INFORMATION SECTION
#------------------------------------------------------------------------------
 TCGX extended range 1365
~CURVE INFORMATION
#MNEMO.UNIT         API CODE              CURVE DESCRIPTION
#------------------------------------------------------------------------------
 DEPTH.M                                 :   0     Depth
 COND.mS/cm                              :   1     Conductivity
 TEMP.DegC                               :   2     Temperature
 C@25.mS/cm                              :   3     Conductivity @25Deg
 DELT.DegC                               :   4     Delta T
 DC@25.mS/cm                             :   5     Delta C @25Deg
 OUT4.CPS                                :   6     Natural Gamma
#------------------------------------------------------------------------------
~A  DEPTH     COND      TEMP      C@25      DELT      DC@25     OUT4      
# ...
   361.30     72.98     19.10     81.36      0.52      0.23      3.59 
   361.40     72.96     19.09     81.38      0.47     -0.13      2.76 
   361.50     72.94     19.11     81.28      0.42     -0.51      1.06 
   361.60     72.91     19.12     81.24      0.37     -0.64      2.35 
   361.70     72.89     19.13     81.17      0.32     -0.71      2.71 
   361.80     72.87     19.14     81.12      0.27     -0.76      2.24 
   361.90     72.84     19.13     81.12      0.22     -0.76      3.88 
   362.00     72.82     19.13     81.07      0.14     -0.63      2.24 
   362.10     72.80     19.13     81.08      0.09     -0.51      1.53 
   362.20     72.78     19.14     81.03      0.07     -0.45      1.59 
   362.30     72.77     19.13     81.02      0.03     -0.34      2.82 
   362.40     72.75     19.13     81.00      0.04     -0.36      1.88 
   362.50     72.74     19.13     81.00      0.01     -0.27      2.35 
   362.60     72.73     19.13     80.99      0.01     -0.25      2.41 
   362.70     72.72     19.14     80.92      0.01     -0.22      2.41 
   362.80     72.70     19.13     80.95     -0.00     -0.18      2.71 
   362.90     72.70     19.14     80.91      0.01     -0.20      2.18 
   363.00     72.69     19.14     80.93      0.01     -0.17      1.53 
   363.10     72.68     19.14     80.89      0.01     -0.18      0.76 
   363.20     72.68     19.14     80.90     -0.00     -0.11      2.00 
   363.30     72.66     19.13     80.91      0.00     -0.12      2.76 
   363.40     72.66     19.13     80.90     -0.00     -0.09      2.35 
   363.50     72.66     19.13     80.91     -0.00     -0.09      0.82 
   363.60     72.65     19.13     80.90     -0.00     -0.08      3.00 
   363.70     72.64     19.13     80.88     -0.01     -0.05      2.71 
   363.80     72.64     19.14     80.85      0.01     -0.08      0.76 
   363.90     72.64     19.14     80.84      0.00     -0.07      2.65 
   364.00     72.64     19.14     80.84     -0.00     -0.06      2.29 
   364.10     72.64     19.15     80.83      0.01     -0.08      4.35 
   364.20     72.64     19.14     80.85      0.00     -0.05      3.53 
   364.30     72.63     19.14     80.85      0.01     -0.06      1.59 
   364.40     72.63     19.13     80.88      0.00     -0.03      2.00 
   364.50     72.63     19.14     80.84      0.01     -0.07      2.94 
   364.60     72.62     19.14     80.84      0.01     -0.06      2.94 
   364.70     72.63     19.13     80.86     -0.00     -0.01      3.12 
   364.80     72.63     19.14     80.82     -0.00     -0.02      3.06 
   364.90     72.62     19.13     80.87     -0.02      0.03      2.65 
   365.00     72.62     19.14     80.85     -0.01     -0.00      2.29 
   365.10     72.62     19.14     80.83     -0.01      0.02      2.35 
   365.20     72.62     19.14     80.84     -0.00     -0.02      2.00 
   365.30     72.62     19.14     80.84      0.00     -0.02      2.76 
   365.40     72.62     19.14     80.83      0.00     -0.02      2.00 
   365.50     72.62     19.13     80.85     -0.01      0.01      1.47 
   365.60     72.62     19.13     80.84     -0.00      0.00      1.82 
   365.70     72.62     19.14     80.85      0.00     -0.01      0.82 
   365.80     72.62     19.15     80.81      0.01     -0.02      2.00 
   365.90     72.63     19.15     80.81      0.02     -0.06      1.94 
   366.00     72.63     19.14     80.84      0.00      0.00      2.71 
   366.10     72.63     19.13     80.85     -0.00      0.01      0.71 
   366.20     72.64     19.14     80.85      0.00      0.01      1.53 
   366.30     72.63     19.14     80.85      0.00      0.00      2.06 
   366.40     72.63     19.14     80.83      0.00     -0.01      2.00 
   366.50     72.63     19.14     80.84      0.01     -0.00      2.00 
   366.60     72.63     19.16     80.80      0.02     -0.06      2.41 
   366.70     72.62     19.14     80.83      0.00     -0.01      2.00 
   366.80     72.63     19.14     80.84     -0.01      0.04      1.94 
   366.90     72.63     19.15     80.82      0.00      0.00      2.29 
   367.00     72.63     19.15     80.83      0.01     -0.02      1.94 
   367.10     72.64     19.16     80.79      0.03     -0.07      0.71 
   367.20     72.64     19.14     80.85     -0.00      0.01      0.76 
   367.30     72.64     19.14     80.83      0.01     -0.02      2.59 
   367.40     72.64     19.14     80.86     -0.00      0.03      1.88 
   367.50     72.64     19.14     80.84      0.00      0.00      1.18 
   367.60     72.64     19.14     80.85     -0.01      0.05      2.35 
   367.70     72.64     19.14     80.84      0.01      0.01      3.12 
   367.80     72.64     19.14     80.87     -0.01      0.04      3.12 
   367.90     72.64     19.15     80.82      0.01     -0.01      3.12 
   368.00     72.64     19.14     80.85     -0.01      0.04      1.53 
   368.10     72.65     19.15     80.83     -0.01      0.04      1.94 
   368.20     72.64     19.14     80.84      0.00     -0.01      3.53 
   368.30     72.64     19.15     80.82      0.00     -0.00      3.59 
   368.40     72.64     19.14     80.85      0.01     -0.01      2.82 
   368.50     72.64     19.14     80.85     -0.00      0.01      1.59 
   368.60     72.65     19.14     80.84      0.00      0.00      1.59 
   368.70     72.64     19.15     80.83      0.01     -0.03      2.00 
   368.80     72.64     19.14     80.85      0.00     -0.02      2.76 
   368.90     72.65     19.14     80.87     -0.01      0.04      1.94 
   369.00     72.65     19.15     80.83      0.01     -0.03      3.35 
   369.10     72.64     19.15     80.84     -0.01      0.02      3.12 
   369.20     72.65     19.15     80.82      0.01     -0.03      1.24 
   369.30     72.65     19.15     80.83      0.01     -0.02      1.59 
   369.40     72.64     19.15     80.80      0.01     -0.03      1.47 
   369.50     72.64     19.15     80.82      0.01     -0.04      0.82 
   369.60     72.64     19.15     80.82      0.00     -0.01      1.59 
   369.70     72.64     19.14     80.85     -0.01      0.02      2.00 
   369.80     72.64     19.15     80.83      0.01     -0.03      1.18 
   369.90     72.64     19.16     80.80      0.02     -0.06      1.24 
   370.00     72.64     19.16     80.79      0.01     -0.05      0.76 
   370.10     72.64     19.17     80.77      0.02     -0.06      3.24 
   370.20     72.65     19.16     80.79      0.01     -0.03      3.88 
   370.30     72.64     19.16     80.80      0.00     -0.02      2.35 
   370.40     72.65     19.16     80.80      0.01     -0.02      2.35 
   370.50     72.65     19.15     80.82      0.00      0.00      3.06 
   370.60     72.64     19.15     80.81      0.01     -0.02      3.76 
   370.70     72.65     19.15     80.84      0.00      0.00      3.06 
   370.80     72.65     19.15     80.83      0.00      0.01      1.94 
   370.90     72.65     19.15     80.83     -0.01      0.04      2.35 
   371.00     72.65     19.15     80.84     -0.01      0.05      2.41 
   371.10     72.65     19.16     80.80     -0.01      0.03      2.76 
   371.20     72.65     19.15     80.84     -0.01      0.04      2.35 
   371.30     72.65     19.16     80.80      0.00     -0.00      1.47 
   371.40     72.65     19.16     80.81     -0.01      0.02      1.53 
   371.50     72.64     19.14     80.86     -0.01      0.03      0.76 
   371.60     72.65     19.14     80.85     -0.01      0.04      1.18 
   371.70     72.64     19.15     80.83      0.01     -0.02      3.06 
   371.80     72.64     19.16     80.80      0.01     -0.04      2.24 
   371.90     72.65     19.15     80.84     -0.00      0.01      1.47 
   372.00     72.65     19.15     80.84      0.00     -0.00      3.06 
   372.10     72.65     19.15     80.84     -0.01      0.03      1.53 
   372.20     72.65     19.16     80.80      0.01     -0.03      0.41 
   372.30     72.65     19.15     80.85     -0.01      0.04      2.00 
   372.40     72.65     19.15     80.83     -0.01      0.03      1.94 
   372.50     72.65     19.14     80.86      0.00      0.00      2.35 
