#Written by Robertson Geologging WinLogger V1.0/406
~VERSION INFORMATION
#------------------------------------------------------------------------------
 VERS. 2.0 : CWLS LOG ASCII STANDARD - VERSION 2.0
 WRAP. NO  : ONE LINE PER DEPTH STEP
~WELL INFORMATION
#MNEM.UNIT         DATA                                DESCRIPTION OF MNEMONIC
#------------------------------------------------------------------------------
 STRT.M         40.0600                            :   START DEPTH
 STOP.M        498.0000                            :   STOP DEPTH
 STEP.M          0.0100                            :   STEP VALUE
 NULL.        -999.2500                            :   NULL VALUE
 COMP.    Coal Authority                           :   COMPANY NAME
 WELL.    Dawdon                                   :   WELL NAME
 FLD.     N/A                                      :   FIELD NAME
 LOC.     N/A                                      :   LOCATION
 PROV.    N/A                                      :   PROVINCE
 SRVC.    N/A                                      :   SERVICE COMPANY NAME
 DATE.    30 Sep 08                                :   DATE
 UWI.     N/A                                      :   UNIQUE WELL IDENTIFIER
~PARAMETER INFORMATION
#MNEMO.UNIT         VALUE                 DESCRIPTION OF MNEMONIC
#------------------------------------------------------------------------------
~OTHER INFORMATION SECTION
#------------------------------------------------------------------------------
 TCGS2822
~CURVE INFORMATION
#MNEMO.UNIT         API CODE              CURVE DESCRIPTION
#------------------------------------------------------------------------------
 DEPTH.M                                 :   0     Depth
 TEMP.DegC                               :   1     Temperature
 COND.uS/cm                              :   2     Conductivity
 DELT.DegC                               :   3     Delta T
 DELC.uS/cm                              :   4     Delta C
 NGAM.CPS                                :   5     Natural Gamma
#------------------------------------------------------------------------------
~A  DEPTH     TEMP      COND      DELT      DELC      NGAM      
# ...
   496.78     22.70  46587.42     -0.00     -9.40      0.00 
   496.79     22.71  46576.84      0.00    -10.58      8.00 
   496.80     22.70  46587.42      0.00     -9.40      7.00 
   496.81     22.70  46586.24      0.00     -1.18      0.00 
   496.82     22.69  46579.19     -0.00     -7.05      0.00 
   496.83     22.68  46586.24     -0.01    -10.58      0.00 
   496.84     22.71  46586.24      0.01    -10.58      0.00 
   496.85     22.69  46570.97      0.00    -16.45      0.00 
   496.86     22.70  46576.84      0.01    -19.98      8.00 
   496.87     22.71  46586.24      0.02    -10.58      0.00 
   496.88     22.70  46587.42      0.02      0.00      0.00 
   496.89     22.70  46576.84      0.03    -19.98      0.00 
   496.90     22.71  46586.24      0.03    -10.58      0.00 
   496.91     22.69  46579.19      0.01    -17.63      0.00 
   496.92     22.68  46576.84     -0.00     -9.40      8.00 
   496.93     22.69  46586.24     -0.01      0.00      0.00 
   496.94     22.68  46579.19     -0.01     -7.05      7.00 
   496.95     22.69  46586.24      0.00    -10.58      8.00 
   496.96     22.69  46567.44     -0.00    -29.38      0.00 
   496.97     22.69  46579.19      0.00     -7.05      0.00 
   496.98     22.69  46576.84      0.01    -19.98      0.00 
   496.99     22.69  46579.19      0.01     -7.05     14.00 
   497.00     22.70  46586.24      0.02     -1.18      8.00 
   497.01     22.70  46579.19      0.02    -17.63      0.00 
   497.02     22.69  46579.19      0.01     -8.23      0.00 
   497.03     22.68  46576.84      0.01    -19.98      0.00 
   497.04     22.68  46586.24      0.01     -1.18      8.00 
   497.05     22.68  46579.19      0.01     -7.05      0.00 
   497.06     22.68  46576.84      0.00    -10.58      0.00 
   497.07     22.69  46570.97      0.01    -25.86      0.00 
   497.08     22.68  46576.84      0.01    -10.58      8.00 
   497.09     22.68  46579.19     -0.01     -7.05      7.00 
   497.10     22.68  46586.24      0.00    -10.58     25.00 
   497.11     22.68  46579.19     -0.01     -7.05      0.00 
   497.12     22.69  46576.84     -0.01    -10.58      0.00 
   497.13     22.69  46579.19     -0.00    -17.63      0.00 
   497.14     22.69  46576.84      0.00    -10.58      0.00 
   497.15     22.70  46587.42      0.00      1.18      7.00 
   497.16     22.69  46567.44      0.00    -19.98     25.00 
   497.17     22.68  46587.42     -0.01      1.18      0.00 
   497.18     22.69  46567.44      0.00    -19.98      0.00 
   497.19     22.69  46579.19      0.02    -17.63      0.00 
   497.20     22.69  46576.84      0.01     -9.40      0.00 
   497.21     22.69  46579.19      0.02     -8.23     21.00 
   497.22     22.68  46576.84      0.01    -19.98      8.00 
   497.23     22.69  46579.19     -0.00     -8.23      0.00 
   497.24     22.68  46576.84     -0.01     -9.40      0.00 
   497.25     22.70  46579.19      0.00     -8.23      0.00 
   497.26     22.69  46576.84     -0.01    -19.98      0.00 
   497.27     22.70  46586.24     -0.00      7.05     16.00 
   497.28     22.71  46570.97      0.01    -15.28      0.00 
   497.29     22.70  46586.24      0.01     -1.18      0.00 
   497.30     22.71  46570.97      0.01    -25.86      7.00 
   497.31     22.70  46576.84      0.01    -10.58      0.00 
   497.32     22.71  46576.84      0.02     -9.40      0.00 
   497.33     22.69  46579.19      0.00     -7.05      7.00 
   497.34     22.70  46576.84      0.02    -10.58      0.00 
   497.35     22.69  46579.19      0.01    -17.63      7.00 
   497.36     22.69  46576.84      0.01    -10.58      0.00 
   497.37     22.69  46586.24     -0.00      0.00      0.00 
   497.38     22.69  46570.97     -0.01    -15.28      0.00 
   497.39     22.69  46576.84     -0.00     -2.35      0.00 
   497.40     22.69  46576.84     -0.00     -9.40      0.00 
   497.41     22.69  46570.97      0.00    -16.45      0.00 
   497.42     22.70  46586.24      0.01    -10.58      0.00 
   497.43     22.71  46567.44      0.01    -18.80      0.00 
   497.44     22.71  46579.19      0.01     -8.23      0.00 
   497.45     22.71  46576.84      0.02      0.00      0.00 
   497.46     22.69  46579.19      0.00    -17.63      0.00 
   497.47     22.68  46570.97      0.00    -16.45      0.00 
   497.48     22.68  46576.84      0.00     -9.40      0.00 
   497.49     22.67  46574.49     -0.02     -2.35      0.00 
   497.50     22.67  46569.79     -0.02     -9.40      4.00 
   497.51     22.67  46576.84     -0.02     -9.40      0.00 
   497.52     22.68  46574.49     -0.03    -22.33      4.00 
   497.53     22.67  46576.84     -0.02     -2.35      4.00 
   497.54     22.69  46576.84      0.00     -9.40      0.00 
   497.55     22.69  46574.49      0.00    -12.93      0.00 
   497.56     22.68  46576.84      0.00     -9.40      4.00 
   497.57     22.70  46576.84      0.02     -9.40      0.00 
   497.58     22.70  46572.14      0.01    -15.28      4.00 
   497.59     22.70  46578.02      0.00     -8.23      3.00 
   497.60     22.69  46576.84      0.00     -2.35      0.00 
   497.61     22.69  46581.54      0.00      4.70      0.00 
   497.62     22.69  46573.32     -0.01    -14.10      3.00 
   497.63     22.70  46576.84     -0.01     -9.40      0.00 
   497.64     22.70  46578.02     -0.01     -1.18      0.00 
   497.65     22.68  46576.84     -0.04     -9.40      0.00 
   497.66     22.68  46581.54     -0.03      2.35      4.00 
   497.67     22.68  46578.02     -0.03     -8.23      0.00 
   497.68     22.68  46572.14     -0.03    -15.28      0.00 
   497.69     22.70  46578.02     -0.02     -8.23      0.00 
   497.70     22.68  46579.19     -0.03      0.00      0.00 
   497.71     22.68  46580.37     -0.04     -7.05      3.00 
   497.72     22.67  46575.67     -0.04     -1.18      0.00 
   497.73     22.68  46574.49     -0.03     -4.70      2.00 
   497.74     22.67  46576.84     -0.03     -9.40      1.00 
   497.75     22.68  46575.67     -0.00    -11.75      1.00 
   497.76     22.68  46575.67     -0.02     -1.18      1.00 
   497.77     22.68  46575.67     -0.02    -11.75      1.00 
   497.78     22.68  46575.67     -0.02     -1.18      1.00 
   497.79     22.68  46575.67     -0.01    -11.75      1.00 
   497.80     22.68  46575.67     -0.02    -10.58      1.00 
   497.81     22.68  46575.67     -0.00     -3.53      1.00 
   497.82     22.68  46575.67      0.00    -10.58      1.00 
   497.83     22.68  46575.67     -0.02    -10.58      1.00 
   497.84     22.68  46575.67     -0.00      4.70      1.00 
   497.85     22.68  46575.67     -0.02     -1.18      1.00 
   497.86     22.68  46575.67     -0.03    -10.58      1.00 
   497.87     22.68  46575.67     -0.01    -11.75      1.00 
   497.88     22.68  46575.67     -0.02     -1.18      1.00 
   497.89     22.68  46575.67     -0.02    -10.58      1.00 
   497.90     22.68  46575.67     -0.00     -3.53      1.00 
   497.91     22.68  46575.67      0.00     -1.18      1.00 
   497.92     22.68  46575.67     -0.00    -10.58      1.00 
   497.93     22.68  46575.67      0.00     -3.53      1.00 
   497.94     22.68  46575.67     -0.01    -10.58      1.00 
   497.95     22.68  46575.67     -0.01      8.23      1.00 
   497.96     22.68  46575.67     -0.00     -3.53      1.00 
   497.97     22.68  46575.67     -0.01     -1.18      1.00 
   497.98     22.68  46575.67     -0.01     -3.53      1.00 
   497.99     22.68  46575.67     -0.01    -10.58      1.00 
   498.00     22.68  46575.67     -0.01     -3.53      1.00 
