#Written by Robertson Geologging WinLogger V1.0/312
~VERSION INFORMATION
#------------------------------------------------------------------------------
 VERS. 2.0 : CWLS LOG ASCII STANDARD - VERSION 2.0
 WRAP. NO  : ONE LINE PER DEPTH STEP
~WELL INFORMATION
#MNEM.UNIT         DATA                                DESCRIPTION OF MNEMONIC
#------------------------------------------------------------------------------
 STRT.M         56.2000                            :   START DEPTH
 STOP.M        520.0000                            :   STOP DEPTH
 STEP.M          0.1000                            :   STEP VALUE
 NULL.        -999.2500                            :   NULL VALUE
 COMP.    I.M..C.                                  :   COMPANY NAME
 WELL.    Dawdon Shaft                             :   WELL NAME
 FLD.     Dawdon                                   :   FIELD NAME
 LOC.     N/A                                      :   LOCATION
 PROV.    N/A                                      :   PROVINCE
 SRVC.    N/A                                      :   SERVICE COMPANY NAME
 DATE.    30 Jan 04                                :   DATE
 UWI.     N/A                                      :   UNIQUE WELL IDENTIFIER
~PARAMETER INFORMATION
#MNEMO.UNIT         VALUE                 DESCRIPTION OF MNEMONIC
#------------------------------------------------------------------------------
~OTHER INFORMATION SECTION
#------------------------------------------------------------------------------
 TCGX extended range 1365
~CURVE INFORMATION
#MNEMO.UNIT         API CODE              CURVE DESCRIPTION
#------------------------------------------------------------------------------
 DEPTH.M                                 :   0     Depth
 COND.mS/cm                              :   1     Conductivity
 TEMP.DegC                               :   2     Temperature
 C@25.mS/cm                              :   3     Conductivity @25Deg
 DELT.DegC                               :   4     Delta T
 DC@25.mS/cm                             :   5     Delta C @25Deg
 OUT4.CPS                                :   6     Natural Gamma
#------------------------------------------------------------------------------
~A  DEPTH     COND      TEMP      C@25      DELT      DC@25     OUT4      
# ...
   293.50     59.08     16.09     73.95      0.00      0.15      1.12 
   293.60     59.10     16.09     73.97      0.01      0.12      1.12 
   293.70     59.11     16.09     74.01     -0.00      0.16      2.76 
   293.80     59.13     16.10     74.00      0.01      0.13      4.94 
   293.90     59.14     16.09     74.04     -0.00      0.17      2.06 
   294.00     59.16     16.09     74.06      0.00      0.16      0.82 
   294.10     59.18     16.10     74.07      0.01      0.14      0.41 
   294.20     59.19     16.10     74.08      0.01      0.17      0.82 
   294.30     59.20     16.10     74.09      0.01      0.13      0.41 
   294.40     59.22     16.09     74.15     -0.01      0.21      0.76 
   294.50     59.23     16.09     74.13      0.00      0.17      0.76 
   294.60     59.24     16.09     74.18     -0.01      0.19      1.24 
   294.70     59.26     16.10     74.17      0.01      0.15      0.76 
   294.80     59.27     16.10     74.16      0.01      0.16      1.53 
   294.90     59.29     16.10     74.20      0.01      0.15      1.94 
   295.00     59.30     16.09     74.22      0.00      0.16      0.41 
   295.10     59.31     16.10     74.23     -0.00      0.17      0.82 
   295.20     59.33     16.09     74.26     -0.00      0.17      1.24 
   295.30     59.35     16.09     74.27     -0.00      0.19      0.82 
   295.40     59.36     16.09     74.29      0.00      0.16      1.65 
   295.50     59.37     16.08     74.34     -0.01      0.20      1.18 
   295.60     59.39     16.10     74.32      0.01      0.16      0.35 
   295.70     59.40     16.10     74.31      0.01      0.14      0.35 
   295.80     59.42     16.09     74.35     -0.01      0.20      0.35 
   295.90     59.43     16.10     74.38     -0.00      0.18      1.18 
   296.00     59.44     16.09     74.40      0.00      0.17      1.59 
   296.10     59.45     16.10     74.38      0.01      0.15      0.82 
   296.20     59.48     16.10     74.42      0.01      0.15      0.41 
   296.30     59.49     16.10     74.44      0.01      0.16      1.24 
   296.40     59.50     16.09     74.49      0.00      0.18      0.82 
   296.50     59.52     16.10     74.47      0.01      0.14      0.76 
   296.60     59.54     16.10     74.49      0.01      0.16      0.76 
   296.70     59.55     16.10     74.50     -0.01      0.20      0.82 
   296.80     59.56     16.10     74.51      0.01      0.14      1.65 
   296.90     59.57     16.10     74.54     -0.00      0.17      0.82 
   297.00     59.59     16.11     74.55      0.01      0.13      0.76 
   297.10     59.61     16.09     74.59     -0.01      0.21      0.82 
   297.20     59.62     16.10     74.59      0.00      0.17      1.24 
   297.30     59.64     16.11     74.59      0.01      0.14      1.24 
   297.40     59.66     16.10     74.63      0.01      0.17      0.82 
   297.50     59.69     16.10     74.67      0.01      0.19      0.76 
   297.60     59.71     16.10     74.69     -0.00      0.22      0.35 
   297.70     59.73     16.11     74.70      0.01      0.19      0.82 
   297.80     59.76     16.11     74.73      0.01      0.23      1.24 
   297.90     59.79     16.11     74.78      0.01      0.22      0.35 
   298.00     59.87     16.11     74.86      0.00      0.34      0.76 
   298.10     60.02     16.11     75.02      0.02      0.44      0.00 
   298.20     60.15     16.12     75.18      0.01      0.61      1.94 
   298.30     60.25     16.11     75.33      0.01      0.73      2.82 
   298.40     60.34     16.12     75.40      0.01      0.78      0.82 
   298.50     60.40     16.12     75.47      0.02      0.80      0.41 
   298.60     60.44     16.11     75.55      0.01      0.85      2.35 
   298.70     60.48     16.12     75.57      0.01      0.88      2.82 
   298.80     60.53     16.12     75.63      0.01      0.89      0.82 
   298.90     60.56     16.12     75.68      0.01      0.90      0.41 
   299.00     60.59     16.13     75.70      0.02      0.81      0.82 
   299.10     60.63     16.11     75.78      0.00      0.72      1.65 
   299.20     60.67     16.12     75.81      0.00      0.61      1.24 
   299.30     60.71     16.12     75.85      0.01      0.51      1.65 
   299.40     60.75     16.13     75.88      0.01      0.47      1.12 
   299.50     60.79     16.13     75.92      0.01      0.44      1.94 
   299.60     60.83     16.12     76.00      0.01      0.45      1.88 
   299.70     60.86     16.12     76.04     -0.00      0.46      3.35 
   299.80     60.91     16.12     76.10     -0.00      0.47      1.18 
   299.90     60.95     16.12     76.14      0.00      0.47      1.53 
   300.00     60.97     16.13     76.17      0.00      0.45      2.41 
   300.10     61.00     16.13     76.19      0.01      0.42      2.35 
   300.20     61.04     16.13     76.23      0.01      0.42      0.76 
   300.30     61.08     16.13     76.26      0.01      0.42      0.71 
   300.40     61.10     16.13     76.31      0.00      0.42      1.47 
   300.50     61.14     16.13     76.36     -0.00      0.43      1.18 
   300.60     61.17     16.12     76.41     -0.00      0.41      1.24 
   300.70     61.19     16.13     76.41      0.01      0.36      1.12 
   300.80     61.22     16.13     76.44      0.01      0.34      1.41 
   300.90     61.24     16.12     76.50     -0.00      0.36      1.18 
   301.00     61.25     16.13     76.48      0.01      0.31      2.06 
   301.10     61.26     16.14     76.48      0.01      0.27      0.82 
   301.20     61.28     16.13     76.53     -0.00      0.29      0.76 
   301.30     61.29     16.14     76.52      0.01      0.24      1.41 
   301.40     61.31     16.13     76.54      0.00      0.24      2.41 
   301.50     61.33     16.13     76.58      0.00      0.22      2.41 
   301.60     61.34     16.13     76.60      0.01      0.18      1.59 
   301.70     61.35     16.13     76.60      0.00      0.19      2.29 
   301.80     61.36     16.14     76.59      0.01      0.13      2.24 
   301.90     61.38     16.14     76.61      0.02      0.11      1.53 
   302.00     61.40     16.14     76.64      0.00      0.17      1.88 
   302.10     61.41     16.14     76.65      0.01      0.16      1.12 
   302.20     61.43     16.16     76.63      0.03      0.10      0.35 
   302.30     61.44     16.15     76.66      0.01      0.15      1.12 
   302.40     61.45     16.15     76.67      0.02      0.11      3.24 
   302.50     61.45     16.15     76.68      0.02      0.09      3.29 
   302.60     61.46     16.15     76.70      0.01      0.12      1.59 
   302.70     61.47     16.16     76.68      0.02      0.08      1.24 
   302.80     61.47     16.16     76.65      0.02      0.07      0.41 
   302.90     61.48     16.16     76.67      0.02      0.07      0.71 
   303.00     61.48     16.16     76.69      0.02      0.05      1.18 
   303.10     61.49     16.15     76.71      0.01      0.08      1.53 
   303.20     61.49     16.15     76.71     -0.00      0.07      0.71 
   303.30     61.51     16.15     76.73      0.01      0.05      0.71 
   303.40     61.52     16.16     76.72      0.01      0.05      0.76 
   303.50     61.54     16.16     76.76      0.01      0.08      0.00 
   303.60     61.57     16.15     76.82      0.00      0.12      0.41 
   303.70     61.60     16.16     76.84     -0.00      0.17      0.35 
   303.80     61.62     16.16     76.84      0.00      0.18      1.06 
   303.90     61.64     16.15     76.90     -0.01      0.22      1.94 
   304.00     61.67     16.16     76.91      0.00      0.23      1.47 
   304.10     61.69     16.17     76.92      0.01      0.22      3.82 
   304.20     61.71     16.17     76.93      0.02      0.22      1.94 
   304.30     61.73     16.17     76.94      0.02      0.21      1.18 
   304.40     61.75     16.18     76.96      0.01      0.24      1.12 
   304.50     61.76     16.18     76.96      0.02      0.20      1.24 
   304.60     61.78     16.19     76.97      0.04      0.15      0.76 
   304.70     61.79     16.18     77.01      0.02      0.17      0.76 
