#Written by Robertson Geologging WinLogger V1.0/370
~VERSION INFORMATION
#------------------------------------------------------------------------------
 VERS. 2.0 : CWLS LOG ASCII STANDARD - VERSION 2.0
 WRAP. NO  : ONE LINE PER DEPTH STEP
~WELL INFORMATION
#MNEM.UNIT         DATA                                DESCRIPTION OF MNEMONIC
#------------------------------------------------------------------------------
 STRT.M         37.0600                            :   START DEPTH
 STOP.M        510.0000                            :   STOP DEPTH
 STEP.M          0.0100                            :   STEP VALUE
 NULL.        -999.2500                            :   NULL VALUE
 COMP.    WHITE YOUN GREEN                         :   COMPANY NAME
 WELL.    DAWDON SHAFT                             :   WELL NAME
 FLD.     DAWDON                                   :   FIELD NAME
 LOC.     N/A                                      :   LOCATION
 PROV.    N/A                                      :   PROVINCE
 SRVC.    N/A                                      :   SERVICE COMPANY NAME
 DATE.    13 Dec 06                                :   DATE
 UWI.     N/A                                      :   UNIQUE WELL IDENTIFIER
~PARAMETER INFORMATION
#MNEMO.UNIT         VALUE                 DESCRIPTION OF MNEMONIC
#------------------------------------------------------------------------------
~OTHER INFORMATION SECTION
#------------------------------------------------------------------------------
 lLOGGING DOWN
~CURVE INFORMATION
#MNEMO.UNIT         API CODE              CURVE DESCRIPTION
#------------------------------------------------------------------------------
 DEPTH.M                                 :   0     Depth
 TEMP.DegC                               :   1     Temperature
 CN25.mS/cm                              :   2     Conductivity@25DegC
 COND.mS/cm                              :   3     Conductivity
 DELT.DegC                               :   4     Delta T
 DELC.mS/cm                              :   5     Delta C
 NGAM.CPS                                :   6     Natural Gamma
#------------------------------------------------------------------------------
~A  DEPTH     TEMP      CN25      COND      DELT      DELC      NGAM      
# ...
   100.34     11.33     15.20      6.00     -0.01      0.01      0.00 
   100.35     11.33     15.20      6.00     -0.01      0.01      0.00 
   100.36     11.33     15.20      6.00     -0.00      0.00      0.00 
   100.37     11.33     15.19      6.00     -0.00      0.00      0.00 
   100.38     11.33     15.19      6.00     -0.00      0.00      0.00 
   100.39     11.33     15.20      6.00     -0.00      0.01      0.00 
   100.40     11.33     15.19      6.00     -0.00     -0.00      0.00 
   100.41     11.33     15.19      6.00     -0.00      0.00      0.00 
   100.42     11.33     15.20      6.00     -0.00      0.01      0.00 
   100.43     11.33     15.20      6.00     -0.00     -0.00      0.00 
   100.44     11.33     15.20      6.00      0.00     -0.00      0.00 
   100.45     11.33     15.20      6.00      0.00     -0.00      0.00 
   100.46     11.33     15.19      6.00      0.00     -0.01      0.00 
   100.47     11.33     15.19      6.00      0.00     -0.01      0.00 
   100.48     11.33     15.19      6.00      0.01     -0.01      0.00 
   100.49     11.33     15.20      6.00      0.01      0.00      0.00 
   100.50     11.33     15.19      6.00      0.01     -0.01      0.00 
   100.51     11.34     15.19      6.00      0.01     -0.01      0.00 
   100.52     11.34     15.19      6.00      0.01     -0.00      0.00 
   100.53     11.34     15.19      6.00      0.00     -0.01      0.00 
   100.54     11.34     15.18      6.00      0.00     -0.01      0.00 
   100.55     11.34     15.18      6.00      0.00     -0.00      0.00 
   100.56     11.34     15.19      6.00      0.00     -0.00      0.00 
   100.57     11.34     15.18      6.00      0.01     -0.01      0.00 
   100.58     11.34     15.19      6.00      0.01     -0.01      0.00 
   100.59     11.34     15.19      6.00      0.01     -0.00      0.00 
   100.60     11.34     15.19      6.00      0.01     -0.01      0.00 
   100.61     11.34     15.19      6.00      0.01     -0.01      0.00 
   100.62     11.34     15.19      6.00      0.01     -0.00      0.00 
   100.63     11.34     15.19      6.00      0.01     -0.01      0.00 
   100.64     11.34     15.19      6.00      0.01     -0.01      0.00 
   100.65     11.34     15.19      6.00      0.01     -0.01      0.00 
   100.66     11.34     15.19      6.00      0.01     -0.01      0.00 
   100.67     11.34     15.19      6.00      0.01     -0.01      0.00 
   100.68     11.34     15.19      6.00      0.01     -0.01      0.00 
   100.69     11.34     15.19      6.00      0.01     -0.01      0.00 
   100.70     11.34     15.19      6.00      0.01     -0.02      0.00 
   100.71     11.34     15.19      6.00      0.01     -0.01      0.00 
   100.72     11.34     15.19      6.00      0.01     -0.01      0.00 
   100.73     11.34     15.18      6.00      0.01     -0.01      0.00 
   100.74     11.34     15.18      6.00      0.01     -0.01      0.00 
   100.75     11.34     15.18      6.00      0.01     -0.01      0.00 
   100.76     11.34     15.19      6.00      0.01     -0.00      0.00 
   100.77     11.34     15.19      6.00      0.00     -0.01      0.00 
   100.78     11.34     15.19      6.00      0.00     -0.00      0.00 
   100.79     11.34     15.19      6.00      0.00      0.00      0.00 
   100.80     11.34     15.19      6.00     -0.00      0.00      0.00 
   100.81     11.34     15.19      6.00     -0.00      0.00      0.00 
   100.82     11.34     15.19      6.00     -0.00      0.01      0.00 
   100.83     11.34     15.19      6.00     -0.00      0.01      0.00 
   100.84     11.34     15.19      6.00      0.00     -0.01      0.00 
   100.85     11.34     15.19      6.00      0.00     -0.00      0.00 
   100.86     11.34     15.19      6.00      0.01     -0.00      0.00 
   100.87     11.34     15.18      6.00      0.01     -0.01      0.00 
   100.88     11.34     15.18      6.00      0.01     -0.01      0.00 
   100.89     11.34     15.19      6.00      0.01     -0.01      0.41 
   100.90     11.34     15.18      6.00      0.01     -0.01      0.41 
   100.91     11.34     15.18      6.00      0.01     -0.01      0.41 
   100.92     11.34     15.19      6.00      0.01     -0.01      0.41 
   100.93     11.34     15.18      6.00      0.01     -0.01      0.41 
   100.94     11.34     15.18      6.00      0.00     -0.01      0.41 
   100.95     11.34     15.19      6.00      0.00      0.00      0.41 
   100.96     11.34     15.19      6.00      0.00     -0.00      0.41 
   100.97     11.34     15.19      6.00      0.00     -0.00      0.41 
   100.98     11.34     15.19      6.00      0.00      0.00      0.41 
   100.99     11.34     15.19      6.00      0.00      0.00      0.41 
   101.00     11.34     15.19      6.00      0.00     -0.00      0.41 
   101.01     11.34     15.19      6.00      0.00      0.00      0.41 
   101.02     11.34     15.19      6.00      0.00      0.00      0.41 
   101.03     11.34     15.19      6.00      0.00     -0.00      0.41 
   101.04     11.34     15.19      6.00      0.00     -0.00      0.41 
   101.05     11.34     15.19      6.00      0.00     -0.00      0.41 
   101.06     11.34     15.19      6.00      0.00     -0.01      0.00 
   101.07     11.34     15.19      6.00      0.01     -0.01      0.00 
   101.08     11.34     15.19      6.00      0.01     -0.01      0.00 
   101.09     11.34     15.19      6.00      0.01     -0.01      0.00 
   101.10     11.34     15.19      6.00      0.01     -0.01      0.00 
   101.11     11.34     15.19      6.00      0.01     -0.01      0.00 
   101.12     11.34     15.19      6.00      0.01     -0.01      0.00 
   101.13     11.34     15.19      6.00      0.01     -0.02      0.00 
   101.14     11.34     15.19      6.00      0.01     -0.02      0.00 
   101.15     11.34     15.19      6.00      0.01     -0.01      0.00 
   101.16     11.34     15.19      6.00      0.01     -0.01      0.00 
   101.17     11.34     15.19      6.00      0.01     -0.01      0.00 
   101.18     11.34     15.19      6.00      0.01     -0.01      0.00 
   101.19     11.34     15.19      6.00      0.01     -0.01      0.00 
   101.20     11.34     15.19      6.00      0.01     -0.01      0.00 
   101.21     11.34     15.19      6.00      0.01     -0.00      0.00 
   101.22     11.34     15.19      6.00      0.01     -0.01      0.00 
   101.23     11.34     15.19      6.00      0.01     -0.01      0.00 
   101.24     11.34     15.19      6.00      0.01     -0.01      0.00 
   101.25     11.34     15.19      6.00      0.01     -0.01      0.00 
   101.26     11.34     15.19      6.00      0.01     -0.02      0.00 
   101.27     11.34     15.19      6.00      0.01     -0.02      0.00 
   101.28     11.34     15.19      6.00      0.01     -0.01      0.00 
   101.29     11.34     15.19      6.00      0.01     -0.02      0.00 
   101.30     11.34     15.19      6.00      0.01     -0.02      0.00 
   101.31     11.34     15.19      6.00      0.01     -0.02      0.00 
   101.32     11.34     15.19      6.00      0.01     -0.01      0.00 
   101.33     11.34     15.19      6.00      0.01     -0.01      0.00 
   101.34     11.34     15.19      6.00      0.01     -0.01      0.00 
   101.35     11.34     15.19      6.00      0.01     -0.01      0.00 
   101.36     11.34     15.19      6.00      0.01     -0.01      0.00 
   101.37     11.34     15.18      6.00      0.01     -0.01      0.00 
   101.38     11.34     15.19      6.00      0.01     -0.01      0.00 
   101.39     11.34     15.18      6.00      0.01     -0.01      0.00 
   101.40     11.34     15.18      6.00      0.01     -0.01      0.00 
   101.41     11.34     15.19      6.00      0.01     -0.01      0.00 
   101.42     11.34     15.18      6.00      0.01     -0.01      0.00 
   101.43     11.34     15.18      6.00      0.01     -0.01      0.00 
   101.44     11.34     15.19      6.00      0.01     -0.01      0.00 
   101.45     11.34     15.18      6.00      0.01     -0.01      0.00 
   101.46     11.34     15.18      6.00      0.01     -0.01      0.00 
