#Written by Robertson Geologging WinLogger V1.0/311
~VERSION INFORMATION
#------------------------------------------------------------------------------
 VERS. 2.0 : CWLS LOG ASCII STANDARD - VERSION 2.0
 WRAP. NO  : ONE LINE PER DEPTH STEP
~WELL INFORMATION
#MNEM.UNIT         DATA                                DESCRIPTION OF MNEMONIC
#------------------------------------------------------------------------------
 STRT.M         57.1000                            :   START DEPTH
 STOP.M        520.1000                            :   STOP DEPTH
 STEP.M          0.1000                            :   STEP VALUE
 NULL.        -999.2500                            :   NULL VALUE
 COMP.    IMC                                      :   COMPANY NAME
 WELL.    THERESA SHAFT                            :   WELL NAME
 FLD.     DAWDON                                   :   FIELD NAME
 LOC.     N/A                                      :   LOCATION
 PROV.    N/A                                      :   PROVINCE
 SRVC.    N/A                                      :   SERVICE COMPANY NAME
 DATE.    03 Oct 03                                :   DATE
 UWI.     N/A                                      :   UNIQUE WELL IDENTIFIER
~PARAMETER INFORMATION
#MNEMO.UNIT         VALUE                 DESCRIPTION OF MNEMONIC
#------------------------------------------------------------------------------
~OTHER INFORMATION SECTION
#------------------------------------------------------------------------------
 TCDS 2822
~CURVE INFORMATION
#MNEMO.UNIT         API CODE              CURVE DESCRIPTION
#------------------------------------------------------------------------------
 DEPTH.M                                 :   0     Depth
 TEMP.DegC                               :   1     Temperature
 COND.uS/cm                              :   2     Conductivity
 DELT.DegC                               :   3     Delta T
 DELC.uS/cm                              :   4     Delta C
 NGAM.API                                :   5     Natural Gamma
#------------------------------------------------------------------------------
~A  DEPTH     TEMP      COND      DELT      DELC      NGAM      
    57.10   -999.25   -999.25      0.00      0.00   -999.25 
    57.20   -999.25   -999.25      0.00      0.00   -999.25 
    57.30   -999.25   -999.25      0.00      0.00   -999.25 
    57.40   -999.25   -999.25      0.00      0.00   -999.25 
    57.50   -999.25   -999.25      0.00      0.00   -999.25 
    57.60   -999.25   -999.25      0.00      0.00   -999.25 
    57.70   -999.25   -999.25      0.00      0.00   -999.25 
    57.80   -999.25   -999.25      0.00      0.00   -999.25 
    57.90   -999.25   -999.25      0.00      0.00   -999.25 
    58.00   -999.25   -999.25      0.00      0.00   -999.25 
    58.10   -999.25   -999.25      0.00      0.00   -999.25 
    58.20   -999.25   -999.25      0.00      0.00   -999.25 
    58.30   -999.25   -999.25      0.00      0.00   -999.25 
    58.40   -999.25   -999.25      0.00      0.00   -999.25 
    58.50   -999.25   -999.25      0.00      0.00   -999.25 
    58.60   -999.25   -999.25      0.00      0.00   -999.25 
    58.70   -999.25   -999.25      0.00      0.00   -999.25 
    58.80   -999.25   -999.25      0.00      0.00   -999.25 
    58.90   -999.25   -999.25      0.00      0.00  12850.00 
    59.00   -999.25   -999.25      0.00      0.00   6048.35 
    59.10   -999.25   -999.25      0.00      0.00      5.29 
    59.20     52.89  11898.60   1052.14  12897.85      7.65 
    59.30     40.07   3259.92   1039.32   4259.17      5.12 
    59.40     18.07     19.04   1017.32   1018.29      7.88 
    59.50     18.11     18.96   1017.36   1018.21      4.71 
    59.60     18.09     18.56   1017.34   1017.81      5.65 
    59.70     18.09     19.04   1017.34   1018.29      6.82 
    59.80     18.07     18.48   1017.32   1017.73      5.47 
    59.90     18.08     18.80   1017.33   1018.05      4.59 
    60.00     18.06     18.32   1017.31   1017.57      4.06 
    60.10     18.05     18.32   1017.30   1017.57      4.00 
    60.20     18.05     18.32    -34.84 -11880.29      5.41 
    60.30     18.03     18.24    -18.86  -2161.82      3.94 
    60.40     18.04     18.24     -0.05     -0.48      3.12 
    60.50     18.04     18.24     -0.07     -0.32      2.29 
    60.60     18.01     18.24     -0.08      0.08      3.29 
    60.70     18.01     18.32     -0.07     -0.16      6.18 
    60.80     18.01     17.83     -0.06     -0.08      4.82 
    60.90     18.00     17.91     -0.07     -0.96      4.82 
    61.00     18.00     18.07     -0.06     -0.24      4.47 
    61.10     17.99     18.07     -0.06     -0.24      6.41 
    61.20     17.98     18.07     -0.07     -0.32      5.47 
    61.30     17.97     18.24     -0.06      0.00      1.53 
    61.40     17.97     18.07     -0.07     -0.16      0.94 
    61.50     17.97     17.59     -0.07     -0.64      2.82 
    61.60     17.95     17.27     -0.06     -1.04      4.71 
    61.70     17.95     17.27     -0.07     -1.04      6.65 
    61.80     17.93     17.27     -0.09     -0.56      6.76 
    61.90     17.93     17.91     -0.07     -0.64      6.53 
    62.00     17.91     18.07     -0.09      0.00      5.76 
    62.10     17.92     17.27     -0.07     -0.96      6.29 
    62.20     17.91    579.16     -0.07    561.09      4.88 
    62.30     17.89   4354.44     -0.09   4336.20      1.41 
    62.40     17.20   4680.77     -0.77   4663.34      0.00 
    62.50     15.91   4683.61     -2.05   4666.01      0.00 
    62.60     14.95   4685.61     -3.00   4667.69      0.47 
    62.70     14.29   4686.36     -3.65   4668.44      0.59 
    62.80     13.84   4690.86     -4.08   4672.95      0.59 
    62.90     13.51   4694.53     -4.41   4676.61      0.94 
    63.00     13.24   4699.45     -4.67   4682.02      1.41 
    63.10     13.03   4706.12     -4.89   4688.93      0.94 
    63.20     12.95   4727.72     -4.96   3864.65      1.35 
    63.30     12.87   4777.51     -5.00    215.11      0.41 
    63.40     12.79   4854.46     -4.28    173.69      0.00 
    63.50     12.73   4934.45     -3.07    250.85      0.00 
    63.60     12.67   5011.99     -2.20    326.38      0.47 
    63.70     12.62   5061.22     -1.62    374.12      0.59 
    63.80     12.59   5102.28     -1.21    410.67      2.00 
    63.90     12.58   5170.80     -0.90    476.27      0.94 
    64.00     12.56   5255.26     -0.66    555.14      0.00 
    64.10     12.54   5348.49     -0.48    640.95      0.47 
    64.20     12.52   5410.76     -0.41    678.87      0.47 
    64.30     12.50   5467.44     -0.36    683.00      0.47 
    64.40     12.51   5542.86     -0.28    680.05      0.47 
    64.50     12.49   5581.88     -0.24    639.08      2.12 
    64.60     12.49   5625.12     -0.18    607.11      0.47 
    64.70     12.47   5672.74     -0.15    608.08      0.00 
    64.80     12.48   5711.63     -0.11    603.75      0.00 
    64.90     12.48   5737.01     -0.09    557.17      0.59 
    65.00     12.49   5761.89     -0.07    498.26      1.18 
    65.10     12.50   5781.73     -0.04    424.86      1.18 
    65.20     12.50   5800.64     -0.02    385.02      1.53 
    65.30     12.51   5816.20      0.01    340.37      0.47 
    65.40     12.52   5828.64      0.01    280.16      0.00 
    65.50     12.55   5838.57      0.06    253.24      0.94 
    65.60     12.55   5846.64      0.07    216.65      0.94 
    65.70     12.54   5853.45      0.08    175.85      0.00 
    65.80     12.53   5860.27      0.06    146.53      0.47 
    65.90     12.54   5865.48      0.06    126.37      1.41 
    66.00     12.55   5870.36      0.06    106.37      1.41 
    66.10     12.53   5874.99      0.04     91.92      1.53 
    66.20     12.53   5879.11      0.03     76.87      1.65 
    66.30     12.51   5881.97     -0.00     65.02      0.94 
    66.40     12.54   5885.67      0.01     55.68      1.06 
    66.50     12.53   5889.37     -0.02     50.81      1.18 
    66.60     12.56   5892.91      0.01     46.27      0.59 
    66.70     12.55   5895.35      0.01     41.22      0.94 
    66.80     12.55   5897.03      0.02     36.09      0.88 
    66.90     12.56   5900.48      0.02     34.24      0.94 
    67.00     12.56   5902.42      0.01     31.38      1.41 
    67.10     12.54   5904.77      0.01     29.11      1.41 
    67.20     12.53   5907.38      0.00     28.27      1.41 
    67.30     12.52   5908.39      0.01     24.99      1.88 
    67.40     12.51   5910.58     -0.03     24.15      0.94 
    67.50     12.49   5912.18     -0.05     22.05      0.41 
    67.60     12.48   5913.61     -0.07     20.03      0.88 
    67.70     12.47   5915.88     -0.08     19.86      0.47 
    67.80     12.45   5916.72     -0.10     19.10      0.47 
    67.90     12.46   5918.74     -0.10     17.59      1.06 
    68.00     12.46   5921.01     -0.09     17.92      1.53 
    68.10     12.45   5922.36     -0.09     17.76      0.00 
    68.20     12.44   5925.31     -0.09     18.60      0.00 
    68.30     12.45   5926.15     -0.07     17.76      0.47 
    68.40     12.43   5927.58     -0.07     17.00      0.47 
    68.50     12.43   5930.36     -0.05     18.18      1.88 
    68.60     12.43   5931.95     -0.06     18.35      1.41 
    68.70     12.42   5933.38     -0.05     17.84      0.94 
    68.80     12.41   5934.23     -0.05     17.08      0.47 
    68.90     12.41   5934.14     -0.05     14.31      0.00 
    69.00     12.41   5935.74     -0.04     14.48      0.47 
    69.10     12.40   5936.50     -0.05     13.47      0.47 
    69.20     12.40   5937.17     -0.04     11.70      0.00 
    69.30     12.41   5938.60     -0.04     12.46      0.47 
    69.40     12.40   5939.44     -0.03     11.19      0.94 
    69.50     12.40   5941.46     -0.04     11.03      0.00 
    69.60     12.38   5942.81     -0.05     10.10      0.47 
    69.70     12.38   5942.73     -0.03      8.58      0.00 
    69.80     12.38   5942.64     -0.04      7.66      0.47 
    69.90     12.37   5944.66     -0.03      9.76      1.41 
    70.00     12.37   5945.34     -0.04      9.60      0.47 
    70.10     12.37   5946.18     -0.03      9.68      0.00 
    70.20     12.36   5946.18     -0.04      9.01      0.47 
