#Written by Robertson Geologging WinLogger V1.0/312
~VERSION INFORMATION
#------------------------------------------------------------------------------
 VERS. 2.0 : CWLS LOG ASCII STANDARD - VERSION 2.0
 WRAP. NO  : ONE LINE PER DEPTH STEP
~WELL INFORMATION
#MNEM.UNIT         DATA                                DESCRIPTION OF MNEMONIC
#------------------------------------------------------------------------------
 STRT.M         56.2000                            :   START DEPTH
 STOP.M        520.0000                            :   STOP DEPTH
 STEP.M          0.1000                            :   STEP VALUE
 NULL.        -999.2500                            :   NULL VALUE
 COMP.    I.M..C.                                  :   COMPANY NAME
 WELL.    Dawdon Shaft                             :   WELL NAME
 FLD.     Dawdon                                   :   FIELD NAME
 LOC.     N/A                                      :   LOCATION
 PROV.    N/A                                      :   PROVINCE
 SRVC.    N/A                                      :   SERVICE COMPANY NAME
 DATE.    30 Jan 04                                :   DATE
 UWI.     N/A                                      :   UNIQUE WELL IDENTIFIER
~PARAMETER INFORMATION
#MNEMO.UNIT         VALUE                 DESCRIPTION OF MNEMONIC
#------------------------------------------------------------------------------
~OTHER INFORMATION SECTION
#------------------------------------------------------------------------------
 TCGX extended range 1365
~CURVE INFORMATION
#MNEMO.UNIT         API CODE              CURVE DESCRIPTION
#------------------------------------------------------------------------------
 DEPTH.M                                 :   0     Depth
 COND.mS/cm                              :   1     Conductivity
 TEMP.DegC                               :   2     Temperature
 C@25.mS/cm                              :   3     Conductivity @25Deg
 DELT.DegC                               :   4     Delta T
 DC@25.mS/cm                             :   5     Delta C @25Deg
 OUT4.CPS                                :   6     Natural Gamma
#------------------------------------------------------------------------------
~A  DEPTH     COND      TEMP      C@25      DELT      DC@25     OUT4      
# ...
   327.40     64.30     16.65     78.63      0.05      0.03      2.88 
   327.50     64.31     16.64     78.68      0.04      0.06      2.06 
   327.60     64.33     16.66     78.66      0.04      0.04      1.24 
   327.70     64.34     16.65     78.70      0.03      0.07      0.35 
   327.80     64.35     16.66     78.69      0.02      0.10      0.76 
   327.90     64.36     16.66     78.69      0.03      0.07      1.18 
   328.00     64.37     16.66     78.69      0.03      0.08      0.41 
   328.10     64.40     16.67     78.70      0.03      0.07      0.82 
   328.20     64.40     16.66     78.74      0.02      0.10      0.82 
   328.30     64.42     16.66     78.76      0.01      0.15      2.06 
   328.40     64.44     16.68     78.73      0.02      0.11      2.06 
   328.50     64.46     16.68     78.74      0.03      0.07      0.82 
   328.60     64.46     16.67     78.79      0.01      0.13      1.65 
   328.70     64.48     16.67     78.79      0.03      0.09      1.65 
   328.80     64.49     16.67     78.83      0.01      0.14      1.59 
   328.90     64.51     16.68     78.79      0.02      0.11      0.76 
   329.00     64.52     16.69     78.78      0.03      0.08      0.76 
   329.10     64.53     16.69     78.80      0.02      0.10      0.76 
   329.20     64.55     16.69     78.81      0.04      0.06      1.65 
   329.30     64.56     16.68     78.86      0.02      0.11      2.06 
   329.40     64.58     16.69     78.88      0.01      0.14      1.65 
   329.50     64.60     16.69     78.88      0.01      0.13      1.59 
   329.60     64.62     16.69     78.89      0.02      0.11      2.00 
   329.70     64.63     16.71     78.87      0.04      0.07      1.65 
   329.80     64.64     16.71     78.89      0.04      0.06      1.59 
   329.90     64.65     16.72     78.86      0.03      0.07      0.35 
   330.00     64.67     16.71     78.90      0.01      0.13      1.24 
   330.10     64.68     16.71     78.92      0.02      0.13      2.00 
   330.20     64.69     16.71     78.92      0.02      0.10      1.59 
   330.30     64.70     16.71     78.93      0.03      0.08      2.41 
   330.40     64.72     16.71     78.96      0.03      0.08      2.00 
   330.50     64.73     16.71     78.99      0.01      0.11      3.18 
   330.60     64.74     16.72     78.97      0.02      0.08      2.71 
   330.70     64.76     16.72     78.98      0.01      0.11      1.18 
   330.80     64.76     16.72     78.98      0.02      0.10      0.82 
   330.90     64.77     16.73     78.98      0.01      0.11      2.88 
   331.00     64.79     16.72     79.01      0.01      0.11      2.82 
   331.10     64.80     16.73     79.02      0.01      0.11      1.18 
   331.20     64.82     16.72     79.05      0.01      0.14      1.24 
   331.30     64.83     16.72     79.07      0.01      0.13      1.65 
   331.40     64.86     16.73     79.07      0.02      0.11      0.41 
   331.50     64.88     16.74     79.07      0.03      0.08      0.41 
   331.60     64.89     16.74     79.07      0.02      0.11      1.24 
   331.70     64.90     16.75     79.06      0.03      0.09      0.82 
   331.80     64.92     16.75     79.11      0.02      0.12      2.47 
   331.90     64.93     16.75     79.10      0.03      0.12      2.47 
   332.00     64.94     16.76     79.07      0.04      0.06      0.82 
   332.10     64.96     16.76     79.11      0.04      0.08      0.82 
   332.20     64.97     16.77     79.10      0.05      0.04      1.18 
   332.30     64.99     16.78     79.10      0.05      0.03      1.59 
   332.40     65.00     16.77     79.12      0.04      0.05      1.65 
   332.50     65.01     16.77     79.13      0.03      0.07      2.06 
   332.60     65.03     16.77     79.16      0.03      0.09      2.06 
   332.70     65.04     16.77     79.15      0.02      0.09      2.06 
   332.80     65.05     16.79     79.15      0.04      0.04      1.24 
   332.90     65.07     16.78     79.16      0.03      0.06      0.82 
   333.00     65.08     16.79     79.17      0.03      0.08      0.35 
   333.10     65.10     16.79     79.19      0.03      0.08      0.76 
   333.20     65.12     16.80     79.17      0.04      0.06      0.00 
   333.30     65.14     16.79     79.24      0.01      0.15      0.00 
   333.40     65.16     16.80     79.22      0.04      0.09      1.24 
   333.50     65.18     16.82     79.20      0.04      0.07      1.24 
   333.60     65.19     16.82     79.20      0.06      0.04      1.18 
   333.70     65.20     16.82     79.23      0.04      0.07      2.06 
   333.80     65.22     16.83     79.22      0.04      0.08      0.82 
   333.90     65.23     16.83     79.21      0.05      0.04      0.82 
   334.00     65.24     16.84     79.22      0.05      0.05      1.18 
   334.10     65.26     16.84     79.24      0.05      0.05      0.35 
   334.20     65.28     16.83     79.27      0.04      0.08      0.41 
   334.30     65.29     16.85     79.24      0.06     -0.00      1.24 
   334.40     65.31     16.85     79.27      0.04      0.05      0.82 
   334.50     65.32     16.85     79.26      0.03      0.07      1.24 
   334.60     65.34     16.86     79.26      0.04      0.05      1.18 
   334.70     65.35     16.86     79.29      0.04      0.06      1.12 
   334.80     65.37     16.88     79.25      0.05      0.03      1.59 
   334.90     65.39     16.88     79.26      0.04      0.05      1.53 
   335.00     65.40     16.88     79.28      0.04      0.06      0.76 
   335.10     65.42     16.88     79.30      0.04      0.05      1.18 
   335.20     65.44     16.88     79.33      0.05      0.06      0.82 
   335.30     65.46     16.91     79.27      0.06      0.03      1.18 
   335.40     65.47     16.91     79.28      0.06      0.02      1.59 
   335.50     65.49     16.91     79.29      0.06      0.02      2.06 
   335.60     65.50     16.92     79.29      0.06      0.03      0.41 
   335.70     65.52     16.93     79.26      0.07     -0.02      0.76 
   335.80     65.54     16.92     79.31      0.05      0.06      0.41 
   335.90     65.55     16.94     79.27      0.06      0.01      0.82 
   336.00     65.56     16.94     79.30      0.06      0.02      0.41 
   336.10     65.58     16.95     79.28      0.07     -0.03      0.82 
   336.20     65.59     16.96     79.28      0.08     -0.04      0.82 
   336.30     65.60     16.96     79.28      0.05      0.01      0.76 
   336.40     65.62     16.95     79.32      0.04      0.05      0.76 
   336.50     65.64     16.97     79.31      0.06      0.00      1.65 
   336.60     65.65     16.97     79.30      0.05      0.02      1.18 
   336.70     65.67     16.98     79.30      0.05      0.02      0.41 
   336.80     65.69     16.98     79.33      0.05      0.02      0.76 
   336.90     65.71     16.97     79.38      0.02      0.11      1.24 
   337.00     65.73     16.98     79.37      0.04      0.08      1.24 
   337.10     65.74     16.98     79.38      0.03      0.09      0.76 
   337.20     65.76     16.99     79.37      0.03      0.10      1.59 
   337.30     65.77     16.99     79.39      0.02      0.12      1.94 
   337.40     65.78     16.98     79.41      0.04      0.08      2.35 
   337.50     65.79     17.00     79.40      0.02      0.12      0.41 
   337.60     65.81     16.99     79.44      0.02      0.13      0.82 
   337.70     65.82     17.00     79.43      0.02      0.13      0.82 
   337.80     65.84     17.00     79.45      0.02      0.11      1.12 
   337.90     65.86     16.99     79.51      0.02      0.13      0.41 
   338.00     65.88     16.98     79.53      0.01      0.16      0.00 
   338.10     65.89     16.99     79.52      0.01      0.14      0.00 
   338.20     65.91     17.00     79.53      0.01      0.16      1.65 
   338.30     65.93     17.02     79.50      0.03      0.09      1.65 
   338.40     65.94     17.00     79.54      0.02      0.14      2.41 
   338.50     65.96     17.01     79.56      0.02      0.15      2.35 
   338.60     65.98     17.02     79.55      0.03      0.11      1.24 
