#Written by Robertson Geologging WinLogger V1.0/406
~VERSION INFORMATION
#------------------------------------------------------------------------------
 VERS. 2.0 : CWLS LOG ASCII STANDARD - VERSION 2.0
 WRAP. NO  : ONE LINE PER DEPTH STEP
~WELL INFORMATION
#MNEM.UNIT         DATA                                DESCRIPTION OF MNEMONIC
#------------------------------------------------------------------------------
 STRT.M         40.0600                            :   START DEPTH
 STOP.M        498.0000                            :   STOP DEPTH
 STEP.M          0.0100                            :   STEP VALUE
 NULL.        -999.2500                            :   NULL VALUE
 COMP.    Coal Authority                           :   COMPANY NAME
 WELL.    Dawdon                                   :   WELL NAME
 FLD.     N/A                                      :   FIELD NAME
 LOC.     N/A                                      :   LOCATION
 PROV.    N/A                                      :   PROVINCE
 SRVC.    N/A                                      :   SERVICE COMPANY NAME
 DATE.    30 Sep 08                                :   DATE
 UWI.     N/A                                      :   UNIQUE WELL IDENTIFIER
~PARAMETER INFORMATION
#MNEMO.UNIT         VALUE                 DESCRIPTION OF MNEMONIC
#------------------------------------------------------------------------------
~OTHER INFORMATION SECTION
#------------------------------------------------------------------------------
 TCGS2822
~CURVE INFORMATION
#MNEMO.UNIT         API CODE              CURVE DESCRIPTION
#------------------------------------------------------------------------------
 DEPTH.M                                 :   0     Depth
 TEMP.DegC                               :   1     Temperature
 COND.uS/cm                              :   2     Conductivity
 DELT.DegC                               :   3     Delta T
 DELC.uS/cm                              :   4     Delta C
 NGAM.CPS                                :   5     Natural Gamma
#------------------------------------------------------------------------------
~A  DEPTH     TEMP      COND      DELT      DELC      NGAM      
# ...
   252.58     15.72  43835.01      0.01      2.32      0.00 
   252.59     15.71  43841.97      0.00     15.08      0.00 
   252.60     15.72  43832.69      0.01      0.00      0.00 
   252.61     15.73  43835.01      0.02      2.32      0.00 
   252.62     15.73  43841.97      0.02     15.08      0.00 
   252.63     15.73  43835.01      0.01      2.32      0.00 
   252.64     15.73  43841.97      0.02     15.08      0.00 
   252.65     15.71  43826.89      0.01     -5.80      7.00 
   252.66     15.71  43832.69     -0.00      0.00      0.00 
   252.67     15.71  43835.01      0.00      8.12      0.00 
   252.68     15.71  43841.97      0.00      9.28      0.00 
   252.69     15.73  43832.69      0.00     19.72      0.00 
   252.70     15.74  43835.01      0.02      0.00      0.00 
   252.71     15.74  43841.97      0.03      9.28      0.00 
   252.72     15.74  43832.69      0.02      9.28      0.00 
   252.73     15.74  43835.01      0.04      0.00      0.00 
   252.74     15.74  43841.97      0.03     18.56      8.00 
   252.75     15.74  43835.01      0.04      2.32      7.00 
   252.76     15.75  43841.97      0.05     15.08      0.00 
   252.77     15.74  43823.41      0.03     -9.28      8.00 
   252.78     15.74  43835.01      0.04      0.00      0.00 
   252.79     15.74  43841.97      0.03     18.56      0.00 
   252.80     15.73  43832.69      0.02      0.00      0.00 
   252.81     15.73  43843.13      0.02     16.24      7.00 
   252.82     15.73  43832.69      0.02      9.28      0.00 
   252.83     15.74  43841.97      0.03      9.28      0.00 
   252.84     15.74  43835.01      0.03      0.00      7.00 
   252.85     15.75  43832.69      0.05      0.00      0.00 
   252.86     15.74  43841.97      0.03     18.56      0.00 
   252.87     15.73  43835.01      0.02      0.00      0.00 
   252.88     15.72  43841.97      0.01      9.28      0.00 
   252.89     15.72  43826.89      0.01      0.00      0.00 
   252.90     15.72  43841.97      0.01      9.28      0.00 
   252.91     15.72  43832.69      0.01     -2.32      0.00 
   252.92     15.72  43843.13      0.00     19.72      0.00 
   252.93     15.71  43832.69     -0.01      9.28      8.00 
   252.94     15.72  43841.97     -0.00      6.96      0.00 
   252.95     15.73  43835.01     -0.00      2.32      0.00 
   252.96     15.72  43841.97     -0.01      6.96      0.00 
   252.97     15.72  43832.69     -0.02      0.00      0.00 
   252.98     15.72  43843.13     -0.01     16.24      0.00 
   252.99     15.70  43832.69     -0.01      0.00      0.00 
   253.00     15.71  43841.97      0.00      6.96     16.00 
   253.01     15.72  43826.89      0.02      3.48      0.00 
   253.02     15.71  43841.97      0.01      0.00      0.00 
   253.03     15.72  43832.69      0.02      5.80      8.00 
   253.04     15.72  43843.13      0.00     10.44      0.00 
   253.05     15.73  43832.69      0.01      5.80      0.00 
   253.06     15.73  43843.13      0.01     10.44      0.00 
   253.07     15.73  43832.69      0.00      0.00      0.00 
   253.08     15.73  43841.97      0.01     15.08      8.00 
   253.09     15.73  43835.01      0.00     -6.96      0.00 
   253.10     15.73  43841.97     -0.00      9.28      0.00 
   253.11     15.72  43843.13     -0.01     10.44      0.00 
   253.12     15.72  43832.69      0.00      5.80      0.00 
   253.13     15.71  43835.01     -0.00     -6.96      0.00 
   253.14     15.72  43841.97      0.00      9.28      0.00 
   253.15     15.74  43832.69      0.02      5.80      0.00 
   253.16     15.73  43843.13      0.01     10.44      0.00 
   253.17     15.74  43832.69      0.02      9.28      0.00 
   253.18     15.73  43843.13      0.02     10.44      0.00 
   253.19     15.71  43832.69      0.00     -2.32      8.00 
   253.20     15.73  43841.97      0.02      9.28      0.00 
   253.21     15.71  43843.13      0.00     10.44      0.00 
   253.22     15.70  43832.69     -0.02      0.00      0.00 
   253.23     15.72  43841.97      0.00      6.96      8.00 
   253.24     15.72  43843.13     -0.01     10.44      0.00 
   253.25     15.73  43823.41     -0.01    -18.56      0.00 
   253.26     15.72  43841.97      0.00     15.08      8.00 
   253.27     15.71  43832.69     -0.00     -9.28      0.00 
   253.28     15.71  43843.13     -0.00     16.24      0.00 
   253.29     15.70  43841.97     -0.00     18.56      0.00 
   253.30     15.72  43841.97      0.00      0.00      0.00 
   253.31     15.72  43832.69      0.01     -2.32      0.00 
   253.32     15.71  43843.13      0.00     10.44      0.00 
   253.33     15.72  43832.69      0.01     -2.32      0.00 
   253.34     15.71  43841.97      0.00      9.28      8.00 
   253.35     15.71  43843.13     -0.01     10.44      0.00 
   253.36     15.72  43841.97      0.00      6.96      0.00 
   253.37     15.73  43832.69      0.01     -9.28      0.00 
   253.38     15.72  43832.69      0.01     -2.32      0.00 
   253.39     15.71  43843.13      0.01     10.44      0.00 
   253.40     15.72  43832.69      0.00      0.00      0.00 
   253.41     15.71  43841.97     -0.02     15.08      0.00 
   253.42     15.70  43843.13     -0.02      1.16      7.00 
   253.43     15.71  43832.69     -0.03      0.00      0.00 
   253.44     15.70  43843.13     -0.02      8.12      0.00 
   253.45     15.71  43841.97     -0.02      9.28      0.00 
   253.46     15.71  43835.01     -0.02     -8.12      0.00 
   253.47     15.69  43841.97     -0.04      9.28      0.00 
   253.48     15.69  43841.97     -0.05      6.96      0.00 
   253.49     15.69  43843.13     -0.03     10.44      7.00 
   253.50     15.71  43823.41     -0.01    -11.60     16.00 
   253.51     15.72  43843.13      0.02      1.16      0.00 
   253.52     15.73  43841.97      0.03      9.28      0.00 
   253.53     15.73  43843.13      0.02     16.24      7.00 
   253.54     15.73  43832.69      0.01     -9.28      8.00 
   253.55     15.74  43843.13      0.01      8.12      0.00 
   253.56     15.73  43841.97      0.01      9.28      0.00 
   253.57     15.74  43835.01      0.02      0.00      7.00 
   253.58     15.73  43841.97      0.02      0.00      0.00 
   253.59     15.73  43841.97      0.01      9.28     16.00 
   253.60     15.73  43843.13      0.00      8.12      0.00 
   253.61     15.73  43823.41      0.00    -18.56      0.00 
   253.62     15.73  43843.13      0.00      8.12      0.00 
   253.63     15.73  43841.97      0.00      0.00      0.00 
   253.64     15.72  43843.13      0.00     16.24      0.00 
   253.65     15.72  43841.97      0.01      9.28      0.00 
   253.66     15.71  43835.01      0.00      0.00      0.00 
   253.67     15.70  43841.97     -0.01      0.00      0.00 
   253.68     15.71  43843.13     -0.02     10.44      0.00 
   253.69     15.69  43841.97     -0.05      6.96      0.00 
   253.70     15.71  43835.01     -0.03     -6.96      0.00 
   253.71     15.72  43841.97     -0.02      9.28      0.00 
   253.72     15.72  43841.97     -0.02      6.96      0.00 
   253.73     15.73  43835.01     -0.00     -6.96      0.00 
   253.74     15.73  43841.97     -0.01      6.96      0.00 
   253.75     15.73  43843.13     -0.01      1.16      0.00 
   253.76     15.74  43841.97      0.00     18.56      0.00 
   253.77     15.72  43835.01     -0.02      0.00      0.00 
   253.78     15.71  43841.97     -0.03      0.00      0.00 
   253.79     15.70  43843.13     -0.03     10.44      0.00 
   253.80     15.69  43841.97     -0.03     -1.16      0.00 
   253.81     15.70  43841.97     -0.03      9.28      0.00 
   253.82     15.71  43843.13     -0.03      1.16      0.00 
   253.83     15.72  43841.97     -0.01      6.96      0.00 
   253.84     15.72  43843.13     -0.03     10.44      0.00 
   253.85     15.72  43832.69     -0.02     -9.28      0.00 
   253.86     15.74  43841.97      0.01      6.96      0.00 
   253.87     15.73  43843.13      0.01      1.16      0.00 
   253.88     15.73  43841.97      0.00     15.08      0.00 
   253.89     15.74  43841.97      0.02      0.00      0.00 
