#Written by Robertson Geologging WinLogger V1.0/311
~VERSION INFORMATION
#------------------------------------------------------------------------------
 VERS. 2.0 : CWLS LOG ASCII STANDARD - VERSION 2.0
 WRAP. NO  : ONE LINE PER DEPTH STEP
~WELL INFORMATION
#MNEM.UNIT         DATA                                DESCRIPTION OF MNEMONIC
#------------------------------------------------------------------------------
 STRT.M         57.1000                            :   START DEPTH
 STOP.M        520.1000                            :   STOP DEPTH
 STEP.M          0.1000                            :   STEP VALUE
 NULL.        -999.2500                            :   NULL VALUE
 COMP.    IMC                                      :   COMPANY NAME
 WELL.    THERESA SHAFT                            :   WELL NAME
 FLD.     DAWDON                                   :   FIELD NAME
 LOC.     N/A                                      :   LOCATION
 PROV.    N/A                                      :   PROVINCE
 SRVC.    N/A                                      :   SERVICE COMPANY NAME
 DATE.    03 Oct 03                                :   DATE
 UWI.     N/A                                      :   UNIQUE WELL IDENTIFIER
~PARAMETER INFORMATION
#MNEMO.UNIT         VALUE                 DESCRIPTION OF MNEMONIC
#------------------------------------------------------------------------------
~OTHER INFORMATION SECTION
#------------------------------------------------------------------------------
 TCDS 2822
~CURVE INFORMATION
#MNEMO.UNIT         API CODE              CURVE DESCRIPTION
#------------------------------------------------------------------------------
 DEPTH.M                                 :   0     Depth
 TEMP.DegC                               :   1     Temperature
 COND.uS/cm                              :   2     Conductivity
 DELT.DegC                               :   3     Delta T
 DELC.uS/cm                              :   4     Delta C
 NGAM.API                                :   5     Natural Gamma
#------------------------------------------------------------------------------
~A  DEPTH     TEMP      COND      DELT      DELC      NGAM      
# ...
    83.50     12.11   5968.15      0.01      0.17      0.59 
    83.60     12.10   5968.15     -0.01      0.00      1.47 
    83.70     12.11   5969.24      0.00      0.67      0.88 
    83.80     12.11   5968.23      0.01      0.51      0.00 
    83.90     12.11   5968.82      0.00      0.42      0.00 
    84.00     12.10   5968.65     -0.00      0.42      0.47 
    84.10     12.10   5967.81     -0.01     -0.59      0.00 
    84.20     12.09   5969.16     -0.01      1.68      0.00 
    84.30     12.10   5968.82     -0.01      0.51      1.06 
    84.40     12.09   5969.16     -0.02     -0.00      1.06 
    84.50     12.09   5969.24     -0.02      1.09      0.00 
    84.60     12.10   5969.07     -0.01      0.93      0.00 
    84.70     12.10   5968.82     -0.02     -0.42      0.00 
    84.80     12.09   5968.99     -0.02      0.76      0.00 
    84.90     12.08   5967.39     -0.03     -1.43      0.00 
    85.00     12.09   5969.24     -0.01      0.59      0.59 
    85.10     12.08   5968.15     -0.02      0.34      0.47 
    85.20     12.09   5968.82     -0.01     -0.34      0.94 
    85.30     12.09   5968.82     -0.02     -0.00      0.94 
    85.40     12.07   5969.33     -0.02      0.84      0.47 
    85.50     12.07   5968.15     -0.02     -1.09      0.00 
    85.60     12.08   5969.16     -0.02      0.08      0.47 
    85.70     12.08   5969.16     -0.01      0.93      0.00 
    85.80     12.07   5967.81     -0.02     -1.43      0.00 
    85.90     12.07   5969.75     -0.02      2.36      0.00 
    86.00     12.07   5969.07     -0.02     -0.17      0.94 
    86.10     12.07   5969.50     -0.01      0.76      0.94 
    86.20     12.07   5969.75     -0.02      0.93      0.00 
    86.30     12.07   5969.58     -0.02      0.76      0.47 
    86.40     12.07   5969.66     -0.00      0.34      0.94 
    86.50     12.07   5970.17      0.00      2.02      0.47 
    86.60     12.06   5968.74     -0.02     -0.42      0.94 
    86.70     12.06   5969.83     -0.02      0.67      0.94 
    86.80     12.06   5969.83     -0.01      1.35      1.88 
    86.90     12.06   5969.66     -0.01     -0.08      1.41 
    87.00     12.07   5969.58     -0.00      0.51      0.47 
    87.10     12.07   5969.58     -0.00      0.08      0.47 
    87.20     12.07   5969.58      0.00      0.51      0.00 
    87.30     12.06   5970.34     -0.01      0.76      0.47 
    87.40     12.07   5970.25     -0.01      0.59      0.00 
    87.50     12.07   5969.75      0.00      0.25      0.47 
    87.60     12.07   5970.17      0.01      1.43      0.00 
    87.70     12.06   5969.58      0.00     -0.25      0.00 
    87.80     12.05   5970.00     -0.00     -0.42      0.47 
    87.90     12.05   5970.17     -0.00      0.51      0.47 
    88.00     12.05   5970.42     -0.02      0.59      0.47 
    88.10     12.06   5970.51     -0.01      0.93      0.00 
    88.20     12.07   5970.51     -0.00      0.08      0.00 
    88.30     12.06   5969.75      0.00     -0.59      0.00 
    88.40     12.05   5970.34     -0.02      0.67      1.41 
    88.50     12.05   5970.51     -0.02      0.76      1.41 
    88.60     12.05   5971.10     -0.02      1.52      0.47 
    88.70     12.06   5970.51     -0.01     -0.00      0.47 
    88.80     12.05   5970.17      0.00     -0.51      0.00 
    88.90     12.06   5970.93      0.01      0.51      0.59 
    89.00     12.07   5970.67      0.01      0.25      0.00 
    89.10     12.05   5970.25     -0.01      0.42      0.47 
    89.20     12.06   5970.34     -0.01     -0.17      0.00 
    89.30     12.05   5971.68     -0.01      2.53      0.47 
    89.40     12.04   5970.51     -0.00      0.17      0.94 
    89.50     12.05   5971.10     -0.01      0.59      1.41 
    89.60     12.06   5971.18      0.01      0.76      0.00 
    89.70     12.06   5971.18      0.00      0.67      0.59 
    89.80     12.06   5971.18      0.02      0.34      0.00 
    89.90     12.05   5971.10     -0.02     -0.08      0.94 
    90.00     12.05   5970.51     -0.02      0.34      0.94 
    90.10     12.04   5970.93     -0.01      0.42      0.41 
    90.20     12.04   5971.35     -0.01      0.34      0.41 
    90.30     12.05   5971.77      0.00      0.67      0.47 
    90.40     12.04   5971.43     -0.01      0.25      0.00 
    90.50     12.05   5971.18     -0.00     -0.59      0.00 
    90.60     12.05   5971.77     -0.01     -0.08      1.18 
    90.70     12.05   5971.85     -0.02      0.67      2.06 
    90.80     12.05   5971.26     -0.02      0.08      0.94 
    90.90     12.03   5971.85     -0.01      0.59      0.00 
    91.00     12.04   5971.85     -0.01      0.67      0.00 
    91.10     12.04   5971.85      0.00      0.25      0.47 
    91.20     12.04   5971.77     -0.01      0.17      0.47 
    91.30     12.03   5971.52     -0.02      0.42      0.00 
    91.40     12.03   5971.35     -0.00     -0.17      0.00 
    91.50     12.04   5971.35     -0.01     -0.08      0.00 
    91.60     12.04   5971.85     -0.01      0.08      0.00 
    91.70     12.04   5971.85     -0.01      0.00      0.00 
    91.80     12.03   5972.27     -0.02      1.68      0.94 
    91.90     12.03   5972.36      0.00      0.59      0.47 
    92.00     12.03   5972.36     -0.01      0.51      0.94 
    92.10     12.03   5972.53     -0.01      0.67      1.41 
    92.20     12.02   5972.44     -0.02     -0.00      0.47 
    92.30     12.03   5972.44      0.00      0.25      0.00 
    92.40     12.03   5972.53     -0.00      0.17      0.59 
    92.50     12.02   5971.60     -0.02     -0.67      1.47 
    92.60     12.02   5972.19     -0.02     -0.34      2.06 
    92.70     12.04   5972.27      0.01      0.42      0.59 
    92.80     12.02   5972.27     -0.01      0.08      0.00 
    92.90     12.02   5972.27     -0.01      0.59      0.47 
    93.00     12.02   5973.12     -0.01      1.43      0.47 
    93.10     12.02   5973.12     -0.01      1.26      0.94 
    93.20     12.02   5972.86     -0.00      0.42      0.47 
    93.30     12.03   5972.27      0.00     -0.17      0.00 
    93.40     12.03   5972.53      0.00      0.67      0.00 
    93.50     12.02   5972.53     -0.01      0.93      0.00 
    93.60     12.02   5973.20     -0.01      0.76      0.00 
    93.70     12.04   5972.53     -0.00      0.17      0.00 
    93.80     12.03   5972.53      0.02     -0.42      0.00 
    93.90     12.03   5973.12      0.00      0.84      0.00 
    94.00     12.03   5973.12      0.01      0.67      1.41 
    94.10     12.01   5973.20     -0.00      0.17      1.88 
    94.20     12.02   5972.44      0.00     -0.42      1.41 
    94.30     12.02   5972.86     -0.02      1.26      0.94 
    94.40     12.02   5972.86     -0.01      0.34      1.41 
    94.50     12.02   5973.12      0.01      0.67      1.41 
    94.60     12.03   5973.12      0.01     -0.08      1.88 
    94.70     12.02   5973.20     -0.02      0.67      0.94 
    94.80     12.03   5973.20     -0.00      0.00      0.00 
    94.90     12.02   5973.20     -0.00      0.08      0.00 
    95.00     12.03   5972.44     -0.00      0.00      0.47 
    95.10     12.04   5973.20      0.03      0.08      0.47 
    95.20     12.01   5973.12     -0.00      0.76      0.47 
    95.30     12.02   5973.71      0.00      0.84      0.47 
    95.40     12.02   5973.20     -0.00      0.25      0.94 
    95.50     12.01   5973.12     -0.01      0.00      0.47 
    95.60     12.03   5973.62     -0.00      0.51      1.41 
    95.70     12.03   5973.79      0.00      0.59      0.94 
    95.80     12.02   5973.12     -0.01     -0.08      0.00 
    95.90     12.03   5972.44      0.00     -0.76      0.47 
    96.00     12.02   5973.79     -0.01      1.35      1.41 
    96.10     12.04   5973.87     -0.00      0.67      2.35 
    96.20     12.02   5973.12      0.01      0.00      1.88 
    96.30     12.02   5973.12      0.01     -0.59      0.47 
    96.40     12.03   5973.79      0.01      0.59      0.47 
    96.50     12.02   5973.79      0.01      0.00      0.47 
    96.60     12.03   5972.86      0.00     -0.08      0.47 
