#Written by Robertson Geologging WinLogger V1.0/311
~VERSION INFORMATION
#------------------------------------------------------------------------------
 VERS. 2.0 : CWLS LOG ASCII STANDARD - VERSION 2.0
 WRAP. NO  : ONE LINE PER DEPTH STEP
~WELL INFORMATION
#MNEM.UNIT         DATA                                DESCRIPTION OF MNEMONIC
#------------------------------------------------------------------------------
 STRT.M         57.1000                            :   START DEPTH
 STOP.M        520.1000                            :   STOP DEPTH
 STEP.M          0.1000                            :   STEP VALUE
 NULL.        -999.2500                            :   NULL VALUE
 COMP.    IMC                                      :   COMPANY NAME
 WELL.    THERESA SHAFT                            :   WELL NAME
 FLD.     DAWDON                                   :   FIELD NAME
 LOC.     N/A                                      :   LOCATION
 PROV.    N/A                                      :   PROVINCE
 SRVC.    N/A                                      :   SERVICE COMPANY NAME
 DATE.    03 Oct 03                                :   DATE
 UWI.     N/A                                      :   UNIQUE WELL IDENTIFIER
~PARAMETER INFORMATION
#MNEMO.UNIT         VALUE                 DESCRIPTION OF MNEMONIC
#------------------------------------------------------------------------------
~OTHER INFORMATION SECTION
#------------------------------------------------------------------------------
 TCDS 2822
~CURVE INFORMATION
#MNEMO.UNIT         API CODE              CURVE DESCRIPTION
#------------------------------------------------------------------------------
 DEPTH.M                                 :   0     Depth
 TEMP.DegC                               :   1     Temperature
 COND.uS/cm                              :   2     Conductivity
 DELT.DegC                               :   3     Delta T
 DELC.uS/cm                              :   4     Delta C
 NGAM.API                                :   5     Natural Gamma
#------------------------------------------------------------------------------
~A  DEPTH     TEMP      COND      DELT      DELC      NGAM      
# ...
   413.50     19.20  49819.21      0.00     -2.82      3.35 
   413.60     19.20  49820.84     -0.01     -0.87      3.35 
   413.70     19.20  49820.19     -0.00     -0.87      1.29 
   413.80     19.21  49820.29      0.01     -0.98      0.41 
   413.90     19.20  49819.97      0.00     -1.95      0.00 
   414.00     19.21  49820.19      0.01     -1.74      2.82 
   414.10     19.20  49818.45     -0.00     -2.60      2.24 
   414.20     19.22  49818.88      0.01     -1.19      2.65 
   414.30     19.22  49817.69      0.01     -1.95      2.71 
   414.40     19.25  49817.47      0.06     -1.74      1.82 
   414.50     19.22  49817.47      0.02     -1.74      0.88 
   414.60     19.23  49817.47      0.03     -3.36      1.71 
   414.70     19.23  49817.15      0.03     -3.04      0.88 
   414.80     19.24  49816.39      0.03     -4.34      1.24 
   414.90     19.24  49816.93      0.03     -3.47      1.71 
   415.00     19.24  49817.15      0.03     -2.49      0.94 
   415.10     19.24  49815.74      0.04     -2.71      1.71 
   415.20     19.25  49815.85      0.03     -2.06      1.29 
   415.30     19.25  49815.96      0.03     -1.19      0.88 
   415.40     19.25  49816.71      0.00     -0.00      0.88 
   415.50     19.26  49817.15      0.04      0.65      0.82 
   415.60     19.26  49816.71      0.02     -0.22      1.24 
   415.70     19.25  49817.69      0.02      1.19      1.29 
   415.80     19.25  49817.80      0.01      2.93      0.00 
   415.90     19.25  49818.45      0.01      3.47      0.82 
   416.00     19.25  49819.53      0.01      3.36      1.24 
   416.10     19.25  49819.43      0.01      3.69      0.41 
   416.20     19.25  49820.40     -0.00      4.01      0.88 
   416.30     19.28  49821.38      0.03      5.42      1.76 
   416.40     19.26  49822.14      0.01      5.42      2.59 
   416.50     19.25  49823.00     -0.01      5.31      1.76 
   416.60     19.24  49823.55     -0.01      5.53      3.18 
   416.70     19.25  49823.76     -0.00      5.10      2.12 
   416.80     19.26  49825.28      0.01      6.94      1.29 
   416.90     19.25  49826.37      0.00      7.37      0.88 
   417.00     19.26  49827.99      0.01      8.78      0.88 
   417.10     19.25  49828.43      0.00      9.00      0.88 
   417.20     19.26  49830.05      0.01      9.65      2.18 
   417.30     19.26  49830.38     -0.01      9.00      1.71 
   417.40     19.26  49830.38      0.01      7.92      0.41 
   417.50     19.27  49832.66      0.01      8.78      2.47 
   417.60     19.26  49832.87      0.02      8.89      2.06 
   417.70     19.26  49834.72      0.01      9.65      0.41 
   417.80     19.24  49834.93     -0.02      9.22      0.82 
   417.90     19.27  49837.00      0.02      9.87      1.29 
   418.00     19.27  49839.38      0.00     11.82      2.65 
   418.10     19.27  49839.49      0.02     11.06      1.76 
   418.20     19.28  49840.47      0.02     10.41      1.71 
   418.30     19.30  49841.98      0.04     12.15      2.06 
   418.40     19.30  49843.50      0.04     13.12      0.82 
   418.50     19.34  49844.59      0.08     11.93      0.94 
   418.60     19.35  49846.32      0.09     13.45      1.76 
   418.70     19.36  49848.17      0.11     13.45      1.29 
   418.80     19.39  49849.90      0.15     14.32      0.94 
   418.90     19.40  49851.64      0.13     13.99      1.76 
   419.00     19.41  49851.64      0.14     13.23      2.65 
   419.10     19.43  49855.22      0.16     15.84      1.71 
   419.20     19.45  49855.98      0.17     14.75      1.65 
   419.30     19.47  49857.71      0.17     15.73      1.29 
   419.40     19.48  49857.71      0.18     14.21      1.29 
   419.50     19.50  49859.01      0.15     13.45      2.18 
   419.60     19.51  49860.97      0.17     13.78      1.24 
   419.70     19.53  49862.59      0.16     13.56      3.47 
   419.80     19.55  49864.98      0.15     15.08      3.06 
   419.90     19.57  49866.61      0.17     14.97      1.35 
   420.00     19.58  49868.13      0.17     15.51      0.94 
   420.10     19.60  49871.16      0.17     15.95      1.29 
   420.20     19.60  49873.33      0.15     18.22      2.65 
   420.30     19.63  49874.63      0.16     17.68      1.76 
   420.40     19.66  49875.94      0.17     18.33      1.82 
   420.50     19.70  49879.62      0.20     19.74      0.88 
   420.60     19.72  49882.77      0.21     21.80      1.35 
   420.70     19.76  49884.61      0.23     21.37      0.88 
   420.80     19.78  49886.57      0.23     20.72      0.41 
   420.90     19.82  49889.06      0.25     22.46      0.88 
   421.00     19.84  49891.56      0.25     23.43      0.47 
   421.10     19.86  49893.51      0.26     22.13      1.76 
   421.20     19.89  49895.68      0.29     21.59      1.41 
   421.30     19.93  49899.48      0.29     24.30      1.29 
   421.40     19.94  49902.41      0.28     25.93      1.29 
   421.50     19.98  49907.07      0.28     27.01      0.88 
   421.60     20.00  49909.46      0.28     26.25      0.82 
   421.70     20.03  49912.39      0.27     27.77      1.29 
   421.80     20.07  49915.53      0.28     27.88      1.65 
   421.90     20.12  49919.55      0.30     30.16      1.24 
   422.00     20.16  49929.64      0.32     38.08      1.76 
   422.10     20.21  49933.44      0.35     39.93      1.76 
   422.20     20.28  49931.81      0.38     34.29      1.76 
   422.30     20.32  49931.16      0.40     30.81      2.53 
   422.40     20.34  49932.46      0.39     30.81      1.65 
   422.50     20.36  49932.79      0.38     26.69      1.29 
   422.60     20.39  49931.81      0.39     22.35      1.71 
   422.70     20.43  49930.83      0.39     18.45      1.65 
   422.80     20.45  49932.46      0.38     16.93      0.82 
   422.90     20.50  49933.22      0.38     12.69      1.24 
   423.00     20.52  49933.65      0.36      2.50      1.76 
   423.10     20.54  49934.20      0.32     -0.22      0.94 
   423.20     20.56  49934.52      0.27      1.95      0.47 
   423.30     20.55  49934.85      0.23      3.04      0.88 
   423.40     20.57  49934.96      0.23      1.95      2.18 
   423.50     20.58  49935.93      0.22      3.36      0.88 
   423.60     20.58  49936.69      0.19      5.10      1.29 
   423.70     20.59  49936.37      0.16      4.99      0.82 
   423.80     20.59  49936.48      0.14      4.23      0.00 
   423.90     20.59  49937.99      0.09      5.32      1.41 
   424.00     20.59  49936.48      0.07      2.82      1.76 
   424.10     20.59  49934.74      0.05      0.54      2.12 
   424.20     20.60  49933.00      0.04     -1.52      1.29 
   424.30     20.60  49932.14      0.05     -3.26      0.47 
   424.40     20.61  49931.27      0.03     -4.45      0.88 
   424.50     20.61  49930.29      0.03     -5.64      2.18 
   424.60     20.62  49929.75      0.03     -5.64      2.06 
   424.70     20.62  49927.58      0.03     -8.14      1.35 
   424.80     20.62  49926.93      0.03     -9.98      1.41 
   424.90     20.63  49925.52      0.04    -11.72      1.29 
   425.00     20.63  49924.65      0.05    -10.63      1.71 
   425.10     20.64  49924.43      0.04    -10.09      3.35 
   425.20     20.64  49922.15      0.05    -10.85      2.12 
   425.30     20.64  49919.77      0.04    -12.37      1.82 
   425.40     20.65  49917.16      0.04    -14.11      2.24 
   425.50     20.65  49915.75      0.04    -14.54      2.53 
   425.60     20.65  49914.88      0.04    -14.65      1.71 
   425.70     20.65  49913.15      0.03    -14.43      1.29 
   425.80     20.66  49912.17      0.04    -14.76      0.82 
   425.90     20.67  49908.70      0.04    -16.60      0.82 
   426.00     20.67  49897.96      0.04    -27.34      2.65 
   426.10     20.67  49873.88      0.03    -50.55      3.65 
   426.20     20.68  49935.61      0.04     14.22      2.35 
   426.30     20.82  49892.86      0.18    -26.04      2.24 
   426.40     21.11  49875.61      0.46    -41.66      2.65 
   426.50     21.31  49864.98      0.66    -51.53      3.06 
   426.60     21.44  49857.50      0.79    -57.39      3.65 
