#Written by Robertson Geologging WinLogger V1.0/370
~VERSION INFORMATION
#------------------------------------------------------------------------------
 VERS. 2.0 : CWLS LOG ASCII STANDARD - VERSION 2.0
 WRAP. NO  : ONE LINE PER DEPTH STEP
~WELL INFORMATION
#MNEM.UNIT         DATA                                DESCRIPTION OF MNEMONIC
#------------------------------------------------------------------------------
 STRT.M         37.0600                            :   START DEPTH
 STOP.M        510.0000                            :   STOP DEPTH
 STEP.M          0.0100                            :   STEP VALUE
 NULL.        -999.2500                            :   NULL VALUE
 COMP.    WHITE YOUN GREEN                         :   COMPANY NAME
 WELL.    DAWDON SHAFT                             :   WELL NAME
 FLD.     DAWDON                                   :   FIELD NAME
 LOC.     N/A                                      :   LOCATION
 PROV.    N/A                                      :   PROVINCE
 SRVC.    N/A                                      :   SERVICE COMPANY NAME
 DATE.    13 Dec 06                                :   DATE
 UWI.     N/A                                      :   UNIQUE WELL IDENTIFIER
~PARAMETER INFORMATION
#MNEMO.UNIT         VALUE                 DESCRIPTION OF MNEMONIC
#------------------------------------------------------------------------------
~OTHER INFORMATION SECTION
#------------------------------------------------------------------------------
 lLOGGING DOWN
~CURVE INFORMATION
#MNEMO.UNIT         API CODE              CURVE DESCRIPTION
#------------------------------------------------------------------------------
 DEPTH.M                                 :   0     Depth
 TEMP.DegC                               :   1     Temperature
 CN25.mS/cm                              :   2     Conductivity@25DegC
 COND.mS/cm                              :   3     Conductivity
 DELT.DegC                               :   4     Delta T
 DELC.mS/cm                              :   5     Delta C
 NGAM.CPS                                :   6     Natural Gamma
#------------------------------------------------------------------------------
~A  DEPTH     TEMP      CN25      COND      DELT      DELC      NGAM      
# ...
   162.49     13.09     44.48     29.89      0.02      0.83      0.00 
   162.50     13.08     44.49     29.90      0.02      0.83      0.41 
   162.51     13.08     44.50     29.91      0.02      0.84      0.41 
   162.52     13.08     44.51     29.92      0.02      0.83      0.41 
   162.53     13.09     44.51     29.92      0.02      0.83      0.41 
   162.54     13.09     44.52     29.93      0.02      0.83      0.41 
   162.55     13.09     44.53     29.94      0.02      0.83      0.41 
   162.56     13.08     44.54     29.94      0.02      0.82      0.41 
   162.57     13.08     44.55     29.95      0.02      0.82      0.41 
   162.58     13.08     44.56     29.95      0.02      0.82      0.41 
   162.59     13.08     44.57     29.96      0.02      0.81      0.41 
   162.60     13.09     44.58     29.97      0.02      0.81      0.41 
   162.61     13.09     44.58     29.97      0.03      0.81      0.41 
   162.62     13.09     44.59     29.98      0.03      0.80      0.41 
   162.63     13.09     44.59     29.99      0.03      0.80      0.41 
   162.64     13.09     44.60     29.99      0.03      0.80      0.41 
   162.65     13.09     44.61     30.00      0.03      0.80      0.41 
   162.66     13.09     44.62     30.01      0.03      0.80      0.41 
   162.67     13.09     44.62     30.01      0.03      0.79      0.00 
   162.68     13.09     44.62     30.02      0.03      0.79      0.35 
   162.69     13.09     44.63     30.02      0.03      0.79      0.35 
   162.70     13.10     44.64     30.03      0.04      0.78      0.35 
   162.71     13.10     44.64     30.04      0.04      0.78      0.35 
   162.72     13.10     44.65     30.05      0.04      0.78      0.35 
   162.73     13.10     44.65     30.05      0.04      0.78      1.06 
   162.74     13.10     44.66     30.06      0.04      0.78      1.06 
   162.75     13.10     44.67     30.06      0.04      0.78      1.06 
   162.76     13.10     44.68     30.07      0.04      0.78      1.41 
   162.77     13.10     44.69     30.07      0.03      0.78      1.41 
   162.78     13.10     44.70     30.09      0.03      0.79      1.41 
   162.79     13.10     44.71     30.09      0.03      0.79      1.41 
   162.80     13.10     44.72     30.10      0.03      0.79      1.41 
   162.81     13.10     44.73     30.11      0.03      0.79      1.41 
   162.82     13.10     44.73     30.11      0.03      0.79      1.41 
   162.83     13.10     44.74     30.12      0.03      0.79      1.41 
   162.84     13.10     44.75     30.12      0.03      0.79      1.76 
   162.85     13.10     44.76     30.13      0.03      0.79      1.41 
   162.86     13.10     44.77     30.14      0.03      0.79      1.41 
   162.87     13.10     44.78     30.14      0.03      0.80      1.41 
   162.88     13.10     44.79     30.15      0.03      0.80      1.41 
   162.89     13.10     44.79     30.16      0.03      0.79      1.41 
   162.90     13.10     44.80     30.16      0.03      0.80      0.71 
   162.91     13.10     44.82     30.17      0.03      0.80      0.71 
   162.92     13.10     44.83     30.18      0.02      0.81      0.71 
   162.93     13.10     44.84     30.19      0.02      0.82      0.35 
   162.94     13.10     44.85     30.19      0.02      0.82      0.35 
   162.95     13.10     44.86     30.20      0.02      0.83      0.35 
   162.96     13.10     44.86     30.21      0.01      0.83      0.35 
   162.97     13.10     44.87     30.22      0.01      0.84      0.35 
   162.98     13.10     44.88     30.23      0.01      0.83      0.35 
   162.99     13.10     44.89     30.23      0.02      0.84      0.35 
   163.00     13.10     44.90     30.24      0.02      0.84      0.71 
   163.01     13.10     44.91     30.25      0.02      0.85      0.35 
   163.02     13.10     44.92     30.26      0.02      0.84      0.35 
   163.03     13.10     44.93     30.26      0.02      0.84      0.35 
   163.04     13.10     44.94     30.27      0.03      0.83      0.35 
   163.05     13.10     44.95     30.28      0.03      0.84      0.35 
   163.06     13.10     44.96     30.28      0.03      0.83      0.35 
   163.07     13.10     44.97     30.29      0.03      0.83      0.35 
   163.08     13.10     44.98     30.30      0.03      0.83      0.35 
   163.09     13.10     44.99     30.31      0.03      0.83      0.35 
   163.10     13.10     45.00     30.31      0.04      0.83      0.35 
   163.11     13.10     45.00     30.32      0.04      0.82      0.35 
   163.12     13.10     45.00     30.33      0.04      0.82      0.35 
   163.13     13.10     45.02     30.34      0.04      0.82      0.35 
   163.14     13.10     45.03     30.34      0.03      0.83      0.35 
   163.15     13.10     45.05     30.35      0.03      0.84      0.35 
   163.16     13.10     45.05     30.36      0.03      0.84      0.35 
   163.17     13.10     45.06     30.37      0.03      0.84      0.00 
   163.18     13.11     45.07     30.38      0.03      0.84      0.00 
   163.19     13.11     45.08     30.39      0.04      0.84      0.00 
   163.20     13.11     45.09     30.39      0.03      0.85      0.00 
   163.21     13.11     45.10     30.40      0.03      0.86      0.00 
   163.22     13.10     45.12     30.41      0.03      0.87      0.00 
   163.23     13.11     45.13     30.42      0.03      0.87      0.00 
   163.24     13.11     45.14     30.43      0.03      0.87      0.00 
   163.25     13.11     45.14     30.44      0.03      0.87      0.00 
   163.26     13.11     45.15     30.45      0.03      0.88      0.00 
   163.27     13.11     45.16     30.46      0.03      0.88      0.00 
   163.28     13.11     45.17     30.47      0.03      0.88      0.00 
   163.29     13.12     45.18     30.48      0.04      0.88      0.00 
   163.30     13.12     45.19     30.49      0.04      0.88      0.00 
   163.31     13.12     45.20     30.50      0.04      0.88      0.00 
   163.32     13.12     45.21     30.51      0.04      0.88      0.00 
   163.33     13.12     45.23     30.52      0.04      0.89      0.00 
   163.34     13.12     45.25     30.53      0.04      0.89      0.00 
   163.35     13.12     45.25     30.54      0.04      0.89      0.00 
   163.36     13.12     45.27     30.55      0.04      0.89      0.00 
   163.37     13.12     45.28     30.56      0.04      0.89      0.00 
   163.38     13.12     45.30     30.57      0.04      0.90      0.00 
   163.39     13.12     45.31     30.58      0.04      0.91      0.00 
   163.40     13.12     45.32     30.59      0.04      0.91      0.00 
   163.41     13.12     45.33     30.60      0.04      0.91      0.00 
   163.42     13.12     45.36     30.61      0.04      0.93      0.00 
   163.43     13.12     45.37     30.62      0.04      0.93      0.00 
   163.44     13.12     45.38     30.63      0.03      0.93      0.00 
   163.45     13.12     45.40     30.65      0.03      0.94      0.00 
   163.46     13.12     45.41     30.66      0.03      0.95      0.00 
   163.47     13.12     45.43     30.67      0.03      0.96      0.00 
   163.48     13.12     45.44     30.68      0.03      0.96      0.00 
   163.49     13.12     45.45     30.69      0.03      0.96      0.00 
   163.50     13.12     45.47     30.70      0.03      0.97      0.00 
   163.51     13.12     45.49     30.72      0.03      0.98      0.00 
   163.52     13.12     45.50     30.73      0.03      0.99      0.00 
   163.53     13.12     45.51     30.74      0.03      0.99      0.00 
   163.54     13.12     45.52     30.75      0.04      0.99      0.00 
   163.55     13.12     45.54     30.76      0.04      1.00      0.00 
   163.56     13.13     45.54     30.77      0.04      0.99      0.00 
   163.57     13.13     45.56     30.78      0.04      1.00      0.00 
   163.58     13.13     45.57     30.80      0.04      1.01      0.00 
   163.59     13.13     45.59     30.81      0.04      1.01      0.00 
   163.60     13.13     45.60     30.82      0.04      1.02      0.00 
   163.61     13.13     45.61     30.83      0.04      1.03      0.00 
