#Written by Robertson Geologging WinLogger V1.0/311
~VERSION INFORMATION
#------------------------------------------------------------------------------
 VERS. 2.0 : CWLS LOG ASCII STANDARD - VERSION 2.0
 WRAP. NO  : ONE LINE PER DEPTH STEP
~WELL INFORMATION
#MNEM.UNIT         DATA                                DESCRIPTION OF MNEMONIC
#------------------------------------------------------------------------------
 STRT.M         57.1000                            :   START DEPTH
 STOP.M        520.1000                            :   STOP DEPTH
 STEP.M          0.1000                            :   STEP VALUE
 NULL.        -999.2500                            :   NULL VALUE
 COMP.    IMC                                      :   COMPANY NAME
 WELL.    THERESA SHAFT                            :   WELL NAME
 FLD.     DAWDON                                   :   FIELD NAME
 LOC.     N/A                                      :   LOCATION
 PROV.    N/A                                      :   PROVINCE
 SRVC.    N/A                                      :   SERVICE COMPANY NAME
 DATE.    03 Oct 03                                :   DATE
 UWI.     N/A                                      :   UNIQUE WELL IDENTIFIER
~PARAMETER INFORMATION
#MNEMO.UNIT         VALUE                 DESCRIPTION OF MNEMONIC
#------------------------------------------------------------------------------
~OTHER INFORMATION SECTION
#------------------------------------------------------------------------------
 TCDS 2822
~CURVE INFORMATION
#MNEMO.UNIT         API CODE              CURVE DESCRIPTION
#------------------------------------------------------------------------------
 DEPTH.M                                 :   0     Depth
 TEMP.DegC                               :   1     Temperature
 COND.uS/cm                              :   2     Conductivity
 DELT.DegC                               :   3     Delta T
 DELC.uS/cm                              :   4     Delta C
 NGAM.API                                :   5     Natural Gamma
#------------------------------------------------------------------------------
~A  DEPTH     TEMP      COND      DELT      DELC      NGAM      
# ...
   439.90     22.06  49895.25      0.03     -7.92      0.47 
   440.00     22.06  49895.90      0.02     -5.53      0.41 
   440.10     22.06  49896.44      0.02     -3.80      1.29 
   440.20     22.06  49895.79      0.02     -4.34      1.35 
   440.30     22.06  49896.66      0.01     -2.60      2.71 
   440.40     22.06  49896.66      0.01     -2.50      2.59 
   440.50     22.07  49896.87      0.03     -1.30      1.76 
   440.60     22.05  49896.44      0.01     -0.33      2.24 
   440.70     22.06  49897.20      0.00      1.30      1.41 
   440.80     22.06  49896.66      0.00      2.39      4.00 
   440.90     22.07  49897.74      0.01      2.28      6.65 
   441.00     22.06  49897.31      0.01      1.41      4.82 
   441.10     22.06  49898.18      0.00      1.95      3.00 
   441.20     22.05  49898.18     -0.01      2.39      3.06 
   441.30     22.07  49898.07      0.01      0.43      3.65 
   441.40     22.07  49898.39      0.01      0.76      2.59 
   441.50     22.06  49899.91     -0.01      3.04      4.18 
   441.60     22.05  49900.02     -0.00      2.82      1.76 
   441.70     22.05  49900.02     -0.00      1.84      1.35 
   441.80     22.05  49900.02     -0.01      3.15      1.71 
   441.90     22.06  49899.15     -0.00      2.06      3.35 
   442.00     22.05  49899.26     -0.01      1.95      2.06 
   442.10     22.05  49899.04     -0.01      0.87      1.71 
   442.20     22.06  49899.80      0.00      2.60      0.47 
   442.30     22.06  49900.45     -0.01      3.04      1.76 
   442.40     22.06  49899.15     -0.01      0.76      2.29 
   442.50     22.06  49899.91     -0.00      0.76      2.65 
   442.60     22.06  49899.80      0.01      0.43      3.53 
   442.70     22.06  49899.15      0.01      0.87      3.06 
   442.80     22.07  49897.42      0.01     -1.84      2.71 
   442.90     22.05  49894.92     -0.02     -4.23      2.65 
   443.00     22.05  49893.40     -0.00     -5.64      2.53 
   443.10     22.03  49891.88     -0.03     -6.40      1.24 
   443.20     22.02  49890.26     -0.04     -8.68      2.53 
   443.30     22.01  49889.50     -0.04    -10.09      1.65 
   443.40     22.00  49888.41     -0.06    -10.74      2.18 
   443.50     22.00  49887.00     -0.06    -13.02      2.53 
   443.60     21.99  49885.92     -0.08    -14.86      2.18 
   443.70     21.98  49883.42     -0.08    -14.75      1.82 
   443.80     21.97  49884.40     -0.09    -12.26      3.12 
   443.90     21.97  49884.61     -0.08     -9.66      2.47 
   444.00     21.97  49884.07     -0.08     -9.33      4.47 
   444.10     21.96  49883.42     -0.07     -8.24      3.18 
   444.20     21.95  49883.42     -0.07     -6.83      2.24 
   444.30     21.95  49883.53     -0.06     -5.97      3.18 
   444.40     21.94  49883.42     -0.06     -4.66      3.18 
   444.50     21.95  49883.10     -0.05     -3.36      4.35 
   444.60     21.94  49883.20     -0.04     -3.04      3.06 
   444.70     21.94  49882.45     -0.04     -2.28      2.94 
   444.80     21.93  49881.90     -0.04     -3.04      3.06 
   444.90     21.93  49880.93     -0.04     -2.71      2.12 
   445.00     21.93  49878.87     -0.04     -5.21      1.71 
   445.10     21.92  49877.35     -0.04     -6.40      2.18 
   445.20     21.91  49874.09     -0.04     -9.65      2.12 
   445.30     21.90  49873.98     -0.05     -9.87      4.06 
   445.40     21.91  49874.20     -0.03     -8.79      2.29 
   445.50     21.88  49876.37     -0.06     -6.18      0.41 
   445.60     21.88  49876.80     -0.06     -5.97      0.88 
   445.70     21.87  49878.32     -0.07     -3.36      0.82 
   445.80     21.86  49877.45     -0.08     -3.15      3.88 
   445.90     21.85  49877.89     -0.08     -2.71      3.59 
   446.00     21.84  49878.32     -0.09     -0.00      0.41 
   446.10     21.84  49876.37     -0.08     -0.22      0.41 
   446.20     21.85  49877.02     -0.06      1.95      2.24 
   446.30     21.81  49877.78     -0.09      3.04      1.76 
   446.40     21.81  49878.11     -0.09      3.69      2.29 
   446.50     21.83  49879.62     -0.06      3.80      3.06 
   446.60     21.82  49879.08     -0.06      3.04      1.71 
   446.70     21.81  49878.76     -0.06      1.41      1.29 
   446.80     21.81  49879.30     -0.04      1.41      1.76 
   446.90     21.80  49877.89     -0.05     -1.19      1.76 
   447.00     21.79  49876.91     -0.05     -1.63      2.18 
   447.10     21.79  49877.13     -0.05      0.54      2.53 
   447.20     21.79  49876.04     -0.05     -0.98      2.59 
   447.30     21.78  49874.63     -0.02     -2.71      3.00 
   447.40     21.78  49875.18     -0.03     -3.47      3.00 
   447.50     21.77  49875.39     -0.06     -3.80      2.12 
   447.60     21.79  49876.37     -0.03     -2.28      1.76 
   447.70     21.79  49878.00     -0.02     -0.76      3.82 
   447.80     21.81  49877.45     -0.00     -1.84      3.41 
   447.90     21.81  49878.87      0.01      1.41      2.18 
   448.00     21.83  49879.84      0.04      2.93      2.88 
   448.10     21.82  49880.60      0.04      4.23      3.53 
   448.20     21.83  49882.34      0.04      6.73      3.24 
   448.30     21.85  49882.88      0.06      8.24      1.82 
   448.40     21.83  49885.16      0.04     10.52      3.06 
   448.50     21.84  49886.13      0.07     11.28      3.00 
   448.60     21.85  49886.24      0.06      9.44      2.24 
   448.70     21.87  49888.30      0.07     10.09      1.76 
   448.80     21.86  49889.71      0.05     12.26      1.71 
   448.90     21.87  49890.15      0.06     11.28      0.88 
   449.00     21.88  49890.26      0.06      9.66      0.41 
   449.10     21.87  49890.36      0.05      8.46      0.41 
   449.20     21.87  49891.77      0.04      7.92      1.65 
   449.30     21.88  49891.88      0.04      8.03      1.35 
   449.40     21.88  49892.97      0.06      8.57      2.71 
   449.50     21.88  49893.29      0.03      7.70      3.00 
   449.60     21.88  49894.70      0.03      7.59      2.12 
   449.70     21.89  49896.11      0.02      7.27      2.12 
   449.80     21.88  49897.74      0.02      7.49      2.24 
   449.90     21.88  49900.13      0.01      9.44      2.24 
   450.00     21.88  49900.56     -0.00     10.52      2.18 
   450.10     21.89  49900.67      0.02      9.55      1.76 
   450.20     21.89  49901.54      0.03      9.76      0.41 
   450.30     21.89  49900.78      0.01      8.90      1.29 
   450.40     21.89  49901.65      0.00      8.03      3.06 
   450.50     21.89  49901.76      0.01      6.94      2.24 
   450.60     21.89  49903.27      0.01      8.35      2.65 
   450.70     21.89  49902.30      0.00      6.18      1.71 
   450.80     21.90  49903.27      0.01      5.53      2.24 
   450.90     21.89  49902.41      0.00      2.28      3.47 
   451.00     21.90  49904.03      0.02      3.36      4.35 
   451.10     21.90  49904.14      0.00      3.36      4.82 
   451.20     21.90  49902.30      0.01      1.63      3.41 
   451.30     21.90  49902.41      0.01      1.63      2.12 
   451.40     21.90  49902.52      0.02      0.76      2.18 
   451.50     21.89  49901.65      0.00     -0.76      2.59 
   451.60     21.90  49901.65      0.00     -0.87      3.41 
   451.70     21.90  49900.78      0.01     -0.87      3.12 
   451.80     21.92  49899.04      0.02     -3.36      2.24 
   451.90     21.90  49897.52      0.02     -4.88      2.24 
   452.00     21.91  49896.01      0.02     -7.92      2.71 
   452.10     21.91  49892.64      0.02    -10.63      3.06 
   452.20     21.90  49890.69     -0.00    -11.72      2.18 
   452.30     21.91  49888.74      0.01    -13.67      2.65 
   452.40     21.92  49887.87      0.02    -14.54      2.24 
   452.50     21.93  49887.98      0.03    -13.67      3.06 
   452.60     21.93  49886.35      0.03    -15.30      1.76 
   452.70     21.94  49886.24      0.04    -13.56      3.94 
   452.80     21.95  49885.81      0.03    -12.26      3.88 
   452.90     21.96  49885.16      0.06    -11.61      1.76 
   453.00     21.97  49886.78      0.06     -8.35      1.35 
