#Written by Robertson Geologging WinLogger V1.0/406
~VERSION INFORMATION
#------------------------------------------------------------------------------
 VERS. 2.0 : CWLS LOG ASCII STANDARD - VERSION 2.0
 WRAP. NO  : ONE LINE PER DEPTH STEP
~WELL INFORMATION
#MNEM.UNIT         DATA                                DESCRIPTION OF MNEMONIC
#------------------------------------------------------------------------------
 STRT.M         40.0600                            :   START DEPTH
 STOP.M        498.0000                            :   STOP DEPTH
 STEP.M          0.0100                            :   STEP VALUE
 NULL.        -999.2500                            :   NULL VALUE
 COMP.    Coal Authority                           :   COMPANY NAME
 WELL.    Dawdon                                   :   WELL NAME
 FLD.     N/A                                      :   FIELD NAME
 LOC.     N/A                                      :   LOCATION
 PROV.    N/A                                      :   PROVINCE
 SRVC.    N/A                                      :   SERVICE COMPANY NAME
 DATE.    30 Sep 08                                :   DATE
 UWI.     N/A                                      :   UNIQUE WELL IDENTIFIER
~PARAMETER INFORMATION
#MNEMO.UNIT         VALUE                 DESCRIPTION OF MNEMONIC
#------------------------------------------------------------------------------
~OTHER INFORMATION SECTION
#------------------------------------------------------------------------------
 TCGS2822
~CURVE INFORMATION
#MNEMO.UNIT         API CODE              CURVE DESCRIPTION
#------------------------------------------------------------------------------
 DEPTH.M                                 :   0     Depth
 TEMP.DegC                               :   1     Temperature
 COND.uS/cm                              :   2     Conductivity
 DELT.DegC                               :   3     Delta T
 DELC.uS/cm                              :   4     Delta C
 NGAM.CPS                                :   5     Natural Gamma
#------------------------------------------------------------------------------
~A  DEPTH     TEMP      COND      DELT      DELC      NGAM      
# ...
   161.50     13.09  26113.84      0.00      8.46      0.00 
   161.51     13.09  26122.30      0.00     19.03      0.00 
   161.52     13.09  26122.30     -0.01     17.97      0.00 
   161.53     13.10  26113.84     -0.01      9.51      0.00 
   161.54     13.10  26113.84     -0.01      0.00      0.00 
   161.55     13.12  26122.30      0.02     17.97      8.00 
   161.56     13.11  26122.30      0.01     17.97      0.00 
   161.57     13.12  26113.84      0.04      8.46      0.00 
   161.58     13.12  26122.30      0.03      8.46      0.00 
   161.59     13.12  26122.30      0.02     17.97      0.00 
   161.60     13.11  26122.30      0.00     17.97      0.00 
   161.61     13.09  26122.30     -0.01      8.46      0.00 
   161.62     13.07  26113.84     -0.03      9.51      0.00 
   161.63     13.06  26122.30     -0.02      8.46      0.00 
   161.64     13.07  26122.30      0.00     17.97      0.00 
   161.65     13.07  26122.30      0.01      8.46      0.00 
   161.66     13.10  26122.30      0.03     17.97      0.00 
   161.67     13.11  26122.30      0.04     17.97      0.00 
   161.68     13.09  26122.30      0.03      8.46      8.00 
   161.69     13.12  26124.41      0.03     10.57      0.00 
   161.70     13.11  26113.84      0.02      9.51      8.00 
   161.71     13.10  26122.30      0.01      8.46      0.00 
   161.72     13.13  26122.30      0.03     26.43      0.00 
   161.73     13.12  26122.30      0.03      8.46      0.00 
   161.74     13.11  26122.30      0.02      8.46      0.00 
   161.75     13.10  26122.30      0.02     17.97      0.00 
   161.76     13.08  26122.30     -0.01      8.46      0.00 
   161.77     13.08  26122.30     -0.00     17.97      0.00 
   161.78     13.08  26122.30     -0.02      8.46      0.00 
   161.79     13.10  26122.30     -0.01      8.46      0.00 
   161.80     13.13  26122.30      0.03     17.97      0.00 
   161.81     13.12  26121.24      0.02      7.40      7.00 
   161.82     13.14  26122.30      0.04      8.46      0.00 
   161.83     13.12  26130.75      0.04     16.91      0.00 
   161.84     13.08  26122.30     -0.03     17.97      0.00 
   161.85     13.07  26122.30     -0.04      8.46      8.00 
   161.86     13.08  26130.75     -0.02     16.91      0.00 
   161.87     13.09  26122.30     -0.03      8.46      0.00 
   161.88     13.10  26122.30      0.00     17.97      8.00 
   161.89     13.10  26122.30      0.01      8.46      0.00 
   161.90     13.10  26130.75      0.01     16.91      0.00 
   161.91     13.11  26122.30      0.00      8.46      0.00 
   161.92     13.11  26122.30     -0.02     19.03      0.00 
   161.93     13.10  26130.75     -0.01     16.91      0.00 
   161.94     13.07  26122.30     -0.03      8.46      0.00 
   161.95     13.06  26122.30     -0.03      8.46      0.00 
   161.96     13.07  26122.30     -0.02     17.97      8.00 
   161.97     13.09  26130.75      0.00     16.91      0.00 
   161.98     13.10  26130.75     -0.01     16.91      0.00 
   161.99     13.09  26122.30      0.00      8.46      0.00 
   162.00     13.08  26130.75      0.01     16.91      0.00 
   162.01     13.08  26130.75      0.00     16.91      0.00 
   162.02     13.10  26130.75      0.04     16.91      0.00 
   162.03     13.11  26130.75      0.03     16.91      0.00 
   162.04     13.11  26130.75      0.04     16.91      0.00 
   162.05     13.12  26130.75      0.05     16.91      0.00 
   162.06     13.09  26122.30      0.02      8.46      0.00 
   162.07     13.10  26140.27      0.02     26.43      0.00 
   162.08     13.10  26128.64      0.00     14.80      7.00 
   162.09     13.09  26130.75     -0.01     16.91      0.00 
   162.10     13.08  26130.75     -0.02     16.91      0.00 
   162.11     13.07  26134.98     -0.02     21.14     10.00 
   162.12     13.07  26136.04     -0.02     22.20      0.00 
   162.13     13.06  26140.27     -0.04     26.43      8.00 
   162.14     13.09  26130.75     -0.03     16.91      0.00 
   162.15     13.08  26130.75     -0.03     16.91      0.00 
   162.16     13.10  26134.98      0.00     21.14      0.00 
   162.17     13.11  26140.27      0.02     17.97      0.00 
   162.18     13.11  26140.27      0.03     26.43      0.00 
   162.19     13.10  26130.75      0.03     16.91      0.00 
   162.20     13.10  26140.27      0.03     26.43      0.00 
   162.21     13.08  26140.27      0.02     17.97      0.00 
   162.22     13.10  26148.73      0.02     34.89      0.00 
   162.23     13.10  26140.27      0.03     26.43      0.00 
   162.24     13.10  26140.27      0.02     17.97      0.00 
   162.25     13.11  26148.73      0.04     34.89      0.00 
   162.26     13.08  26140.27      0.02     26.43      0.00 
   162.27     13.09  26148.73      0.03     34.89      0.00 
   162.28     13.10  26148.73      0.03     26.43      0.00 
   162.29     13.12  26148.73      0.05     34.89      0.00 
   162.30     13.12  26148.73      0.05     24.32      0.00 
   162.31     13.11  26148.73      0.03     34.89      0.00 
   162.32     13.11  26148.73      0.04     34.89      8.00 
   162.33     13.10  26156.13      0.03     42.29      0.00 
   162.34     13.12  26157.18      0.04     43.35      0.00 
   162.35     13.12  26140.27      0.04     17.97      0.00 
   162.36     13.09  26157.18      0.02     43.35      0.00 
   162.37     13.08  26157.18      0.01     34.89      0.00 
   162.38     13.09  26157.18      0.01     43.35      0.00 
   162.39     13.09  26157.18      0.00     34.89      0.00 
   162.40     13.11  26157.18      0.01     43.35      8.00 
   162.41     13.11  26166.70     -0.02     44.40      0.00 
   162.42     13.10  26166.70     -0.02     52.86      8.00 
   162.43     13.09  26157.18     -0.02     34.89      0.00 
   162.44     13.09  26166.70     -0.00     52.86      0.00 
   162.45     13.10  26166.70      0.03     44.40      0.00 
   162.46     13.10  26175.16      0.05     52.86      0.00 
   162.47     13.13  26166.70      0.05     52.86      0.00 
   162.48     13.12  26166.70      0.05     42.29      0.00 
   162.49     13.14  26175.16      0.04     61.32      0.00 
   162.50     13.12  26166.70      0.02     44.40      8.00 
   162.51     13.09  26175.16      0.00     52.86      0.00 
   162.52     13.08  26175.16     -0.01     61.32      0.00 
   162.53     13.08  26175.16     -0.02     61.32      0.00 
   162.54     13.07  26175.16     -0.04     52.86      0.00 
   162.55     13.07  26175.16     -0.04     52.86      0.00 
   162.56     13.08  26166.70     -0.03     52.86      0.00 
   162.57     13.09  26183.62     -0.03     61.32      0.00 
   162.58     13.11  26183.62     -0.01     61.32      8.00 
   162.59     13.11  26175.16     -0.00     52.86      0.00 
   162.60     13.09  26183.62      0.00     61.32      0.00 
   162.61     13.07  26183.62      0.00     69.78      0.00 
   162.62     13.07  26193.14      0.01     70.84      0.00 
   162.63     13.09  26183.62      0.02     61.32      0.00 
   162.64     13.11  26193.14      0.04     70.84      0.00 
   162.65     13.13  26193.14      0.03     70.84      0.00 
   162.66     13.12  26193.14      0.01     70.84      0.00 
   162.67     13.12  26193.14      0.02     70.84      0.00 
   162.68     13.11  26201.60     -0.01     77.19      0.00 
   162.69     13.10  26201.60     -0.01     87.76      0.00 
   162.70     13.12  26201.60      0.02     79.30      0.00 
   162.71     13.14  26210.06      0.01     87.76      0.00 
   162.72     13.14  26201.60      0.01     79.30      0.00 
   162.73     13.14  26210.06      0.03     87.76      0.00 
   162.74     13.12  26219.58      0.01     97.28      0.00 
   162.75     13.11  26210.06      0.03     87.76      0.00 
   162.76     13.13  26210.06      0.04     87.76      0.00 
   162.77     13.12  26219.58      0.04     97.28      0.00 
   162.78     13.12  26219.58      0.01     97.28      0.00 
   162.79     13.11  26228.04     -0.02    105.74      0.00 
   162.80     13.08  26219.58     -0.04     98.34      0.00 
   162.81     13.09  26228.04     -0.04    105.74      0.00 
