#Written by Robertson Geologging WinLogger V1.0/406
~VERSION INFORMATION
#------------------------------------------------------------------------------
 VERS. 2.0 : CWLS LOG ASCII STANDARD - VERSION 2.0
 WRAP. NO  : ONE LINE PER DEPTH STEP
~WELL INFORMATION
#MNEM.UNIT         DATA                                DESCRIPTION OF MNEMONIC
#------------------------------------------------------------------------------
 STRT.M         40.0600                            :   START DEPTH
 STOP.M        498.0000                            :   STOP DEPTH
 STEP.M          0.0100                            :   STEP VALUE
 NULL.        -999.2500                            :   NULL VALUE
 COMP.    Coal Authority                           :   COMPANY NAME
 WELL.    Dawdon                                   :   WELL NAME
 FLD.     N/A                                      :   FIELD NAME
 LOC.     N/A                                      :   LOCATION
 PROV.    N/A                                      :   PROVINCE
 SRVC.    N/A                                      :   SERVICE COMPANY NAME
 DATE.    30 Sep 08                                :   DATE
 UWI.     N/A                                      :   UNIQUE WELL IDENTIFIER
~PARAMETER INFORMATION
#MNEMO.UNIT         VALUE                 DESCRIPTION OF MNEMONIC
#------------------------------------------------------------------------------
~OTHER INFORMATION SECTION
#------------------------------------------------------------------------------
 TCGS2822
~CURVE INFORMATION
#MNEMO.UNIT         API CODE              CURVE DESCRIPTION
#------------------------------------------------------------------------------
 DEPTH.M                                 :   0     Depth
 TEMP.DegC                               :   1     Temperature
 COND.uS/cm                              :   2     Conductivity
 DELT.DegC                               :   3     Delta T
 DELC.uS/cm                              :   4     Delta C
 NGAM.CPS                                :   5     Natural Gamma
#------------------------------------------------------------------------------
~A  DEPTH     TEMP      COND      DELT      DELC      NGAM      
# ...
   405.70     21.23  46459.34      0.41    -58.74      0.00 
   405.71     21.23  46459.34      0.40    -58.74      8.00 
   405.72     21.23  46449.95      0.36    -58.74      0.00 
   405.73     21.21  46459.34      0.34    -58.74      0.00 
   405.74     21.19  46459.34      0.31    -49.34      8.00 
   405.75     21.18  46449.95      0.32    -68.14      8.00 
   405.76     21.21  46459.34      0.35    -58.74      0.00 
   405.77     21.22  46459.34      0.37    -58.74      8.00 
   405.78     21.23  46459.34      0.39    -49.34      0.00 
   405.79     21.23  46459.34      0.38    -58.74      0.00 
   405.80     21.23  46449.95      0.38    -58.74      0.00 
   405.81     21.23  46459.34      0.37    -49.34      0.00 
   405.82     21.24  46459.34      0.37    -49.34      0.00 
   405.83     21.24  46449.95      0.37    -58.74      8.00 
   405.84     21.24  46455.82      0.36    -46.99     10.00 
   405.85     21.26  46459.34      0.34    -49.34      0.00 
   405.86     21.27  46449.95      0.34    -48.16      8.00 
   405.87     21.27  46459.34      0.35    -49.34      0.00 
   405.88     21.26  46449.95      0.33    -58.74      0.00 
   405.89     21.25  46459.34      0.34    -49.34      8.00 
   405.90     21.23  46459.34      0.30    -49.34      0.00 
   405.91     21.22  46459.34      0.29    -38.77      0.00 
   405.92     21.24  46449.95      0.31    -58.74      0.00 
   405.93     21.24  46459.34      0.30    -38.77      0.00 
   405.94     21.26  46455.82      0.33    -42.29      0.00 
   405.95     21.27  46459.34      0.34    -38.77      8.00 
   405.96     21.27  46439.38      0.35    -69.31      0.00 
   405.97     21.27  46459.34      0.35    -38.77      0.00 
   405.98     21.27  46459.34      0.32    -29.37      8.00 
   405.99     21.27  46449.95      0.31    -38.77      0.00 
   406.00     21.27  46453.47      0.28    -44.64      0.00 
   406.01     21.27  46459.34      0.28    -38.77      0.00 
   406.02     21.28  46459.34      0.28    -38.77      0.00 
   406.03     21.27  46449.95      0.25    -38.77      0.00 
   406.04     21.26  46459.34      0.25    -38.77      8.00 
   406.05     21.26  46449.95      0.26    -48.16      0.00 
   406.06     21.26  46459.34      0.26    -29.37      8.00 
   406.07     21.26  46449.95      0.24    -38.77      0.00 
   406.08     21.27  46449.95      0.24    -48.16      0.00 
   406.09     21.26  46449.95      0.23    -38.77      8.00 
   406.10     21.24  46459.34      0.21    -19.97      0.00 
   406.11     21.26  46449.95      0.23    -48.16     25.00 
   406.12     21.26  46459.34      0.22    -29.37      0.00 
   406.13     21.26  46449.95      0.20    -38.77      8.00 
   406.14     21.27  46449.95      0.21    -38.77     16.00 
   406.15     21.27  46459.34      0.20    -19.97      0.00 
   406.16     21.27  46449.95      0.19    -48.16      0.00 
   406.17     21.26  46449.95      0.19    -29.37      0.00 
   406.18     21.26  46459.34      0.17    -29.37      0.00 
   406.19     21.26  46449.95      0.18    -38.77      0.00 
   406.20     21.27  46439.38      0.18    -49.34      0.00 
   406.21     21.27  46449.95      0.18    -29.37      8.00 
   406.22     21.28  46449.95      0.21    -18.79      0.00 
   406.23     21.28  46459.34      0.20    -29.37      0.00 
   406.24     21.28  46449.95      0.18    -29.37      0.00 
   406.25     21.28  46449.95      0.17    -29.37      8.00 
   406.26     21.28  46455.82      0.15    -23.49      0.00 
   406.27     21.29  46449.95      0.17    -38.77      0.00 
   406.28     21.30  46449.95      0.18    -29.37      8.00 
   406.29     21.30  46449.95      0.19    -29.37      0.00 
   406.30     21.30  46449.95      0.20    -18.79      8.00 
   406.31     21.30  46449.95      0.19    -41.12      8.00 
   406.32     21.31  46449.95      0.19    -18.79      0.00 
   406.33     21.31  46444.07      0.17    -35.24      0.00 
   406.34     21.31  46449.95      0.17    -18.79      0.00 
   406.35     21.31  46459.34      0.17     -9.40      8.00 
   406.36     21.29  46449.95      0.17    -18.79      0.00 
   406.37     21.28  46449.95      0.17    -29.37      8.00 
   406.38     21.28  46449.95      0.17    -18.79      8.00 
   406.39     21.28  46459.34      0.14     -9.40      0.00 
   406.40     21.28  46449.95      0.15    -18.79      0.00 
   406.41     21.28  46449.95      0.14    -29.37      8.00 
   406.42     21.28  46449.95      0.13    -18.79      8.00 
   406.43     21.28  46449.95      0.16    -18.79      0.00 
   406.44     21.28  46449.95      0.13    -18.79      0.00 
   406.45     21.28  46449.95      0.14    -18.79      8.00 
   406.46     21.29  46449.95      0.15    -18.79      8.00 
   406.47     21.30  46449.95      0.13     -9.40      0.00 
   406.48     21.32  46449.95      0.15    -18.79      0.00 
   406.49     21.33  46449.95      0.15     -9.40     16.00 
   406.50     21.33  46449.95      0.15    -19.97      8.00 
   406.51     21.32  46449.95      0.14    -18.79      0.00 
   406.52     21.32  46459.34      0.13      0.00      0.00 
   406.53     21.32  46449.95      0.15    -18.79      0.00 
   406.54     21.33  46449.95      0.16    -18.79      8.00 
   406.55     21.35  46449.95      0.19    -18.79      0.00 
   406.56     21.35  46453.47      0.18     -5.87      0.00 
   406.57     21.33  46439.38      0.14    -29.37      0.00 
   406.58     21.30  46449.95      0.11     -9.40      0.00 
   406.59     21.29  46449.95      0.07      0.00      8.00 
   406.60     21.29  46449.95      0.07    -18.79      8.00 
   406.61     21.29  46449.95      0.08     -9.40      0.00 
   406.62     21.30  46459.34      0.09     -9.40      0.00 
   406.63     21.30  46449.95      0.09     -9.40      0.00 
   406.64     21.30  46449.95      0.09    -18.79      8.00 
   406.65     21.32  46449.95      0.10     -9.40      0.00 
   406.66     21.32  46449.95      0.10     -9.40      0.00 
   406.67     21.33  46449.95      0.11    -18.79      0.00 
   406.68     21.35  46449.95      0.12    -11.75      0.00 
   406.69     21.36  46439.38      0.13    -19.97      8.00 
   406.70     21.36  46449.95      0.13     -9.40      0.00 
   406.71     21.36  46449.95      0.13      0.00      8.00 
   406.72     21.35  46449.95      0.14     -9.40      0.00 
   406.73     21.35  46449.95      0.16     -9.40      0.00 
   406.74     21.34  46449.95      0.16      0.00     16.00 
   406.75     21.34  46459.34      0.13      0.00      0.00 
   406.76     21.33  46449.95      0.11     -9.40      0.00 
   406.77     21.33  46449.95      0.11     -9.40      0.00 
   406.78     21.35  46449.95      0.11     -9.40      0.00 
   406.79     21.34  46449.95      0.11      0.00      0.00 
   406.80     21.36  46449.95      0.13     -9.40      0.00 
   406.81     21.36  46449.95      0.12     -9.40      0.00 
   406.82     21.36  46449.95      0.12      0.00      8.00 
   406.83     21.37  46449.95      0.12     -5.87      0.00 
   406.84     21.37  46449.95      0.11     -9.40     16.00 
   406.85     21.36  46449.95      0.09      0.00      0.00 
   406.86     21.34  46459.34      0.07      0.00      0.00 
   406.87     21.33  46449.95      0.08      0.00      0.00 
   406.88     21.33  46449.95      0.08     -9.40      0.00 
   406.89     21.35  46455.82      0.12     -3.52      0.00 
   406.90     21.36  46449.95      0.13     -9.40      0.00 
   406.91     21.35  46449.95      0.11      0.00      8.00 
   406.92     21.36  46449.95      0.11     -9.40      8.00 
   406.93     21.34  46449.95      0.08     -5.87      0.00 
   406.94     21.33  46449.95      0.06     -9.40      0.00 
   406.95     21.34  46449.95      0.06     10.57      0.00 
   406.96     21.32  46449.95      0.05     -9.40      8.00 
   406.97     21.32  46449.95      0.05     -9.40      0.00 
   406.98     21.33  46459.34      0.06      9.40      8.00 
   406.99     21.33  46449.95      0.06     -3.52      0.00 
   407.00     21.34  46449.95      0.06     -9.40      0.00 
   407.01     21.34  46449.95      0.06     -9.40      0.00 
