#Written by Robertson Geologging WinLogger V1.0/312
~VERSION INFORMATION
#------------------------------------------------------------------------------
 VERS. 2.0 : CWLS LOG ASCII STANDARD - VERSION 2.0
 WRAP. NO  : ONE LINE PER DEPTH STEP
~WELL INFORMATION
#MNEM.UNIT         DATA                                DESCRIPTION OF MNEMONIC
#------------------------------------------------------------------------------
 STRT.M         56.2000                            :   START DEPTH
 STOP.M        520.0000                            :   STOP DEPTH
 STEP.M          0.1000                            :   STEP VALUE
 NULL.        -999.2500                            :   NULL VALUE
 COMP.    I.M..C.                                  :   COMPANY NAME
 WELL.    Dawdon Shaft                             :   WELL NAME
 FLD.     Dawdon                                   :   FIELD NAME
 LOC.     N/A                                      :   LOCATION
 PROV.    N/A                                      :   PROVINCE
 SRVC.    N/A                                      :   SERVICE COMPANY NAME
 DATE.    30 Jan 04                                :   DATE
 UWI.     N/A                                      :   UNIQUE WELL IDENTIFIER
~PARAMETER INFORMATION
#MNEMO.UNIT         VALUE                 DESCRIPTION OF MNEMONIC
#------------------------------------------------------------------------------
~OTHER INFORMATION SECTION
#------------------------------------------------------------------------------
 TCGX extended range 1365
~CURVE INFORMATION
#MNEMO.UNIT         API CODE              CURVE DESCRIPTION
#------------------------------------------------------------------------------
 DEPTH.M                                 :   0     Depth
 COND.mS/cm                              :   1     Conductivity
 TEMP.DegC                               :   2     Temperature
 C@25.mS/cm                              :   3     Conductivity @25Deg
 DELT.DegC                               :   4     Delta T
 DC@25.mS/cm                             :   5     Delta C @25Deg
 OUT4.CPS                                :   6     Natural Gamma
#------------------------------------------------------------------------------
~A  DEPTH     COND      TEMP      C@25      DELT      DC@25     OUT4      
# ...
   383.90     72.58     19.17     80.69      0.01     -0.04      0.76 
   384.00     72.57     19.17     80.69     -0.01      0.02      1.18 
   384.10     72.57     19.18     80.66      0.01     -0.05      1.47 
   384.20     72.57     19.17     80.69      0.01     -0.04      1.94 
   384.30     72.57     19.18     80.64      0.01     -0.05      1.47 
   384.40     72.57     19.16     80.70     -0.00     -0.01      1.12 
   384.50     72.57     19.17     80.69     -0.00     -0.02      1.94 
   384.60     72.56     19.16     80.70     -0.01      0.02      1.59 
   384.70     72.57     19.16     80.70     -0.01      0.03      3.06 
   384.80     72.57     19.16     80.71     -0.02      0.04      2.76 
   384.90     72.56     19.17     80.68      0.00     -0.03      2.00 
   385.00     72.56     19.16     80.69     -0.00      0.00      1.18 
   385.10     72.56     19.17     80.68     -0.01      0.02      0.82 
   385.20     72.56     19.16     80.71     -0.01      0.02      2.06 
   385.30     72.56     19.17     80.69     -0.01      0.04      2.76 
   385.40     72.56     19.16     80.70     -0.00     -0.00      2.71 
   385.50     72.55     19.17     80.66      0.00     -0.03      1.18 
   385.60     72.56     19.16     80.68      0.00     -0.02      0.41 
   385.70     72.55     19.17     80.68      0.00     -0.02      1.53 
   385.80     72.55     19.17     80.65      0.01     -0.05      3.53 
   385.90     72.55     19.16     80.68     -0.01      0.02      3.47 
   386.00     72.55     19.16     80.68     -0.00     -0.01      2.24 
   386.10     72.55     19.16     80.67     -0.00     -0.01      2.29 
   386.20     72.55     19.16     80.70     -0.00     -0.01      1.24 
   386.30     72.55     19.18     80.64      0.01     -0.05      2.71 
   386.40     72.54     19.18     80.61      0.03     -0.10      2.88 
   386.50     72.55     19.16     80.68     -0.01      0.04      1.47 
   386.60     72.54     19.16     80.70     -0.01      0.01      1.47 
   386.70     72.54     19.17     80.65      0.01     -0.04      2.18 
   386.80     72.54     19.17     80.63      0.00     -0.01      1.94 
   386.90     72.55     19.18     80.64      0.02     -0.05      1.18 
   387.00     72.55     19.17     80.64      0.01     -0.05      2.65 
   387.10     72.55     19.17     80.65      0.01     -0.03      1.88 
   387.20     72.55     19.18     80.64      0.02     -0.05      1.41 
   387.30     72.55     19.18     80.64     -0.00      0.01      1.53 
   387.40     72.55     19.18     80.62     -0.00      0.02      1.18 
   387.50     72.56     19.17     80.67      0.01     -0.03      1.24 
   387.60     72.55     19.19     80.60      0.03     -0.10      0.82 
   387.70     72.55     19.16     80.67     -0.01      0.05      1.82 
   387.80     72.55     19.17     80.65      0.00     -0.01      2.65 
   387.90     72.55     19.17     80.64     -0.00      0.01      2.29 
   388.00     72.55     19.17     80.67     -0.01      0.02      1.94 
   388.10     72.55     19.18     80.61      0.01     -0.03      3.59 
   388.20     72.54     19.16     80.68     -0.01      0.02      1.59 
   388.30     72.55     19.16     80.68     -0.02      0.06      0.35 
   388.40     72.54     19.17     80.67     -0.01      0.02      0.41 
   388.50     72.53     19.18     80.63      0.01     -0.05      2.00 
   388.60     72.53     19.18     80.61     -0.01      0.02      2.00 
   388.70     72.53     19.17     80.65      0.00     -0.03      1.24 
   388.80     72.53     19.16     80.66     -0.01      0.02      2.24 
   388.90     72.53     19.17     80.65     -0.00     -0.00      1.47 
   389.00     72.53     19.17     80.63     -0.00     -0.01      2.18 
   389.10     72.53     19.17     80.63     -0.01      0.02      2.65 
   389.20     72.53     19.16     80.66     -0.00     -0.01      3.18 
   389.30     72.53     19.18     80.61      0.02     -0.09      3.88 
   389.40     72.53     19.17     80.64     -0.00     -0.01      3.47 
   389.50     72.53     19.16     80.67     -0.02      0.05      3.41 
   389.60     72.53     19.17     80.63     -0.01      0.01      3.12 
   389.70     72.53     19.16     80.64     -0.00     -0.00      4.06 
   389.80     72.53     19.17     80.63      0.01     -0.03      2.35 
   389.90     72.53     19.17     80.64     -0.00     -0.00      1.12 
   390.00     72.52     19.17     80.63     -0.00     -0.00      1.53 
   390.10     72.52     19.17     80.62      0.00     -0.01      1.94 
   390.20     72.52     19.17     80.62      0.01     -0.03      2.35 
   390.30     72.52     19.17     80.61     -0.01      0.01      3.12 
   390.40     72.52     19.18     80.60      0.01     -0.04      1.82 
   390.50     72.52     19.17     80.61      0.01     -0.05      3.06 
   390.60     72.52     19.17     80.62     -0.00     -0.01      4.24 
   390.70     72.52     19.17     80.63      0.00     -0.02      3.35 
   390.80     72.52     19.17     80.63     -0.00     -0.00      3.82 
   390.90     72.51     19.17     80.62      0.01     -0.03      3.12 
   391.00     72.52     19.16     80.65     -0.00      0.01      1.24 
   391.10     72.52     19.18     80.60      0.01     -0.02      1.59 
   391.20     72.52     19.17     80.61      0.00     -0.01      1.18 
   391.30     72.52     19.17     80.63     -0.00      0.02      0.76 
   391.40     72.52     19.17     80.63     -0.01      0.03      1.65 
   391.50     72.51     19.16     80.63     -0.01      0.01      0.82 
   391.60     72.51     19.18     80.60      0.01     -0.03      1.18 
   391.70     72.51     19.17     80.62      0.00     -0.02      1.06 
   391.80     72.51     19.17     80.60      0.00     -0.02      1.88 
   391.90     72.52     19.18     80.60      0.01     -0.03      2.41 
   392.00     72.51     19.18     80.57      0.02     -0.07      2.41 
   392.10     72.51     19.18     80.57      0.00     -0.02      1.94 
   392.20     72.51     19.17     80.63     -0.01      0.01      2.29 
   392.30     72.51     19.17     80.61      0.00     -0.02      1.94 
   392.40     72.50     19.17     80.60      0.00     -0.03      2.53 
   392.50     72.51     19.18     80.57      0.02     -0.07      2.53 
   392.60     72.51     19.16     80.63     -0.01      0.03      1.24 
   392.70     72.51     19.16     80.65     -0.02      0.04      1.94 
   392.80     72.51     19.18     80.58      0.02     -0.05      1.41 
   392.90     72.51     19.17     80.58     -0.01      0.02      1.88 
   393.00     72.50     19.18     80.58     -0.00      0.00      1.65 
   393.10     72.50     19.17     80.60     -0.01      0.02      1.24 
   393.20     72.50     19.16     80.63     -0.00     -0.00      2.76 
   393.30     72.50     19.18     80.58      0.01     -0.02      3.12 
   393.40     72.50     19.18     80.59      0.01     -0.02      1.18 
   393.50     72.50     19.17     80.59     -0.01      0.03      0.71 
   393.60     72.50     19.18     80.58      0.02     -0.06      1.12 
   393.70     72.51     19.17     80.61      0.01     -0.04      0.76 
   393.80     72.51     19.17     80.60     -0.01      0.04      2.29 
   393.90     72.50     19.18     80.58      0.00     -0.02      1.53 
   394.00     72.51     19.18     80.57     -0.00      0.01      1.53 
   394.10     72.50     19.17     80.62     -0.00      0.01      1.88 
   394.20     72.51     19.17     80.62      0.00     -0.00      2.35 
   394.30     72.51     19.17     80.60     -0.01      0.03      2.41 
   394.40     72.51     19.17     80.60     -0.00      0.02      1.53 
   394.50     72.51     19.18     80.58      0.01     -0.02      1.12 
   394.60     72.51     19.18     80.58      0.01     -0.01      1.59 
   394.70     72.51     19.17     80.61      0.00     -0.00      2.00 
   394.80     72.50     19.17     80.59      0.00     -0.01      3.24 
   394.90     72.51     19.17     80.60     -0.00      0.01      3.47 
   395.00     72.51     19.17     80.60     -0.01      0.03      1.88 
   395.10     72.50     19.18     80.58      0.01     -0.04      1.94 
