#Written by Robertson Geologging WinLogger V1.0/311
~VERSION INFORMATION
#------------------------------------------------------------------------------
 VERS. 2.0 : CWLS LOG ASCII STANDARD - VERSION 2.0
 WRAP. NO  : ONE LINE PER DEPTH STEP
~WELL INFORMATION
#MNEM.UNIT         DATA                                DESCRIPTION OF MNEMONIC
#------------------------------------------------------------------------------
 STRT.M         57.1000                            :   START DEPTH
 STOP.M        520.1000                            :   STOP DEPTH
 STEP.M          0.1000                            :   STEP VALUE
 NULL.        -999.2500                            :   NULL VALUE
 COMP.    IMC                                      :   COMPANY NAME
 WELL.    THERESA SHAFT                            :   WELL NAME
 FLD.     DAWDON                                   :   FIELD NAME
 LOC.     N/A                                      :   LOCATION
 PROV.    N/A                                      :   PROVINCE
 SRVC.    N/A                                      :   SERVICE COMPANY NAME
 DATE.    03 Oct 03                                :   DATE
 UWI.     N/A                                      :   UNIQUE WELL IDENTIFIER
~PARAMETER INFORMATION
#MNEMO.UNIT         VALUE                 DESCRIPTION OF MNEMONIC
#------------------------------------------------------------------------------
~OTHER INFORMATION SECTION
#------------------------------------------------------------------------------
 TCDS 2822
~CURVE INFORMATION
#MNEMO.UNIT         API CODE              CURVE DESCRIPTION
#------------------------------------------------------------------------------
 DEPTH.M                                 :   0     Depth
 TEMP.DegC                               :   1     Temperature
 COND.uS/cm                              :   2     Conductivity
 DELT.DegC                               :   3     Delta T
 DELC.uS/cm                              :   4     Delta C
 NGAM.API                                :   5     Natural Gamma
#------------------------------------------------------------------------------
~A  DEPTH     TEMP      COND      DELT      DELC      NGAM      
# ...
   479.50     22.55  49703.96     -0.00    -18.43      0.47 
   479.60     22.55  49700.70      0.00    -21.57      1.71 
   479.70     22.56  49697.67      0.01    -22.76      3.29 
   479.80     22.55  49695.28     -0.01    -24.39      2.12 
   479.90     22.55  49693.01     -0.01    -23.63      2.24 
   480.00     22.55  49692.03      0.00    -22.33      2.65 
   480.10     22.55  49692.57     -0.01    -20.70      1.65 
   480.20     22.55  49691.82     -0.01    -19.19      1.65 
   480.30     22.55  49691.92     -0.00    -16.04      1.29 
   480.40     22.56  49691.71     -0.00    -14.31      0.47 
   480.50     22.57  49693.33      0.02     -9.32      0.00 
   480.60     22.57  49694.09      0.01     -6.18      0.82 
   480.70     22.57  49694.09      0.01     -3.14      1.65 
   480.80     22.57  49694.31      0.02     -0.98      1.65 
   480.90     22.57  49694.20      0.02      1.19      2.53 
   481.00     22.57  49693.44      0.01      1.41      1.29 
   481.10     22.56  49691.71      0.02     -0.87      0.82 
   481.20     22.57  49690.41      0.02     -1.63      2.47 
   481.30     22.58  49689.11      0.02     -2.82      2.88 
   481.40     22.58  49685.64      0.02     -6.83      2.94 
   481.50     22.57  49684.77      0.00     -8.56      1.76 
   481.60     22.59  49680.87      0.02    -13.22      0.88 
   481.70     22.58  49677.73      0.02    -16.37      0.00 
   481.80     22.59  49675.23      0.02    -19.08      0.88 
   481.90     22.60  49672.96      0.03    -20.38      0.88 
   482.00     22.60  49671.11      0.04    -21.57      0.82 
   482.10     22.61  49670.14      0.04    -21.03      1.35 
   482.20     22.62  49669.49      0.05    -20.92      2.18 
   482.30     22.62  49670.25      0.05    -18.64      2.12 
   482.40     22.62  49669.38      0.04    -16.15      0.82 
   482.50     22.62  49668.73      0.05    -16.04      1.65 
   482.60     22.63  49669.49      0.05    -11.38      3.29 
   482.70     22.64  49670.25      0.05     -8.24      3.35 
   482.80     22.63  49670.25      0.04     -4.99      3.41 
   482.90     22.64  49671.33      0.04     -1.63      1.65 
   483.00     22.64  49669.71      0.03     -1.41      0.82 
   483.10     22.64  49669.49      0.03     -0.65      1.71 
   483.20     22.63  49668.51      0.01     -1.84      3.76 
   483.30     22.63  49668.41      0.01     -1.84      3.00 
   483.40     22.64  49667.76      0.02     -1.63      0.41 
   483.50     22.65  49668.51      0.02     -0.11      1.71 
   483.60     22.64  49667.76      0.01     -0.87      2.53 
   483.70     22.64  49665.91      0.01     -4.34      2.12 
   483.80     22.63  49665.80     -0.00     -5.31      3.41 
   483.90     22.64  49665.15      0.00     -6.18      4.24 
   484.00     22.64  49663.09      0.00     -8.24      3.35 
   484.10     22.64  49661.47      0.01     -8.78      3.76 
   484.20     22.65  49659.30      0.01    -10.08      3.76 
   484.30     22.64  49659.41      0.01     -9.97      1.71 
   484.40     22.65  49658.76      0.01     -9.75      1.29 
   484.50     22.64  49658.65     -0.00     -9.21      2.53 
   484.60     22.64  49657.13     -0.01     -9.00      2.06 
   484.70     22.64  49656.48     -0.01     -9.43      1.24 
   484.80     22.64  49655.73      0.00     -9.32      1.24 
   484.90     22.63  49654.75     -0.01     -9.75      2.12 
   485.00     22.65  49652.26      0.01    -10.19      2.06 
   485.10     22.63  49649.12     -0.01    -12.57      2.59 
   485.20     22.65  49647.27     -0.00    -12.90      3.53 
   485.30     22.65  49645.00      0.00    -14.41      3.53 
   485.40     22.65  49642.50      0.01    -16.26      3.00 
   485.50     22.64  49641.42      0.00    -16.58      2.53 
   485.60     22.65  49641.20      0.01    -16.69      1.29 
   485.70     22.65  49638.82      0.02    -17.01      1.29 
   485.80     22.65  49637.52      0.01    -18.21      3.00 
   485.90     22.65  49635.24      0.02    -18.86      3.12 
   486.00     22.65  49634.05     -0.00    -18.21      3.59 
   486.10     22.63  49632.21      0.00    -17.45      2.59 
   486.20     22.64  49630.91     -0.01    -16.36      1.82 
   486.30     22.65  49629.50     -0.00    -15.06      3.00 
   486.40     22.64  49626.90     -0.01    -15.60      2.59 
   486.50     22.64  49624.41      0.00    -17.01      1.71 
   486.60     22.66  49622.24      0.01    -18.96      2.47 
   486.70     22.65  49620.07      0.00    -17.45      4.71 
   486.80     22.64  49618.02     -0.01    -18.75      3.41 
   486.90     22.65  49617.37      0.00    -17.88      2.53 
   487.00     22.64  49614.98     -0.01    -19.83      2.12 
   487.10     22.65  49614.98      0.01    -18.10      1.76 
   487.20     22.65  49614.12      0.01    -16.04      1.71 
   487.30     22.66  49613.25      0.01    -15.28      2.12 
   487.40     22.65  49610.65      0.01    -15.28      2.53 
   487.50     22.65  49609.67      0.01    -13.98      1.29 
   487.60     22.64  49609.78     -0.02    -11.59      0.47 
   487.70     22.65  49608.59     -0.00    -10.62      1.71 
   487.80     22.64  49606.31      0.00    -11.70      1.71 
   487.90     22.65  49605.45     -0.00    -11.92      1.24 
   488.00     22.65  49604.58      0.01    -11.16      2.59 
   488.10     22.64  49602.96     -0.01    -12.03      2.71 
   488.20     22.65  49600.46      0.00    -13.65      2.18 
   488.30     22.65  49598.84     -0.00    -13.43      2.88 
   488.40     22.64  49598.19     -0.01    -12.46      3.82 
   488.50     22.65  49598.30     -0.00    -12.24      3.47 
   488.60     22.64  49598.40      0.00    -10.40      2.53 
   488.70     22.66  49597.54      0.01    -10.18      2.47 
   488.80     22.66  49598.30      0.01     -8.99      2.94 
   488.90     22.66  49595.91      0.01     -9.53      2.53 
   489.00     22.65  49594.50      0.00     -9.97      2.94 
   489.10     22.66  49592.23      0.01     -9.97      2.53 
   489.20     22.66  49591.15      0.01     -9.32      2.53 
   489.30     22.65  49589.20      0.00    -10.40      1.65 
   489.40     22.66  49586.92      0.02    -12.13      1.65 
   489.50     22.65  49583.45      0.00    -14.84      2.12 
   489.60     22.64  49580.31     -0.00    -18.09      4.29 
   489.70     22.65  49579.45     -0.00    -17.33      2.59 
   489.80     22.65  49578.15     -0.01    -20.15      2.12 
   489.90     22.65  49574.25     -0.01    -21.02      3.00 
   490.00     22.65  49572.84     -0.00    -20.91      3.53 
   490.10     22.64  49571.00     -0.02    -20.48      1.35 
   490.20     22.64  49567.96     -0.02    -22.42      2.06 
   490.30     22.65  49563.20      0.00    -26.32      2.53 
   490.40     22.67  49557.78      0.01    -28.60      2.06 
   490.50     22.67  49547.27      0.02    -36.51      2.47 
   490.60     22.68  49541.86      0.04    -39.86      3.88 
   490.70     22.72  49538.17      0.07    -41.70      4.00 
   490.80     22.75  49535.68      0.10    -43.22      2.12 
   490.90     22.76  49533.95      0.11    -41.16      2.88 
   491.00     22.77  49526.91      0.12    -46.69      2.94 
   491.10     22.79  49521.28      0.15    -49.72      0.88 
   491.20     22.79  49516.73      0.15    -49.72      1.29 
   491.30     22.80  49510.77      0.14    -50.91      0.41 
   491.40     22.81  49506.01      0.14    -50.04      0.82 
   491.50     22.82  49500.59      0.15    -45.92      1.65 
   491.60     22.82  49496.69      0.13    -43.75      2.12 
   491.70     22.81  49491.61      0.09    -46.57      3.35 
   491.80     22.82  49485.65      0.07    -50.03      2.47 
   491.90     22.83  49481.64      0.07    -52.09      1.65 
   492.00     22.83  49474.93      0.05    -51.66      1.71 
   492.10     22.84  49468.11      0.05    -52.41      1.65 
   492.20     22.85  49461.29      0.06    -54.25      3.76 
   492.30     22.86  49455.22      0.06    -54.90      3.82 
   492.40     22.86  49451.43      0.06    -53.93      3.76 
   492.50     22.86  49448.29      0.04    -52.30      2.06 
   492.60     22.86  49444.18      0.05    -51.65      0.00 
