#Written by Robertson Geologging WinLogger V1.0/312
~VERSION INFORMATION
#------------------------------------------------------------------------------
 VERS. 2.0 : CWLS LOG ASCII STANDARD - VERSION 2.0
 WRAP. NO  : ONE LINE PER DEPTH STEP
~WELL INFORMATION
#MNEM.UNIT         DATA                                DESCRIPTION OF MNEMONIC
#------------------------------------------------------------------------------
 STRT.M         72.1000                            :   START DEPTH
 STOP.M        377.0000                            :   STOP DEPTH
 STEP.M          0.1000                            :   STEP VALUE
 NULL.        -999.2500                            :   NULL VALUE
 COMP.    I.M..C.                                  :   COMPANY NAME
 WELL.    Horden Shaft                             :   WELL NAME
 FLD.     Horden                                   :   FIELD NAME
 LOC.     N/A                                      :   LOCATION
 PROV.    N/A                                      :   PROVINCE
 SRVC.    N/A                                      :   SERVICE COMPANY NAME
 DATE.    30 Jan 04                                :   DATE
 UWI.     N/A                                      :   UNIQUE WELL IDENTIFIER
~PARAMETER INFORMATION
#MNEMO.UNIT         VALUE                 DESCRIPTION OF MNEMONIC
#------------------------------------------------------------------------------
~OTHER INFORMATION SECTION
#------------------------------------------------------------------------------
 TCGX extended range 1365
~CURVE INFORMATION
#MNEMO.UNIT         API CODE              CURVE DESCRIPTION
#------------------------------------------------------------------------------
 DEPTH.M                                 :   0     Depth
 COND.mS/cm                              :   1     Conductivity
 TEMP.DegC                               :   2     Temperature
 C@25.mS/cm                              :   3     Conductivity @25Deg
 DELT.DegC                               :   4     Delta T
 DC@25.mS/cm                             :   5     Delta C @25Deg
 OUT4.CPS                                :   6     Natural Gamma
#------------------------------------------------------------------------------
~A  DEPTH     COND      TEMP      C@25      DELT      DC@25     OUT4      
# ...
   230.30     11.12     15.83     15.98     -0.00      0.02      7.29 
   230.40     11.12     15.83     15.97     -0.00      0.02      8.88 
   230.50     11.12     15.84     15.96      0.00      0.01     10.65 
   230.60     11.12     15.84     15.97     -0.00      0.02     13.00 
   230.70     11.12     15.84     15.97     -0.00      0.02      9.94 
   230.80     11.12     15.84     15.97      0.00      0.01      7.12 
   230.90     11.12     15.84     15.97     -0.00      0.02      9.24 
   231.00     11.12     15.85     15.95      0.01      0.00     10.53 
   231.10     11.12     15.83     15.98     -0.01      0.03      7.35 
   231.20     11.12     15.85     15.96      0.00      0.00      8.94 
   231.30     11.13     15.84     15.98      0.01      0.00      9.76 
   231.40     11.13     15.85     15.96      0.02     -0.01      9.24 
   231.50     11.13     15.84     15.97     -0.00      0.01      8.18 
   231.60     11.13     15.85     15.95      0.02     -0.01      9.76 
   231.70     11.14     15.85     15.97      0.01      0.00     11.88 
   231.80     11.14     15.85     15.98      0.00      0.01     10.41 
   231.90     11.14     15.85     15.97      0.01     -0.00      8.06 
   232.00     11.14     15.86     15.95      0.02     -0.00      7.82 
   232.10     11.14     15.86     15.96      0.02     -0.01      8.65 
   232.20     11.14     15.85     15.97      0.01      0.01      6.47 
   232.30     11.15     15.86     15.97      0.02     -0.01      7.06 
   232.40     11.15     15.88     15.95      0.03     -0.02      9.65 
   232.50     11.15     15.87     15.96      0.03     -0.02      6.06 
   232.60     11.14     15.87     15.95      0.01     -0.00      5.65 
   232.70     11.15     15.87     15.96      0.02     -0.01      8.18 
   232.80     11.15     15.86     15.96      0.02     -0.01      6.76 
   232.90     11.15     15.88     15.95      0.02     -0.01      9.35 
   233.00     11.15     15.87     15.95      0.01      0.01      9.29 
   233.10     11.15     15.87     15.96      0.01     -0.00      6.59 
   233.20     11.15     15.87     15.96      0.01     -0.01      7.18 
   233.30     11.15     15.87     15.96      0.01     -0.00      6.47 
   233.40     11.16     15.87     15.96     -0.00      0.01      4.76 
   233.50     11.16     15.88     15.95      0.01      0.00      4.24 
   233.60     11.16     15.88     15.94      0.01     -0.01      8.00 
   233.70     11.15     15.88     15.95      0.01     -0.01      9.00 
   233.80     11.16     15.89     15.94      0.02     -0.02      9.06 
   233.90     11.15     15.88     15.95     -0.00      0.01      8.24 
   234.00     11.15     15.88     15.95      0.01     -0.01      8.06 
   234.10     11.15     15.87     15.95      0.01     -0.01      6.65 
   234.20     11.16     15.87     15.96      0.00      0.00      5.18 
   234.30     11.16     15.88     15.95      0.01     -0.01      2.65 
   234.40     11.16     15.87     15.97     -0.01      0.02      1.53 
   234.50     11.16     15.88     15.94      0.00     -0.00      0.71 
   234.60     11.17     15.88     15.96     -0.00      0.02      1.06 
   234.70     11.17     15.88     15.96      0.00      0.01      3.00 
   234.80     11.16     15.87     15.96     -0.01      0.02      3.00 
   234.90     11.16     15.88     15.97      0.00      0.01      3.06 
   235.00     11.16     15.87     15.96     -0.00      0.01      3.41 
   235.10     11.16     15.88     15.95      0.01     -0.01      3.29 
   235.20     11.16     15.88     15.96      0.01     -0.01      3.47 
   235.30     11.16     15.88     15.95      0.00      0.00      4.24 
   235.40     11.17     15.89     15.94      0.03     -0.03      3.41 
   235.50     11.17     15.88     15.96     -0.00      0.01      2.59 
   235.60     11.17     15.89     15.95      0.01     -0.02      4.76 
   235.70     11.17     15.89     15.94      0.02     -0.02      6.35 
   235.80     11.17     15.88     15.96      0.00     -0.00      4.59 
   235.90     11.17     15.88     15.97     -0.00      0.01      6.59 
   236.00     11.17     15.88     15.96      0.01      0.00      7.24 
   236.10     11.17     15.89     15.95      0.01      0.01      4.82 
   236.20     11.17     15.88     15.97      0.00      0.01      7.35 
   236.30     11.18     15.89     15.97      0.01      0.01      6.76 
   236.40     11.18     15.89     15.96     -0.01      0.03      7.88 
   236.50     11.19     15.89     15.97      0.01      0.01     10.47 
   236.60     11.18     15.90     15.95      0.01      0.01     10.18 
   236.70     11.18     15.89     15.97     -0.00      0.03      9.41 
   236.80     11.19     15.89     15.97      0.02     -0.00      8.12 
   236.90     11.19     15.90     15.96      0.03     -0.01      6.59 
   237.00     11.19     15.90     15.97      0.01      0.00      6.41 
   237.10     11.19     15.88     15.98     -0.00      0.03      5.53 
   237.20     11.19     15.90     15.97      0.01      0.00      7.18 
   237.30     11.20     15.92     15.94      0.03     -0.03     12.00 
   237.40     11.20     15.90     15.96      0.02      0.00      7.76 
   237.50     11.20     15.89     15.99     -0.00      0.03      6.94 
   237.60     11.21     15.89     15.99     -0.00      0.04      4.82 
   237.70     11.21     15.90     15.98      0.01      0.02      3.71 
   237.80     11.21     15.90     16.00      0.00      0.03      2.18 
   237.90     11.22     15.90     15.99     -0.00      0.04      4.06 
   238.00     11.22     15.91     15.97      0.01      0.01      5.53 
   238.10     11.22     15.91     15.99      0.03     -0.01      4.35 
   238.20     11.22     15.91     15.99      0.00      0.03      1.76 
   238.30     11.22     15.92     15.98     -0.00      0.04      4.76 
   238.40     11.23     15.93     15.97      0.03     -0.00      2.88 
   238.50     11.23     15.91     15.99      0.03     -0.01      2.59 
   238.60     11.23     15.92     15.98      0.02     -0.01      2.88 
   238.70     11.23     15.92     15.97      0.03     -0.02      1.76 
   238.80     11.23     15.92     15.98      0.02     -0.01      0.00 
   238.90     11.23     15.91     16.00      0.01      0.00      0.71 
   239.00     11.23     15.93     15.98      0.01      0.00      1.47 
   239.10     11.24     15.92     16.00      0.01      0.01      0.76 
   239.20     11.24     15.91     16.01      0.00      0.02      0.35 
   239.30     11.25     15.92     16.00      0.01      0.02      0.71 
   239.40     11.25     15.93     15.99     -0.00      0.03      0.35 
   239.50     11.25     15.93     15.99      0.02      0.01      0.00 
   239.60     11.25     15.93     16.00      0.01      0.02      0.71 
   239.70     11.26     15.92     16.01     -0.00      0.04      0.35 
   239.80     11.26     15.93     16.01      0.00      0.03      0.71 
   239.90     11.27     15.93     16.01      0.02      0.01      0.71 
   240.00     11.28     15.94     16.01      0.01      0.04      0.41 
   240.10     11.30     15.96     16.01      0.05      0.01      0.41 
   240.20     11.31     15.97     16.02      0.06     -0.00      0.35 
   240.30     11.32     16.00     15.99      0.07     -0.00      0.35 
   240.40     11.32     15.99     16.00      0.06      0.00      1.47 
   240.50     11.31     15.99     15.99      0.06     -0.01      1.06 
   240.60     11.32     15.99     16.00      0.06     -0.00      0.71 
   240.70     11.33     15.98     16.02      0.06      0.01      0.71 
   240.80     11.34     15.98     16.03      0.05      0.02      0.00 
   240.90     11.35     15.98     16.04      0.05      0.03      0.35 
   241.00     11.38     16.00     16.05      0.05      0.04      0.76 
   241.10     11.42     16.00     16.08      0.04      0.08      2.53 
   241.20     11.46     16.03     16.11      0.05      0.10      1.76 
   241.30     11.53     16.06     16.14      0.07      0.15      0.71 
   241.40     11.58     16.09     16.16      0.10      0.16      0.71 
   241.50     11.63     16.13     16.16      0.14      0.18      1.82 
