#Written by Robertson Geologging WinLogger V1.0/311
~VERSION INFORMATION
#------------------------------------------------------------------------------
 VERS. 2.0 : CWLS LOG ASCII STANDARD - VERSION 2.0
 WRAP. NO  : ONE LINE PER DEPTH STEP
~WELL INFORMATION
#MNEM.UNIT         DATA                                DESCRIPTION OF MNEMONIC
#------------------------------------------------------------------------------
 STRT.M         75.1000                            :   START DEPTH
 STOP.M        381.1000                            :   STOP DEPTH
 STEP.M          0.1000                            :   STEP VALUE
 NULL.        -999.2500                            :   NULL VALUE
 COMP.    IMC                                      :   COMPANY NAME
 WELL.    SOUTH SHAFT                              :   WELL NAME
 FLD.     HORDEN                                   :   FIELD NAME
 LOC.     N/A                                      :   LOCATION
 PROV.    N/A                                      :   PROVINCE
 SRVC.    N/A                                      :   SERVICE COMPANY NAME
 DATE.    03 Oct 03                                :   DATE
 UWI.     N/A                                      :   UNIQUE WELL IDENTIFIER
~PARAMETER INFORMATION
#MNEMO.UNIT         VALUE                 DESCRIPTION OF MNEMONIC
#------------------------------------------------------------------------------
~OTHER INFORMATION SECTION
#------------------------------------------------------------------------------
 TCDS 2822
~CURVE INFORMATION
#MNEMO.UNIT         API CODE              CURVE DESCRIPTION
#------------------------------------------------------------------------------
 DEPTH.M                                 :   0     Depth
 TEMP.DegC                               :   1     Temperature
 COND.uS/cm                              :   2     Conductivity
 DELT.DegC                               :   3     Delta T
 DELC.uS/cm                              :   4     Delta C
 NGAM.API                                :   5     Natural Gamma
#------------------------------------------------------------------------------
~A  DEPTH     TEMP      COND      DELT      DELC      NGAM      
# ...
   273.10     15.30  10550.06      0.01      2.18      2.41 
   273.20     15.29  10549.80     -0.00      0.70      3.18 
   273.30     15.30  10550.58      0.01      1.31      2.00 
   273.40     15.29  10552.50     -0.00      3.83      1.65 
   273.50     15.29  10553.63     -0.01      3.74      1.24 
   273.60     15.31  10552.41      0.01      2.61      1.18 
   273.70     15.31  10553.54      0.02      2.96      1.88 
   273.80     15.32  10554.24      0.03      4.26      1.24 
   273.90     15.32  10553.63      0.02      3.05      0.82 
   274.00     15.32  10552.41      0.01      1.83      2.29 
   274.10     15.32  10553.63      0.02      3.57      1.82 
   274.20     15.32  10553.63      0.02      3.83      0.82 
   274.30     15.32  10553.54      0.02      2.96      1.24 
   274.40     15.33  10553.02      0.04      0.52      1.18 
   274.50     15.33  10554.50      0.03      1.48      1.12 
   274.60     15.31  10555.37      0.00      2.96      1.18 
   274.70     15.31  10555.28      0.01      1.13      0.76 
   274.80     15.32  10554.76     -0.00      0.52      0.00 
   274.90     15.30  10554.76     -0.02      1.13      1.18 
   275.00     15.32  10554.50      0.01      2.09      1.53 
   275.10     15.32  10553.63     -0.00      0.00      1.53 
   275.20     15.32  10554.15      0.00      0.52      1.18 
   275.30     15.31  10554.24     -0.01      1.83      0.41 
   275.40     15.32  10555.46     -0.01      1.91      2.00 
   275.50     15.31  10554.76     -0.01      0.26      1.65 
   275.60     15.31  10554.76     -0.00     -0.09      0.41 
   275.70     15.32  10554.59      0.00     -0.70      0.41 
   275.80     15.32  10554.76      0.00     -0.61      0.82 
   275.90     15.31  10554.24      0.01     -1.04      2.35 
   276.00     15.32  10555.20     -0.00      0.17      2.00 
   276.10     15.32  10556.33      0.00      2.09      1.88 
   276.20     15.32  10556.94      0.00      2.79      2.94 
   276.30     15.32  10556.42      0.00      1.57      1.88 
   276.40     15.34  10557.55      0.01      2.09      1.59 
   276.50     15.33  10557.55      0.02      2.79      0.76 
   276.60     15.33  10557.55      0.01      2.26      0.00 
   276.70     15.32  10556.42      0.00      1.83      0.82 
   276.80     15.33  10556.94      0.02      2.09      0.41 
   276.90     15.33  10556.94      0.02      2.18      0.82 
   277.00     15.34  10555.81      0.02      0.09      0.41 
   277.10     15.33  10556.59      0.01      0.26      0.76 
   277.20     15.33  10556.42      0.01     -0.61      1.47 
   277.30     15.32  10556.42     -0.00     -0.00      1.12 
   277.40     15.33  10556.50     -0.01     -1.57      1.47 
   277.50     15.34  10558.16      0.01      0.61      2.12 
   277.60     15.33  10558.68      0.01      1.65      2.24 
   277.70     15.33  10558.77      0.01      2.35      1.65 
   277.80     15.33  10558.68     -0.01      1.13      0.41 
   277.90     15.34  10559.20      0.00      2.26      1.12 
   278.00     15.34  10558.85     -0.00      3.05      1.53 
   278.10     15.33  10559.29      0.00      2.18      0.41 
   278.20     15.34  10558.59      0.01      2.18      1.18 
   278.30     15.32  10559.81      0.00      2.87      1.88 
   278.40     15.34  10559.90      0.00      3.48      1.82 
   278.50     15.33  10559.37     -0.00      1.31      1.47 
   278.60     15.34  10559.29      0.01      0.70      0.35 
   278.70     15.34  10559.90      0.01      0.70      1.18 
   278.80     15.34  10559.81      0.01      1.13      1.24 
   278.90     15.34  10559.81      0.00      1.13      0.82 
   279.00     15.34  10559.37      0.00      0.61      0.82 
   279.10     15.34  10560.42      0.01      1.22      3.06 
   279.20     15.34  10561.12      0.00      2.52      4.12 
   279.30     15.33  10561.12      0.01      1.74      2.35 
   279.40     15.34  10560.33     -0.00      0.87      2.06 
   279.50     15.34  10561.64      0.01      1.65      1.53 
   279.60     15.34  10561.64     -0.01      2.35      0.76 
   279.70     15.34  10561.55      0.00      1.74      1.47 
   279.80     15.33  10561.38     -0.01      1.65      1.94 
   279.90     15.35  10562.68      0.01      2.96      1.12 
   280.00     15.35  10562.60      0.01      2.79      0.35 
   280.10     15.34  10562.16      0.00      1.13      0.76 
   280.20     15.34  10563.20     -0.00      2.18      1.12 
   280.30     15.33  10562.77      0.00      2.26      1.88 
   280.40     15.33  10563.20     -0.01      2.87      0.82 
   280.50     15.34  10562.68     -0.00      1.04      1.53 
   280.60     15.34  10563.03      0.01      1.39      1.59 
   280.70     15.34  10563.38      0.00      2.44      0.76 
   280.80     15.34  10563.38      0.01      1.48      0.41 
   280.90     15.34  10562.51     -0.01      0.00      0.71 
   281.00     15.34  10562.42     -0.01      0.52      0.35 
   281.10     15.34  10563.12      0.00      0.96      0.71 
   281.20     15.35  10563.20      0.01      0.44      0.76 
   281.30     15.35  10562.68      0.02     -0.09      0.76 
   281.40     15.35  10563.81      0.02      0.00      1.88 
   281.50     15.34  10563.99     -0.00      1.13      2.35 
   281.60     15.34  10563.81      0.00      0.61      2.35 
   281.70     15.35  10563.38      0.01      0.00      1.18 
   281.80     15.36  10564.25      0.02      0.87      0.76 
   281.90     15.34  10564.60      0.00      2.52      1.12 
   282.00     15.35  10563.55      0.01      0.96      1.47 
   282.10     15.36  10563.12      0.01     -0.17      1.82 
   282.20     15.35  10563.81     -0.00      0.61      1.82 
   282.30     15.35  10564.08     -0.00      0.78      1.47 
   282.40     15.35  10563.55      0.00     -0.44      1.12 
   282.50     15.34  10564.08      0.01      0.70      2.35 
   282.60     15.34  10563.81     -0.01      0.00      2.35 
   282.70     15.34  10564.34     -0.01      1.13      4.24 
   282.80     15.35  10563.73     -0.01     -0.52      3.00 
   282.90     15.35  10564.60      0.00      0.00      2.35 
   283.00     15.35  10564.42     -0.00      0.52      1.12 
   283.10     15.34  10563.81     -0.01     -0.52      1.47 
   283.20     15.35  10563.99     -0.00     -0.35      0.71 
   283.30     15.34  10563.47     -0.01     -1.04      0.76 
   283.40     15.35  10562.60      0.00     -0.78      0.71 
   283.50     15.35  10560.25      0.01     -3.39      1.47 
   283.60     15.35  10558.50      0.01     -5.31      0.76 
   283.70     15.36  10558.77      0.02     -4.96      0.82 
   283.80     15.35  10560.51      0.01     -2.70      1.94 
   283.90     15.34  10561.81     -0.01     -2.61      3.12 
   284.00     15.35  10561.72      0.01     -2.09      2.35 
   284.10     15.36  10563.99      0.02      0.17      2.06 
   284.20     15.35  10564.42     -0.00      0.26      1.12 
   284.30     15.34  10563.38      0.01     -0.09      1.12 
   284.40     15.34  10562.42     -0.00      0.44      1.12 
   284.50     15.37  10563.38      0.01      3.13      1.12 
   284.60     15.35  10563.12      0.00      4.61      0.76 
   284.70     15.34  10562.60     -0.01      3.83      0.76 
   284.80     15.35  10562.51     -0.00      2.70      0.41 
   284.90     15.34  10563.29     -0.00      2.18      0.00 
   285.00     15.34  10563.20     -0.01      1.65      0.82 
   285.10     15.35  10562.77     -0.00     -1.04      3.41 
   285.20     15.34  10563.47     -0.01     -0.96      2.65 
   285.30     15.33  10563.99     -0.01      1.13      2.00 
   285.40     15.36  10563.99      0.01      1.13      0.35 
   285.50     15.35  10563.12     -0.02     -0.09      0.35 
   285.60     15.36  10564.60      0.01      1.48      0.76 
   285.70     15.35  10563.99      0.01      1.83      2.71 
   285.80     15.36  10564.25      0.01      1.22      1.47 
   285.90     15.35  10564.42      0.01      1.31      1.94 
   286.00     15.35  10564.95      0.00      1.74      2.29 
   286.10     15.35  10564.08     -0.00      1.31      0.41 
   286.20     15.35  10563.99      0.01      0.52      0.76 
