#Written by Robertson Geologging WinLogger V1.0/312
~VERSION INFORMATION
#------------------------------------------------------------------------------
 VERS. 2.0 : CWLS LOG ASCII STANDARD - VERSION 2.0
 WRAP. NO  : ONE LINE PER DEPTH STEP
~WELL INFORMATION
#MNEM.UNIT         DATA                                DESCRIPTION OF MNEMONIC
#------------------------------------------------------------------------------
 STRT.M         72.1000                            :   START DEPTH
 STOP.M        377.0000                            :   STOP DEPTH
 STEP.M          0.1000                            :   STEP VALUE
 NULL.        -999.2500                            :   NULL VALUE
 COMP.    I.M..C.                                  :   COMPANY NAME
 WELL.    Horden Shaft                             :   WELL NAME
 FLD.     Horden                                   :   FIELD NAME
 LOC.     N/A                                      :   LOCATION
 PROV.    N/A                                      :   PROVINCE
 SRVC.    N/A                                      :   SERVICE COMPANY NAME
 DATE.    30 Jan 04                                :   DATE
 UWI.     N/A                                      :   UNIQUE WELL IDENTIFIER
~PARAMETER INFORMATION
#MNEMO.UNIT         VALUE                 DESCRIPTION OF MNEMONIC
#------------------------------------------------------------------------------
~OTHER INFORMATION SECTION
#------------------------------------------------------------------------------
 TCGX extended range 1365
~CURVE INFORMATION
#MNEMO.UNIT         API CODE              CURVE DESCRIPTION
#------------------------------------------------------------------------------
 DEPTH.M                                 :   0     Depth
 COND.mS/cm                              :   1     Conductivity
 TEMP.DegC                               :   2     Temperature
 C@25.mS/cm                              :   3     Conductivity @25Deg
 DELT.DegC                               :   4     Delta T
 DC@25.mS/cm                             :   5     Delta C @25Deg
 OUT4.CPS                                :   6     Natural Gamma
#------------------------------------------------------------------------------
~A  DEPTH     COND      TEMP      C@25      DELT      DC@25     OUT4      
# ...
   343.30     20.04     16.55     25.68     -0.00      0.00      4.76 
   343.40     20.04     16.54     25.70     -0.01      0.02      6.29 
   343.50     20.04     16.54     25.70      0.00     -0.00      8.65 
   343.60     20.04     16.55     25.69      0.00      0.00      5.12 
   343.70     20.04     16.55     25.69      0.01     -0.02      4.82 
   343.80     20.04     16.55     25.69      0.01     -0.01      6.88 
   343.90     20.04     16.54     25.70     -0.01      0.02      6.53 
   344.00     20.04     16.54     25.71     -0.02      0.04      6.35 
   344.10     20.04     16.54     25.71     -0.02      0.03      7.88 
   344.20     20.04     16.54     25.70      0.00     -0.00      7.71 
   344.30     20.04     16.54     25.70     -0.01      0.02      8.71 
   344.40     20.04     16.54     25.70      0.00     -0.01      9.12 
   344.50     20.04     16.55     25.69      0.00     -0.00      9.00 
   344.60     20.05     16.54     25.70     -0.00      0.01      6.29 
   344.70     20.05     16.55     25.70     -0.00      0.01      6.29 
   344.80     20.05     16.55     25.69     -0.00      0.01      7.00 
   344.90     20.05     16.54     25.70      0.01     -0.01      5.94 
   345.00     20.05     16.54     25.70      0.01     -0.01      6.59 
   345.10     20.05     16.54     25.71      0.00     -0.00      7.12 
   345.20     20.05     16.54     25.71     -0.00      0.01      6.00 
   345.30     20.05     16.54     25.70      0.00      0.01      6.29 
   345.40     20.05     16.54     25.70      0.00      0.01      5.94 
   345.50     20.05     16.54     25.70     -0.00      0.01      5.59 
   345.60     20.05     16.55     25.69      0.01     -0.00      5.12 
   345.70     20.05     16.55     25.70     -0.00      0.01      6.41 
   345.80     20.05     16.55     25.69      0.00      0.00      9.12 
   345.90     20.05     16.54     25.70     -0.00      0.01      9.24 
   346.00     20.05     16.55     25.69      0.01     -0.01      4.71 
   346.10     20.05     16.55     25.69      0.01     -0.02      5.53 
   346.20     20.04     16.54     25.70      0.00     -0.01      6.29 
   346.30     20.05     16.55     25.70      0.00     -0.00      4.71 
   346.40     20.05     16.55     25.70      0.00     -0.00      6.12 
   346.50     20.05     16.54     25.71      0.00     -0.00      6.88 
   346.60     20.05     16.54     25.71     -0.00      0.01      6.94 
   346.70     20.05     16.55     25.68      0.01     -0.01      5.88 
   346.80     20.05     16.54     25.71     -0.01      0.02      3.35 
   346.90     20.05     16.54     25.71      0.00      0.01      5.12 
   347.00     20.06     16.54     25.71     -0.01      0.02      2.65 
   347.10     20.06     16.55     25.71     -0.01      0.03      1.82 
   347.20     20.06     16.55     25.71      0.01      0.00      2.71 
   347.30     20.06     16.55     25.70      0.00      0.01      3.29 
   347.40     20.06     16.54     25.71     -0.00      0.01      5.12 
   347.50     20.06     16.55     25.71      0.00      0.01      3.82 
   347.60     20.06     16.54     25.71     -0.00      0.01      1.88 
   347.70     20.06     16.54     25.72     -0.01      0.03      3.41 
   347.80     20.06     16.55     25.71      0.01     -0.01      6.35 
   347.90     20.06     16.54     25.73     -0.01      0.02      5.35 
   348.00     20.06     16.54     25.72     -0.00      0.00      4.24 
   348.10     20.06     16.54     25.71     -0.00      0.02      5.88 
   348.20     20.06     16.55     25.71      0.00      0.01      4.71 
   348.30     20.06     16.55     25.71     -0.00      0.01      4.82 
   348.40     20.06     16.55     25.71      0.01     -0.01      6.65 
   348.50     20.06     16.56     25.69      0.01     -0.01      6.41 
   348.60     20.06     16.55     25.71      0.00     -0.01      4.88 
   348.70     20.06     16.55     25.70      0.01     -0.02      4.76 
   348.80     20.06     16.54     25.72     -0.01      0.01      4.94 
   348.90     20.06     16.55     25.70      0.01     -0.02      4.24 
   349.00     20.06     16.54     25.73     -0.00      0.01      3.00 
   349.10     20.07     16.54     25.73     -0.00      0.01      6.53 
   349.20     20.07     16.54     25.73     -0.00      0.02      5.94 
   349.30     20.08     16.55     25.73      0.00      0.02      5.18 
   349.40     20.08     16.55     25.73      0.00      0.02      8.29 
   349.50     20.08     16.55     25.73     -0.01      0.04      7.53 
   349.60     20.08     16.55     25.74     -0.00      0.04      5.29 
   349.70     20.09     16.55     25.75     -0.01      0.05      4.47 
   349.80     20.10     16.54     25.76      0.00      0.04      4.06 
   349.90     20.10     16.55     25.75      0.00      0.04      6.24 
   350.00     20.09     16.55     25.75      0.01      0.02      5.47 
   350.10     20.10     16.54     25.76     -0.00      0.04      5.53 
   350.20     20.11     16.55     25.76      0.01      0.03      6.71 
   350.30     20.10     16.54     25.77     -0.00      0.03      3.94 
   350.40     20.10     16.55     25.75      0.00      0.02      4.47 
   350.50     20.11     16.54     25.77     -0.00      0.04      4.94 
   350.60     20.12     16.54     25.79     -0.00      0.04      4.76 
   350.70     20.12     16.54     25.79     -0.01      0.04      6.71 
   350.80     20.16     16.55     25.80      0.01      0.06      5.65 
   350.90     23.16     16.55     28.91     -0.01      3.70      5.06 
   351.00     25.67     16.48     32.44     -0.07      6.84      7.06 
   351.10     26.47     16.39     33.63     -0.16      7.96      9.65 
   351.20     27.06     16.31     34.50     -0.24      8.82      8.88 
   351.30     27.50     16.24     35.19     -0.30      9.48      8.94 
   351.40     27.86     16.21     35.70     -0.34      9.99      5.71 
   351.50     28.17     16.19     36.12     -0.35     10.38      4.71 
   351.60     28.44     16.17     36.49     -0.37     10.74      4.59 
   351.70     28.69     16.14     36.85     -0.39     11.09      4.35 
   351.80     28.92     16.12     37.18     -0.43     11.31      5.06 
   351.90     29.14     16.10     37.49     -0.44      7.53      4.94 
   352.00     29.35     16.08     37.78     -0.38      5.07      7.41 
   352.10     29.56     16.08     38.04     -0.30      4.24     10.29 
   352.20     29.75     16.08     38.27     -0.22      3.63      9.59 
   352.30     29.93     16.07     38.51     -0.17      3.23      3.88 
   352.40     30.10     16.07     38.72     -0.14      2.95      5.35 
   352.50     30.27     16.06     38.94     -0.12      2.76      6.94 
   352.60     30.44     16.05     39.18     -0.12      2.64      7.24 
   352.70     30.62     16.05     39.40     -0.09      2.50      7.00 
   352.80     30.78     16.05     39.58     -0.06      2.35      8.18 
   352.90     30.92     16.05     39.77     -0.05      2.24      5.12 
   353.00     31.07     16.05     39.95     -0.03      2.13      6.59 
   353.10     31.20     16.05     40.12     -0.03      2.04      9.35 
   353.20     31.34     16.05     40.28     -0.03      1.99      8.53 
   353.30     31.45     16.05     40.41     -0.02      1.87      7.53 
   353.40     31.57     16.05     40.57     -0.02      1.82      7.29 
   353.50     31.70     16.06     40.70     -0.00      1.73      6.24 
   353.60     31.83     16.06     40.85      0.01      1.64      7.35 
   353.70     31.97     16.06     41.03      0.01      1.61      5.76 
   353.80     32.11     16.06     41.19      0.01      1.60      8.53 
   353.90     32.27     16.07     41.38      0.02      1.60      8.94 
   354.00     32.44     16.07     41.57      0.02      1.61      5.71 
   354.10     32.59     16.07     41.77      0.02      1.63      7.06 
   354.20     32.74     16.07     41.94      0.02      1.65      6.00 
   354.30     32.91     16.08     42.11      0.03      1.70      7.82 
   354.40     33.08     16.07     42.34      0.02      1.78      8.24 
   354.50     33.29     16.08     42.57      0.02      1.87      4.29 
