#Written by Robertson Geologging WinLogger V1.0/311
~VERSION INFORMATION
#------------------------------------------------------------------------------
 VERS. 2.0 : CWLS LOG ASCII STANDARD - VERSION 2.0
 WRAP. NO  : ONE LINE PER DEPTH STEP
~WELL INFORMATION
#MNEM.UNIT         DATA                                DESCRIPTION OF MNEMONIC
#------------------------------------------------------------------------------
 STRT.M         75.1000                            :   START DEPTH
 STOP.M        381.1000                            :   STOP DEPTH
 STEP.M          0.1000                            :   STEP VALUE
 NULL.        -999.2500                            :   NULL VALUE
 COMP.    IMC                                      :   COMPANY NAME
 WELL.    SOUTH SHAFT                              :   WELL NAME
 FLD.     HORDEN                                   :   FIELD NAME
 LOC.     N/A                                      :   LOCATION
 PROV.    N/A                                      :   PROVINCE
 SRVC.    N/A                                      :   SERVICE COMPANY NAME
 DATE.    03 Oct 03                                :   DATE
 UWI.     N/A                                      :   UNIQUE WELL IDENTIFIER
~PARAMETER INFORMATION
#MNEMO.UNIT         VALUE                 DESCRIPTION OF MNEMONIC
#------------------------------------------------------------------------------
~OTHER INFORMATION SECTION
#------------------------------------------------------------------------------
 TCDS 2822
~CURVE INFORMATION
#MNEMO.UNIT         API CODE              CURVE DESCRIPTION
#------------------------------------------------------------------------------
 DEPTH.M                                 :   0     Depth
 TEMP.DegC                               :   1     Temperature
 COND.uS/cm                              :   2     Conductivity
 DELT.DegC                               :   3     Delta T
 DELC.uS/cm                              :   4     Delta C
 NGAM.API                                :   5     Natural Gamma
#------------------------------------------------------------------------------
~A  DEPTH     TEMP      COND      DELT      DELC      NGAM      
# ...
   114.70     10.85   1169.72      0.00     -0.08      1.47 
   114.80     10.84   1169.80     -0.01      0.00      0.76 
   114.90     10.85   1169.72     -0.01     -0.08      1.41 
   115.00     10.84   1169.72     -0.00     -0.24      2.12 
   115.10     10.85   1169.72      0.00     -0.08      1.06 
   115.20     10.85   1169.97      0.02      0.16      0.41 
   115.30     10.85   1169.72     -0.01     -0.08      2.00 
   115.40     10.85   1169.80     -0.00     -0.16      1.94 
   115.50     10.84   1169.72     -0.01     -0.16      1.12 
   115.60     10.84   1169.40     -0.01     -0.41      2.24 
   115.70     10.85   1169.80     -0.01      0.08      1.06 
   115.80     10.85   1169.88      0.01      0.08      1.41 
   115.90     10.85   1169.72      0.01      0.00      1.06 
   116.00     10.85   1169.80      0.01      0.08      2.53 
   116.10     10.85   1169.72     -0.00     -0.08      3.24 
   116.20     10.85   1169.72     -0.00     -0.24      1.88 
   116.30     10.83   1169.80     -0.02      0.08      2.18 
   116.40     10.85   1169.88     -0.00      0.08      1.82 
   116.50     10.85   1169.72      0.01      0.00      1.76 
   116.60     10.85   1169.72      0.01      0.32      2.18 
   116.70     10.85   1169.80      0.01      0.49      1.18 
   116.80     10.85   1169.88     -0.01      0.00      1.12 
   116.90     10.84   1169.80     -0.01      0.08      1.47 
   117.00     10.85   1169.88     -0.00      0.08      0.71 
   117.10     10.85   1169.80      0.00      0.08      1.47 
   117.20     10.84   1169.72     -0.01      0.00      1.88 
   117.30     10.84   1169.80      0.00      0.00      0.76 
   117.40     10.84   1169.72     -0.00     -0.16      2.94 
   117.50     10.84   1169.72     -0.01      0.00      3.29 
   117.60     10.84   1169.72     -0.01      0.00      2.12 
   117.70     10.86   1169.80      0.00      0.00      1.82 
   117.80     10.85   1169.80      0.00     -0.08      1.53 
   117.90     10.84   1169.80      0.00      0.00      2.24 
   118.00     10.85   1170.86     -0.00      0.97      1.41 
   118.10     10.85   1171.91     -0.00      2.11      1.47 
   118.20     10.84   1173.05     -0.01      3.32      1.12 
   118.30     10.84   1173.61     -0.00      3.81      1.41 
   118.40     10.85   1174.51      0.00      4.78      1.47 
   118.50     10.85   1174.91      0.01      4.70      1.53 
   118.60     10.86   1174.83      0.01      5.11      1.88 
   118.70     10.87   1175.40      0.01      5.60      0.76 
   118.80     10.86   1175.32      0.01      6.00      1.06 
   118.90     10.85   1175.88      0.01      6.08      1.41 
   119.00     10.86   1177.43      0.01      6.00      0.00 
   119.10     10.86   1177.59      0.01      5.68      0.35 
   119.20     10.87   1178.56      0.03      5.51      1.47 
   119.30     10.86   1178.64      0.02      4.54      1.53 
   119.40     10.86   1179.62      0.02      5.19      2.24 
   119.50     10.86   1180.26      0.01      5.51      1.82 
   119.60     10.88   1180.99      0.02      6.24      1.41 
   119.70     10.87   1181.72      0.00      6.49      1.76 
   119.80     10.87   1181.64      0.01      5.92      1.06 
   119.90     10.87   1182.78      0.02      7.06      1.12 
   120.00     10.88   1183.02      0.02      5.43      3.12 
   120.10     10.88   1184.16      0.02      6.08      2.00 
   120.20     10.88   1184.72      0.01      6.33      1.94 
   120.30     10.89   1185.29      0.03      6.16      3.41 
   120.40     10.89   1185.54      0.03      5.35      2.65 
   120.50     10.87   1187.00      0.01      6.24      3.35 
   120.60     10.87   1188.13     -0.00      6.81      1.41 
   120.70     10.88   1188.94      0.01      7.54      2.53 
   120.80     10.88   1189.19      0.01      7.30      0.41 
   120.90     10.88   1190.73      0.01      7.70      1.18 
   121.00     10.89   1191.21      0.02      7.62      2.71 
   121.10     10.89   1191.46      0.01      6.97      3.35 
   121.20     10.88   1192.19     -0.00      7.46      1.82 
   121.30     10.90   1192.75      0.02      7.79      1.12 
   121.40     10.90   1194.21      0.01      8.11      2.12 
   121.50     10.90   1195.75      0.03      8.19      1.47 
   121.60     10.91   1197.30      0.03      9.16      2.18 
   121.70     10.90   1198.35      0.02      9.41      1.82 
   121.80     10.91   1199.32      0.03     10.14      1.06 
   121.90     10.91   1201.19      0.03     10.71      0.41 
   122.00     10.92   1204.35      0.02     13.14      1.53 
   122.10     10.91   1207.35      0.03     15.65      1.12 
   122.20     10.92   1210.27      0.04     18.09      1.12 
   122.30     10.91   1212.38      0.01     19.63      1.12 
   122.40     10.92   1215.38      0.02     21.17      1.88 
   122.50     10.91   1218.87      0.01     23.60      2.29 
   122.60     10.92   1223.33      0.02     26.04      2.00 
   122.70     10.91   1225.77      0.01     27.42      2.29 
   122.80     10.92   1229.34      0.01     30.01      0.71 
   122.90     10.91   1234.37      0.00     32.53      1.53 
   123.00     10.93   1239.40      0.02     34.96      1.88 
   123.10     10.92   1242.97      0.01     36.18      1.12 
   123.20     10.93   1245.89      0.01     35.62      1.18 
   123.30     10.94   1249.46      0.03     36.59      1.82 
   123.40     10.94   1254.17      0.02     38.29      2.53 
   123.50     10.95   1259.03      0.04     39.68      3.00 
   123.60     10.96   1263.58      0.03     40.24      2.94 
   123.70     10.96   1268.04      0.05     42.27      2.88 
   123.80     10.96   1272.26      0.04     42.36      1.41 
   123.90     10.97   1278.35      0.06     43.49      1.41 
   124.00     10.98   1287.28      0.04     47.88      0.35 
   124.10     10.99   1298.15      0.07     55.19      1.12 
   124.20     10.99   1309.52      0.06     63.22      1.06 
   124.30     11.00   1321.05      0.05     71.02      1.82 
   124.40     11.00   1334.44      0.05     79.63      1.94 
   124.50     11.02   1351.34      0.06     91.73      0.71 
   124.60     11.03   1370.99      0.08    106.92      1.12 
   124.70     11.04   1393.41      0.07    125.04      1.47 
   124.80     11.05   1414.53      0.10    141.95      2.94 
   124.90     11.07   1441.67      0.10    162.51      3.29 
   125.00     11.09   1482.07      0.11    193.58      1.88 
   125.10     11.10   1532.89      0.10    233.60      1.88 
   125.20     11.10   1590.32      0.11    279.91      3.00 
   125.30     11.13   1671.23      0.13    349.37      1.76 
   125.40     11.14   1784.54      0.14    448.55      2.82 
   125.50     11.15   1920.62      0.13    567.26      2.82 
   125.60     11.18   2048.12      0.15    674.53      1.94 
   125.70     11.20   2154.33      0.16    758.81      1.88 
   125.80     11.23   2253.10      0.18    836.21      1.41 
   125.90     11.26   2355.88      0.19    911.04      0.35 
   126.00     11.28   2476.20      0.20    988.85      0.71 
   126.10     11.31   2585.56      0.21   1047.14      0.35 
   126.20     11.34   2700.85      0.23   1104.67      1.06 
   126.30     11.38   2826.26      0.25   1144.86      1.41 
   126.40     11.42   2954.60      0.28   1157.02      2.18 
   126.50     11.45   3095.25      0.30   1161.00      2.12 
   126.60     11.49   3230.04      0.31   1170.65      1.88 
   126.70     11.53   3345.33      0.33   1181.36      1.59 
   126.80     11.57   3444.87      0.33   1181.79      3.12 
   126.90     11.60   3513.67      0.34   1145.34      3.12 
   127.00     11.64   3614.68      0.35   1125.77      2.00 
   127.10     11.67   3818.82      0.35   1221.45      1.12 
   127.20     11.72   4004.36      0.38   1290.71      2.53 
   127.30     11.77   4163.28      0.39   1324.20      2.94 
   127.40     11.81   4338.93      0.39   1370.60      2.65 
   127.50     11.87   4516.82      0.41   1406.67      2.59 
   127.60     11.92   4668.69      0.43   1424.39      0.71 
   127.70     11.97   4795.21      0.43   1439.56      0.76 
   127.80     12.03   4944.07      0.45   1488.05      0.82 
