#Written by Robertson Geologging WinLogger V1.0/312
~VERSION INFORMATION
#------------------------------------------------------------------------------
 VERS. 2.0 : CWLS LOG ASCII STANDARD - VERSION 2.0
 WRAP. NO  : ONE LINE PER DEPTH STEP
~WELL INFORMATION
#MNEM.UNIT         DATA                                DESCRIPTION OF MNEMONIC
#------------------------------------------------------------------------------
 STRT.M         72.1000                            :   START DEPTH
 STOP.M        377.0000                            :   STOP DEPTH
 STEP.M          0.1000                            :   STEP VALUE
 NULL.        -999.2500                            :   NULL VALUE
 COMP.    I.M..C.                                  :   COMPANY NAME
 WELL.    Horden Shaft                             :   WELL NAME
 FLD.     Horden                                   :   FIELD NAME
 LOC.     N/A                                      :   LOCATION
 PROV.    N/A                                      :   PROVINCE
 SRVC.    N/A                                      :   SERVICE COMPANY NAME
 DATE.    30 Jan 04                                :   DATE
 UWI.     N/A                                      :   UNIQUE WELL IDENTIFIER
~PARAMETER INFORMATION
#MNEMO.UNIT         VALUE                 DESCRIPTION OF MNEMONIC
#------------------------------------------------------------------------------
~OTHER INFORMATION SECTION
#------------------------------------------------------------------------------
 TCGX extended range 1365
~CURVE INFORMATION
#MNEMO.UNIT         API CODE              CURVE DESCRIPTION
#------------------------------------------------------------------------------
 DEPTH.M                                 :   0     Depth
 COND.mS/cm                              :   1     Conductivity
 TEMP.DegC                               :   2     Temperature
 C@25.mS/cm                              :   3     Conductivity @25Deg
 DELT.DegC                               :   4     Delta T
 DC@25.mS/cm                             :   5     Delta C @25Deg
 OUT4.CPS                                :   6     Natural Gamma
#------------------------------------------------------------------------------
~A  DEPTH     COND      TEMP      C@25      DELT      DC@25     OUT4      
# ...
   173.80     10.58     15.44     15.85     -0.01      0.01      9.65 
   173.90     10.58     15.45     15.86     -0.01      0.02      7.88 
   174.00     10.58     15.45     15.85     -0.01      0.01      8.12 
   174.10     10.58     15.44     15.86     -0.01      0.02      6.59 
   174.20     10.58     15.45     15.85     -0.01      0.01      5.12 
   174.30     10.58     15.45     15.85     -0.01      0.01      5.94 
   174.40     10.58     15.46     15.83      0.01     -0.01      8.06 
   174.50     10.58     15.45     15.85     -0.00      0.01      8.82 
   174.60     10.62     15.46     15.89      0.00      0.05      8.18 
   174.70     10.67     15.49     15.91      0.04      0.06      8.24 
   174.80     10.68     15.55     15.84      0.10     -0.02      7.59 
   174.90     10.69     15.59     15.79      0.14     -0.07      4.76 
   175.00     10.69     15.61     15.76      0.16     -0.10     10.41 
   175.10     10.69     15.62     15.75      0.18     -0.11     10.00 
   175.20     10.70     15.63     15.74      0.18     -0.11      7.53 
   175.30     10.70     15.64     15.73      0.19     -0.12      6.59 
   175.40     10.70     15.64     15.73      0.18     -0.10      5.41 
   175.50     10.70     15.65     15.71      0.20     -0.13      5.06 
   175.60     10.70     15.65     15.72      0.19     -0.19      5.24 
   175.70     10.70     15.64     15.73      0.15     -0.17      7.24 
   175.80     10.70     15.64     15.73      0.09     -0.10      9.88 
   175.90     10.70     15.65     15.72      0.06     -0.07      9.06 
   176.00     10.71     15.65     15.72      0.04     -0.03      7.94 
   176.10     10.71     15.65     15.73      0.03     -0.02      7.94 
   176.20     10.71     15.65     15.73      0.01     -0.00     10.06 
   176.30     10.71     15.65     15.72      0.01      0.00     10.71 
   176.40     10.71     15.65     15.73      0.01      0.01     12.00 
   176.50     10.71     15.65     15.72      0.00      0.01     11.94 
   176.60     10.71     15.64     15.74     -0.00      0.02     12.35 
   176.70     10.71     15.65     15.73      0.01     -0.00     13.12 
   176.80     10.71     15.67     15.71      0.02     -0.02      9.29 
   176.90     10.71     15.67     15.71      0.01     -0.00      7.53 
   177.00     10.72     15.65     15.74     -0.00      0.02     11.29 
   177.10     10.72     15.66     15.73      0.01     -0.00      7.59 
   177.20     10.72     15.66     15.73      0.01      0.00     14.53 
   177.30     10.72     15.66     15.72      0.02     -0.02     18.65 
   177.40     10.71     15.67     15.71      0.02     -0.02     17.00 
   177.50     10.72     15.66     15.72      0.00      0.00     17.29 
   177.60     10.72     15.66     15.72      0.01     -0.01     20.71 
   177.70     10.72     15.66     15.72      0.00      0.00     15.71 
   177.80     10.72     15.66     15.72     -0.00      0.01     16.00 
   177.90     10.72     15.67     15.71      0.00      0.00     15.53 
   178.00     10.72     15.66     15.72      0.02     -0.02     16.29 
   178.10     10.72     15.66     15.73     -0.00      0.00     15.35 
   178.20     10.72     15.66     15.73     -0.00      0.00     17.00 
   178.30     10.72     15.66     15.73     -0.01      0.01     11.76 
   178.40     10.72     15.66     15.72     -0.01      0.02     11.00 
   178.50     10.72     15.66     15.73     -0.00      0.00     10.59 
   178.60     10.72     15.67     15.71      0.01     -0.01     10.71 
   178.70     10.72     15.68     15.70      0.02     -0.02      8.76 
   178.80     10.72     15.66     15.72     -0.00      0.01      9.82 
   178.90     10.72     15.65     15.74     -0.01      0.02      8.59 
   179.00     10.72     15.67     15.72      0.01     -0.01      7.12 
   179.10     10.72     15.68     15.70      0.02     -0.02      9.06 
   179.20     10.72     15.67     15.71      0.01     -0.01     10.06 
   179.30     10.72     15.66     15.72      0.01     -0.01      9.00 
   179.40     10.72     15.66     15.72      0.00     -0.00      9.12 
   179.50     10.72     15.65     15.74     -0.01      0.01      7.94 
   179.60     10.72     15.67     15.72     -0.00      0.01      7.59 
   179.70     10.72     15.67     15.72     -0.01      0.01      7.59 
   179.80     10.72     15.66     15.72      0.00      0.00      8.47 
   179.90     10.72     15.66     15.73      0.01     -0.01      8.29 
   180.00     10.72     15.67     15.72     -0.00      0.00      9.59 
   180.10     10.72     15.67     15.71     -0.01      0.01     10.06 
   180.20     10.72     15.67     15.71      0.00     -0.01      7.94 
   180.30     10.72     15.67     15.71      0.00     -0.01      7.53 
   180.40     10.72     15.67     15.72      0.01     -0.01     10.65 
   180.50     10.72     15.67     15.71      0.02     -0.02     10.18 
   180.60     10.72     15.67     15.72      0.00     -0.00     13.12 
   180.70     10.72     15.67     15.71      0.01     -0.01     14.82 
   180.80     10.72     15.66     15.72      0.00     -0.00     15.65 
   180.90     10.72     15.66     15.74     -0.01      0.01     14.29 
   181.00     10.72     15.66     15.73     -0.01      0.01     14.18 
   181.10     10.72     15.67     15.71     -0.00      0.00     13.53 
   181.20     10.72     15.67     15.72     -0.00      0.01     16.65 
   181.30     10.72     15.66     15.73     -0.01      0.01     16.24 
   181.40     10.72     15.67     15.71      0.00     -0.00     12.71 
   181.50     10.72     15.66     15.73     -0.01      0.01     20.06 
   181.60     10.72     15.67     15.72     -0.00      0.01     15.41 
   181.70     10.72     15.67     15.71      0.00     -0.00     11.18 
   181.80     10.72     15.67     15.71      0.01     -0.02     11.59 
   181.90     10.72     15.66     15.72      0.01     -0.01     10.29 
   182.00     10.72     15.67     15.72      0.01     -0.01      9.65 
   182.10     10.72     15.66     15.72     -0.01      0.01      8.06 
   182.20     10.72     15.67     15.71      0.01     -0.01      5.71 
   182.30     10.72     15.66     15.73      0.00     -0.00      8.82 
   182.40     10.72     15.66     15.73     -0.01      0.02     12.88 
   182.50     10.72     15.67     15.71      0.01     -0.01     10.41 
   182.60     10.72     15.67     15.72      0.00     -0.00      9.00 
   182.70     10.72     15.66     15.72     -0.01      0.01      5.47 
   182.80     10.72     15.66     15.73     -0.01      0.02      7.12 
   182.90     10.72     15.66     15.73      0.00      0.00      7.59 
   183.00     10.72     15.66     15.73     -0.01      0.01      9.12 
   183.10     10.73     15.66     15.73      0.00      0.00      6.88 
   183.20     10.72     15.66     15.72     -0.01      0.01      6.53 
   183.30     10.72     15.66     15.72      0.01     -0.00      6.18 
   183.40     10.72     15.67     15.73      0.00     -0.00      6.12 
   183.50     10.72     15.67     15.72     -0.00      0.00      5.76 
   183.60     10.72     15.66     15.73     -0.01      0.01      7.00 
   183.70     10.72     15.66     15.73     -0.01      0.01      6.82 
   183.80     10.72     15.66     15.73     -0.00      0.00      7.12 
   183.90     10.72     15.66     15.74     -0.01      0.01     10.71 
   184.00     10.72     15.67     15.72      0.00     -0.01      8.24 
   184.10     10.72     15.67     15.72     -0.00     -0.00      5.76 
   184.20     10.73     15.67     15.72      0.01     -0.01      6.53 
   184.30     10.72     15.67     15.73      0.00     -0.01      6.47 
   184.40     10.72     15.67     15.72      0.00     -0.00      5.41 
   184.50     10.72     15.66     15.73     -0.01      0.01      4.76 
   184.60     10.72     15.67     15.72      0.01     -0.02      5.35 
   184.70     10.72     15.66     15.74      0.00      0.00      8.59 
   184.80     10.72     15.66     15.73      0.00      0.00      9.53 
   184.90     10.72     15.67     15.72      0.01     -0.01      8.76 
   185.00     10.72     15.67     15.72      0.00     -0.01     10.59 
