#Written by Robertson Geologging WinLogger V1.0/311
~VERSION INFORMATION
#------------------------------------------------------------------------------
 VERS. 2.0 : CWLS LOG ASCII STANDARD - VERSION 2.0
 WRAP. NO  : ONE LINE PER DEPTH STEP
~WELL INFORMATION
#MNEM.UNIT         DATA                                DESCRIPTION OF MNEMONIC
#------------------------------------------------------------------------------
 STRT.M         75.1000                            :   START DEPTH
 STOP.M        381.1000                            :   STOP DEPTH
 STEP.M          0.1000                            :   STEP VALUE
 NULL.        -999.2500                            :   NULL VALUE
 COMP.    IMC                                      :   COMPANY NAME
 WELL.    SOUTH SHAFT                              :   WELL NAME
 FLD.     HORDEN                                   :   FIELD NAME
 LOC.     N/A                                      :   LOCATION
 PROV.    N/A                                      :   PROVINCE
 SRVC.    N/A                                      :   SERVICE COMPANY NAME
 DATE.    03 Oct 03                                :   DATE
 UWI.     N/A                                      :   UNIQUE WELL IDENTIFIER
~PARAMETER INFORMATION
#MNEMO.UNIT         VALUE                 DESCRIPTION OF MNEMONIC
#------------------------------------------------------------------------------
~OTHER INFORMATION SECTION
#------------------------------------------------------------------------------
 TCDS 2822
~CURVE INFORMATION
#MNEMO.UNIT         API CODE              CURVE DESCRIPTION
#------------------------------------------------------------------------------
 DEPTH.M                                 :   0     Depth
 TEMP.DegC                               :   1     Temperature
 COND.uS/cm                              :   2     Conductivity
 DELT.DegC                               :   3     Delta T
 DELC.uS/cm                              :   4     Delta C
 NGAM.API                                :   5     Natural Gamma
#------------------------------------------------------------------------------
~A  DEPTH     TEMP      COND      DELT      DELC      NGAM      
    75.10   -999.25   -999.25      0.00      0.00   -999.25 
    75.20   -999.25   -999.25      0.00      0.00   -999.25 
    75.30   -999.25   -999.25      0.00      0.00   -999.25 
    75.40   -999.25   -999.25      0.00      0.00   -999.25 
    75.50   -999.25   -999.25      0.00      0.00   -999.25 
    75.60   -999.25   -999.25      0.00      0.00   -999.25 
    75.70   -999.25   -999.25      0.00      0.00   -999.25 
    75.80   -999.25   -999.25      0.00      0.00   -999.25 
    75.90   -999.25   -999.25      0.00      0.00   -999.25 
    76.00   -999.25   -999.25      0.00      0.00   -999.25 
    76.10   -999.25   -999.25      0.00      0.00   -999.25 
    76.20   -999.25   -999.25      0.00      0.00   -999.25 
    76.30   -999.25   -999.25      0.00      0.00   -999.25 
    76.40   -999.25   -999.25      0.00      0.00   -999.25 
    76.50   -999.25   -999.25      0.00      0.00   -999.25 
    76.60   -999.25   -999.25      0.00      0.00   -999.25 
    76.70   -999.25   -999.25      0.00      0.00   -999.25 
    76.80   -999.25   -999.25      0.00      0.00   -999.25 
    76.90   -999.25   -999.25      0.00      0.00  12850.00 
    77.00   -999.25   -999.25      0.00      0.00   6063.35 
    77.10   -999.25   -999.25      0.00      0.00     35.00 
    77.20     52.89  11898.60   1052.14  12897.85     28.47 
    77.30     38.01   3253.90   1037.26   4253.15     29.59 
    77.40     12.26     12.13   1011.51   1011.38     37.24 
    77.50     12.29     12.13   1011.54   1011.38     37.88 
    77.60     12.29     12.13   1011.54   1011.38     32.12 
    77.70     12.29     12.13   1011.54   1011.38     24.88 
    77.80     12.30     12.13   1011.55   1011.38     30.82 
    77.90     12.29     12.13   1011.54   1011.38     32.59 
    78.00     12.28     12.13   1011.53   1011.38     29.59 
    78.10     12.27     12.13   1011.52   1011.38     31.24 
    78.20     12.26     12.13    -40.62 -11886.47     28.94 
    78.30     12.28     12.13    -22.03  -2161.18     25.76 
    78.40     12.28     12.13      0.00      0.00     29.06 
    78.50     12.28     12.13     -0.01      0.00     28.88 
    78.60     12.28     12.13     -0.01      0.00     24.65 
    78.70     12.28     12.13     -0.02      0.00     23.24 
    78.80     12.27     12.13     -0.03      0.00     28.12 
    78.90     12.27     12.13     -0.01      0.00     34.41 
    79.00     12.26     12.13     -0.02      0.00     32.29 
    79.10     12.27     12.13      0.00      0.00     32.88 
    79.20     12.26     12.13     -0.01      0.00     26.41 
    79.30     12.26     12.13     -0.02      0.00     30.76 
    79.40     12.26     12.13     -0.02      0.00     27.76 
    79.50     12.27     12.13     -0.01      0.00     32.53 
    79.60     12.27     13.26     -0.00      1.12     33.24 
    79.70     12.26    863.92     -0.02    851.79     21.76 
    79.80     12.16   1094.33     -0.11   1082.20     12.41 
    79.90     11.83   1094.25     -0.44   1082.12      6.59 
    80.00     11.58   1094.57     -0.68   1082.44      5.12 
    80.10     11.42   1094.82     -0.85   1082.69      6.24 
    80.20     11.30   1094.57     -0.96   1082.44      3.88 
    80.30     11.23   1094.90     -1.03   1082.77      2.00 
    80.40     11.18   1094.90     -1.08   1082.77      3.53 
    80.50     11.13   1097.41     -1.14   1085.28      2.29 
    80.60     11.09   1113.86     -1.18   1055.86      2.29 
    80.70     11.08   1136.07     -1.18    175.33      1.88 
    80.80     11.05   1146.61     -1.08     52.85      1.53 
    80.90     11.04   1148.64     -0.77     54.39      1.47 
    81.00     11.03   1150.59     -0.53     56.01      1.76 
    81.10     11.00   1152.86     -0.40     58.28      2.29 
    81.20     11.00   1155.53     -0.30     60.96      2.35 
    81.30     11.00   1156.26     -0.23     61.36      1.59 
    81.40     11.00   1157.80     -0.18     62.58      2.76 
    81.50     10.98   1159.02     -0.14     60.55      2.65 
    81.60     10.97   1159.59     -0.12     43.21      1.47 
    81.70     10.96   1159.67     -0.11     22.05      0.76 
    81.80     10.97   1159.67     -0.08     12.57      0.41 
    81.90     10.97   1160.32     -0.07     11.11      1.94 
    82.00     10.96   1160.88     -0.07      9.81      1.65 
    82.10     10.96   1160.80     -0.04      7.38      1.12 
    82.20     10.96   1160.72     -0.03      5.35      1.12 
    82.30     10.95   1162.02     -0.05      5.27      1.65 
    82.40     10.93   1162.67     -0.06      4.22      2.35 
    82.50     10.93   1162.59     -0.05      3.49      1.88 
    82.60     10.92   1162.67     -0.05      3.00      0.76 
    82.70     10.93   1162.51     -0.03      2.84      1.41 
    82.80     10.92   1162.59     -0.05      2.92      1.06 
    82.90     10.93   1163.15     -0.04      2.84      1.94 
    83.00     10.92   1163.23     -0.04      2.43      3.18 
    83.10     10.92   1163.88     -0.04      2.51      2.76 
    83.20     10.93   1163.72     -0.03      2.35      1.53 
    83.30     10.92   1163.88     -0.02      1.86      1.18 
    83.40     10.92   1163.88     -0.01      1.78      2.65 
    83.50     10.91   1163.80     -0.03      1.78      3.82 
    83.60     10.91   1164.53     -0.02      2.51      3.53 
    83.70     10.91   1164.45     -0.03      1.95      2.82 
    83.80     10.92   1164.37     -0.00      1.14      3.24 
    83.90     10.91   1164.94     -0.02      1.78      1.94 
    84.00     10.91   1164.37     -0.01      1.05      2.35 
    84.10     10.90   1164.29     -0.02      1.05      1.65 
    84.20     10.90   1165.02     -0.03      1.86      1.12 
    84.30     10.90   1165.59     -0.02      1.70      2.59 
    84.40     10.90   1164.94     -0.02      1.05      2.35 
    84.50     10.90   1165.59     -0.00      1.22      1.82 
    84.60     10.90   1165.67     -0.01      1.14      1.53 
    84.70     10.90   1166.24     -0.00      1.78      2.24 
    84.80     10.90   1165.67     -0.02      1.30      3.65 
    84.90     10.90   1165.59     -0.01      1.22      2.71 
    85.00     10.90   1166.24     -0.01      1.86      2.35 
    85.10     10.91   1165.67      0.01      0.73      1.94 
    85.20     10.89   1166.24     -0.02      1.22      2.24 
    85.30     10.89   1166.24     -0.01      1.30      2.59 
    85.40     10.91   1166.24      0.01      1.30      1.82 
    85.50     10.91   1166.24      0.00      0.65      0.71 
    85.60     10.89   1165.67     -0.01      0.00      0.71 
    85.70     10.90   1166.24     -0.01      0.00      1.47 
    85.80     10.91   1166.24      0.01      0.57      1.88 
    85.90     10.90   1166.72      0.01      1.14      2.71 
    86.00     10.90   1166.24      0.00      0.00      3.76 
    86.10     10.92   1166.80      0.01      1.14      2.12 
    86.20     10.91   1166.80      0.02      0.57      1.12 
    86.30     10.90   1166.80      0.01      0.57      1.12 
    86.40     10.90   1166.80     -0.01      0.57      0.71 
    86.50     10.90   1166.80     -0.01      0.57      1.53 
    86.60     10.90   1166.72      0.01      1.05      2.35 
    86.70     10.89   1166.72     -0.01      0.49      1.94 
    86.80     10.89   1166.72     -0.01      0.49      3.88 
    86.90     10.89   1166.72     -0.01      0.00      3.88 
    87.00     10.89   1166.72     -0.01      0.49      1.59 
    87.10     10.89   1167.29     -0.03      0.49      1.94 
    87.20     10.88   1166.80     -0.02      0.00      1.47 
    87.30     10.89   1167.29     -0.01      1.05      1.47 
    87.40     10.89   1167.29     -0.01      0.49      0.76 
    87.50     10.88   1167.21     -0.02      0.41      1.88 
    87.60     10.87   1167.29     -0.02      0.57      1.53 
    87.70     10.89   1167.78     -0.01      1.05      2.65 
    87.80     10.89   1167.78     -0.00      1.05      1.18 
    87.90     10.88   1167.86     -0.02      1.14      1.47 
    88.00     10.87   1167.86     -0.02      0.57      1.18 
    88.10     10.88   1167.94     -0.01      0.65      2.71 
    88.20     10.87   1167.29     -0.01      0.49      1.18 
