#Written by Robertson Geologging WinLogger V1.0/311
~VERSION INFORMATION
#------------------------------------------------------------------------------
 VERS. 2.0 : CWLS LOG ASCII STANDARD - VERSION 2.0
 WRAP. NO  : ONE LINE PER DEPTH STEP
~WELL INFORMATION
#MNEM.UNIT         DATA                                DESCRIPTION OF MNEMONIC
#------------------------------------------------------------------------------
 STRT.M         75.1000                            :   START DEPTH
 STOP.M        381.1000                            :   STOP DEPTH
 STEP.M          0.1000                            :   STEP VALUE
 NULL.        -999.2500                            :   NULL VALUE
 COMP.    IMC                                      :   COMPANY NAME
 WELL.    SOUTH SHAFT                              :   WELL NAME
 FLD.     HORDEN                                   :   FIELD NAME
 LOC.     N/A                                      :   LOCATION
 PROV.    N/A                                      :   PROVINCE
 SRVC.    N/A                                      :   SERVICE COMPANY NAME
 DATE.    03 Oct 03                                :   DATE
 UWI.     N/A                                      :   UNIQUE WELL IDENTIFIER
~PARAMETER INFORMATION
#MNEMO.UNIT         VALUE                 DESCRIPTION OF MNEMONIC
#------------------------------------------------------------------------------
~OTHER INFORMATION SECTION
#------------------------------------------------------------------------------
 TCDS 2822
~CURVE INFORMATION
#MNEMO.UNIT         API CODE              CURVE DESCRIPTION
#------------------------------------------------------------------------------
 DEPTH.M                                 :   0     Depth
 TEMP.DegC                               :   1     Temperature
 COND.uS/cm                              :   2     Conductivity
 DELT.DegC                               :   3     Delta T
 DELC.uS/cm                              :   4     Delta C
 NGAM.API                                :   5     Natural Gamma
#------------------------------------------------------------------------------
~A  DEPTH     TEMP      COND      DELT      DELC      NGAM      
# ...
   233.50     13.26   7273.30      0.02      4.76      1.53 
   233.60     13.25   7274.23      0.01      4.34      2.65 
   233.70     13.25   7273.81     -0.00      3.40      2.65 
   233.80     13.25   7275.00      0.00      4.76      1.12 
   233.90     13.26   7275.00      0.01      4.17      0.82 
   234.00     13.25   7276.61      0.00      4.25      0.82 
   234.10     13.25   7278.31      0.01      6.63      1.53 
   234.20     13.25   7278.23      0.00      5.10      1.12 
   234.30     13.25   7279.25      0.01      5.78      4.29 
   234.40     13.25   7278.74     -0.00      4.59      2.82 
   234.50     13.24   7278.74     -0.02      6.04      2.41 
   234.60     13.24   7278.91     -0.01      4.68      2.00 
   234.70     13.24   7279.50     -0.00      5.70      2.35 
   234.80     13.25   7280.10      0.00      5.27      2.71 
   234.90     13.25   7280.95     -0.01      5.36      1.82 
   235.00     13.24   7280.78     -0.01      4.34      1.41 
   235.10     13.24   7277.80     -0.01      0.00      1.88 
   235.20     13.24   7275.68     -0.01     -2.64      3.18 
   235.30     13.24   7275.17     -0.01     -3.49      2.00 
   235.40     13.25   7274.57     -0.00     -4.17      2.00 
   235.50     13.24   7274.66      0.00     -4.68      2.29 
   235.60     13.25   7274.15      0.01     -4.68      2.06 
   235.70     13.26   7273.47      0.01     -6.04      0.82 
   235.80     13.27   7274.66      0.02     -5.44      1.18 
   235.90     13.26   7274.40      0.02     -6.46      1.12 
   236.00     13.26   7275.00      0.01     -5.78      2.00 
   236.10     13.26   7275.34      0.02     -2.55      2.29 
   236.20     13.25   7274.83      0.01     -1.45      2.24 
   236.30     13.26   7275.17      0.02      0.00      2.65 
   236.40     13.25   7275.85      0.01      1.87      1.18 
   236.50     13.26   7276.53      0.01      2.04      1.59 
   236.60     13.26   7276.36      0.01      2.38      1.18 
   236.70     13.26   7276.27     -0.00      2.81      2.06 
   236.80     13.26   7275.68     -0.01      1.02      1.65 
   236.90     13.26   7276.27     -0.00      1.87      1.18 
   237.00     13.25   7276.19     -0.01      1.02      3.12 
   237.10     13.26   7276.19     -0.00      0.85      1.94 
   237.20     13.26   7276.10      0.02      1.45      1.53 
   237.30     13.25   7275.68     -0.01      0.00      0.82 
   237.40     13.26   7275.68     -0.00     -0.17      2.24 
   237.50     13.26   7276.27      0.00     -0.26      3.24 
   237.60     13.27   7276.27      0.01      0.51      2.94 
   237.70     13.27   7275.85      0.01     -0.43      2.94 
   237.80     13.27   7276.27      0.01      1.02      1.18 
   237.90     13.26   7275.76      0.00     -0.68      2.71 
   238.00     13.26   7276.27      0.00      0.09      2.94 
   238.10     13.26   7276.19      0.01     -0.43      1.59 
   238.20     13.26   7276.27     -0.01     -0.34      1.12 
   238.30     13.26   7276.53      0.00      0.68      1.12 
   238.40     13.26   7276.61      0.01      0.26      1.41 
   238.50     13.27   7276.87      0.01      0.43      1.82 
   238.60     13.26   7277.55     -0.00      1.79      1.47 
   238.70     13.26   7277.29     -0.01      1.45      1.12 
   238.80     13.26   7277.63     -0.01      1.36      1.53 
   238.90     13.26   7278.06      0.00      2.30      1.41 
   239.00     13.26   7277.89      0.01      1.11      1.47 
   239.10     13.27   7277.89      0.00      1.11      0.76 
   239.20     13.27   7277.89      0.01      1.79      1.59 
   239.30     13.26   7279.50      0.00      3.57      3.53 
   239.40     13.26   7280.10      0.00      4.08      2.29 
   239.50     13.27   7279.59     -0.00      2.89      1.47 
   239.60     13.27   7280.18      0.00      3.15      4.18 
   239.70     13.26   7281.97      0.00      5.10      2.65 
   239.80     13.27   7283.24      0.01      5.70      1.41 
   239.90     13.26   7285.11     -0.00      6.55      2.76 
   240.00     13.26   7286.47     -0.00      8.59      1.24 
   240.10     13.26   7285.11     -0.00      6.80      2.82 
   240.20     13.27   7285.88     -0.00      7.57      2.35 
   240.30     13.27   7285.79      0.01      6.21      1.24 
   240.40     13.27   7285.88      0.01      5.78      1.12 
   240.50     13.27   7286.56     -0.00      7.06      1.53 
   240.60     13.28   7285.79      0.01      4.51      1.53 
   240.70     13.28   7285.88      0.02      3.83      1.88 
   240.80     13.27   7286.56      0.01      2.64      3.06 
   240.90     13.27   7286.47      0.01      0.68      2.65 
   241.00     13.26   7286.56      0.00      0.09      1.47 
   241.10     13.26   7285.88      0.00      0.77      1.82 
   241.20     13.26   7284.69     -0.00     -1.87      1.12 
   241.30     13.27   7285.28     -0.00     -0.51      2.35 
   241.40     13.27   7284.60      0.00     -1.96      1.82 
   241.50     13.27   7285.11      0.00     -1.45      0.71 
   241.60     13.27   7285.20     -0.00     -0.60      1.53 
   241.70     13.27   7285.28     -0.01     -0.60      2.76 
   241.80     13.26   7285.96     -0.01     -0.60      1.59 
   241.90     13.27   7285.88      0.01     -0.60      0.41 
   242.00     13.26   7285.79      0.00     -0.09      1.88 
   242.10     13.26   7285.20      0.00     -0.68      1.88 
   242.20     13.27   7285.79      0.01      1.11      1.47 
   242.30     13.27   7287.58      0.01      2.30      1.47 
   242.40     13.26   7291.57     -0.01      6.97      0.71 
   242.50     13.26   7292.59     -0.01      8.08      0.82 
   242.60     13.26   7294.89     -0.01      9.69      2.76 
   242.70     13.27   7296.17      0.00     10.88      3.12 
   242.80     13.29   7296.51      0.02      9.95      2.35 
   242.90     13.28   7298.04      0.01     12.16      0.76 
   243.00     13.29   7298.29      0.02     12.50      1.12 
   243.10     13.28   7297.36      0.02     12.16      1.06 
   243.20     13.30   7296.25      0.03     10.46      0.71 
   243.30     13.30   7297.19      0.03      9.10      2.59 
   243.40     13.31   7299.14      0.04      6.97      1.53 
   243.50     13.30   7298.97      0.03      6.38      1.53 
   243.60     13.30   7298.21      0.04      2.72      3.41 
   243.70     13.31   7298.12      0.03      1.53      3.12 
   243.80     13.30   7298.04      0.02      1.53      0.76 
   243.90     13.31   7295.91      0.02     -2.30      1.53 
   244.00     13.30   7295.32      0.02     -2.98      1.24 
   244.10     13.30   7294.89      0.01     -1.87      1.65 
   244.20     13.30   7296.59      0.00      0.51      3.53 
   244.30     13.29   7297.78     -0.01      0.17      1.59 
   244.40     13.29   7299.06     -0.01     -0.09      1.94 
   244.50     13.31   7303.82      0.01      5.36      1.88 
   244.60     13.31   7309.09      0.01     10.88      0.76 
   244.70     13.31   7310.02      0.01     11.22      1.59 
   244.80     13.31   7310.62      0.01     13.01      2.00 
   244.90     13.33   7309.43      0.02     13.52      1.53 
   245.00     13.34   7307.98      0.03     12.07      1.94 
   245.10     13.35   7307.90      0.04     12.92      2.00 
   245.20     13.35   7306.71      0.05     10.12      2.00 
   245.30     13.34   7305.18      0.06      6.80      0.76 
   245.40     13.35   7302.71      0.05      3.06      2.29 
   245.50     13.33   7301.52      0.02     -3.40      2.29 
   245.60     13.34   7300.08      0.03     -9.35      1.94 
   245.70     13.33   7302.54      0.02     -8.08      2.71 
   245.80     13.33   7300.93      0.03     -9.69      3.12 
   245.90     13.33   7298.63     -0.00    -10.80      1.82 
   246.00     13.33   7298.80     -0.01     -9.18      1.47 
   246.10     13.32   7298.21     -0.03     -9.10      1.59 
   246.20     13.31   7299.82     -0.04     -6.55      2.35 
   246.30     13.31   7301.61     -0.03     -2.98      2.76 
   246.40     13.30   7301.01     -0.04     -2.04      2.29 
   246.50     13.32   7301.01     -0.01     -0.51      2.24 
   246.60     13.32   7300.50     -0.02     -0.17      3.06 
