#Written by Robertson Geologging WinLogger V1.0/311
~VERSION INFORMATION
#------------------------------------------------------------------------------
 VERS. 2.0 : CWLS LOG ASCII STANDARD - VERSION 2.0
 WRAP. NO  : ONE LINE PER DEPTH STEP
~WELL INFORMATION
#MNEM.UNIT         DATA                                DESCRIPTION OF MNEMONIC
#------------------------------------------------------------------------------
 STRT.M         75.1000                            :   START DEPTH
 STOP.M        381.1000                            :   STOP DEPTH
 STEP.M          0.1000                            :   STEP VALUE
 NULL.        -999.2500                            :   NULL VALUE
 COMP.    IMC                                      :   COMPANY NAME
 WELL.    SOUTH SHAFT                              :   WELL NAME
 FLD.     HORDEN                                   :   FIELD NAME
 LOC.     N/A                                      :   LOCATION
 PROV.    N/A                                      :   PROVINCE
 SRVC.    N/A                                      :   SERVICE COMPANY NAME
 DATE.    03 Oct 03                                :   DATE
 UWI.     N/A                                      :   UNIQUE WELL IDENTIFIER
~PARAMETER INFORMATION
#MNEMO.UNIT         VALUE                 DESCRIPTION OF MNEMONIC
#------------------------------------------------------------------------------
~OTHER INFORMATION SECTION
#------------------------------------------------------------------------------
 TCDS 2822
~CURVE INFORMATION
#MNEMO.UNIT         API CODE              CURVE DESCRIPTION
#------------------------------------------------------------------------------
 DEPTH.M                                 :   0     Depth
 TEMP.DegC                               :   1     Temperature
 COND.uS/cm                              :   2     Conductivity
 DELT.DegC                               :   3     Delta T
 DELC.uS/cm                              :   4     Delta C
 NGAM.API                                :   5     Natural Gamma
#------------------------------------------------------------------------------
~A  DEPTH     TEMP      COND      DELT      DELC      NGAM      
# ...
   352.30     15.48  12548.90      0.01      0.26      1.82 
   352.40     15.47  12549.61      0.00      1.24      1.12 
   352.50     15.47  12548.99      0.02     -0.26      0.71 
   352.60     15.45  12548.46     -0.02     -0.44      0.35 
   352.70     15.47  12548.90     -0.00      0.53      1.41 
   352.80     15.47  12548.99      0.01     -0.35      1.06 
   352.90     15.45  12548.81     -0.01      0.09      0.71 
   353.00     15.47  12549.61      0.01      1.15      1.12 
   353.10     15.47  12548.99      0.01     -0.62      0.82 
   353.20     15.46  12548.99      0.00     -0.26      0.35 
   353.30     15.46  12549.87     -0.01      1.24      1.06 
   353.40     15.46  12549.87     -0.01      0.88      1.41 
   353.50     15.46  12549.61     -0.01      0.62      1.41 
   353.60     15.47  12549.61      0.01      0.88      1.12 
   353.70     15.46  12549.61     -0.01      0.09      1.47 
   353.80     15.48  12549.25      0.01     -0.35      1.12 
   353.90     15.47  12550.14      0.02      1.32      0.71 
   354.00     15.45  12550.22     -0.01      0.62      1.06 
   354.10     15.47  12549.61     -0.01      0.00      0.71 
   354.20     15.47  12550.22      0.01      0.88      0.71 
   354.30     15.47  12550.22      0.01      0.35      1.06 
   354.40     15.47  12549.69      0.01     -0.18      1.41 
   354.50     15.47  12550.22      0.01      1.24      0.71 
   354.60     15.46  12550.49     -0.00      0.88      1.06 
   354.70     15.46  12549.69      0.00     -0.53      0.71 
   354.80     15.47  12549.08     -0.01     -0.18      0.00 
   354.90     15.47  12550.22      0.00     -0.26      0.35 
   355.00     15.46  12550.14      0.01      0.53      0.71 
   355.10     15.46  12549.87     -0.01      0.53      0.71 
   355.20     15.46  12550.22     -0.01      0.00      1.06 
   355.30     15.46  12550.22     -0.01      0.00      0.71 
   355.40     15.47  12549.96     -0.00      0.26      1.06 
   355.50     15.47  12550.22     -0.00      0.35      1.41 
   355.60     15.46  12550.22      0.00     -0.26      1.06 
   355.70     15.47  12549.87      0.01      0.18      1.06 
   355.80     15.47  12550.84      0.00      0.62      0.71 
   355.90     15.47  12550.84     -0.01      0.62      0.00 
   356.00     15.47  12550.58      0.01      1.06      1.06 
   356.10     15.47  12550.75      0.01      0.53      1.41 
   356.20     15.46  12551.72      0.01      1.50      1.06 
   356.30     15.47  12550.84      0.01      0.62      0.71 
   356.40     15.47  12551.46      0.00      1.50      0.00 
   356.50     15.46  12551.81     -0.00      1.59      1.06 
   356.60     15.48  12550.84      0.01      0.00      1.06 
   356.70     15.48  12552.08      0.00      2.21      1.18 
   356.80     15.47  12551.72     -0.00      0.88      1.88 
   356.90     15.47  12551.11      0.00      0.26      2.88 
   357.00     15.47  12551.46      0.00      1.24      1.82 
   357.10     15.48  12551.46      0.01      0.71      0.35 
   357.20     15.47  12551.11      0.01     -0.26      0.71 
   357.30     15.46  12551.37     -0.01      0.88      1.41 
   357.40     15.47  12551.46      0.00      0.00      0.71 
   357.50     15.47  12550.84      0.00     -0.97      0.71 
   357.60     15.48  12551.19     -0.00      0.35      1.06 
   357.70     15.47  12551.46     -0.01      0.00      1.76 
   357.80     15.49  12551.19      0.03      0.09      0.71 
   357.90     15.48  12551.11      0.01      0.26      0.76 
   358.00     15.47  12551.37     -0.00     -0.09      0.35 
   358.10     15.47  12550.84     -0.01     -1.24      0.35 
   358.20     15.47  12552.08      0.00      0.97      0.71 
   358.30     15.47  12551.11      0.01     -0.26      0.71 
   358.40     15.46  12551.11     -0.01     -0.97      0.71 
   358.50     15.47  12551.72      0.00      0.88      1.41 
   358.60     15.45  12551.46     -0.03      0.26      0.71 
   358.70     15.48  12551.19      0.00     -0.26      0.71 
   358.80     15.47  12551.19     -0.02      0.00      1.41 
   358.90     15.46  12551.46     -0.02      0.35      1.41 
   359.00     15.48  12550.84      0.01     -0.88      0.71 
   359.10     15.47  12551.11     -0.00      0.26      1.41 
   359.20     15.47  12551.72     -0.00      0.26      1.12 
   359.30     15.47  12551.72      0.00      0.62      1.18 
   359.40     15.47  12551.46      0.01      0.35      0.76 
   359.50     15.48  12551.72      0.01      0.00      1.41 
   359.60     15.48  12551.99      0.03      0.53      1.06 
   359.70     15.47  12551.46     -0.01      0.26      0.71 
   359.80     15.48  12552.08      0.01      0.26      1.76 
   359.90     15.46  12551.81      0.01      0.35      2.12 
   360.00     15.48  12551.46     -0.00      0.00      1.41 
   360.10     15.47  12552.08      0.01      0.09      0.71 
   360.20     15.47  12551.72      0.00     -0.00      0.35 
   360.30     15.46  12551.99     -0.01      0.88      0.71 
   360.40     15.48  12552.34      0.00      0.88      0.00 
   360.50     15.47  12551.90     -0.01      0.18      0.41 
   360.60     15.47  12551.37     -0.01     -0.97      0.76 
   360.70     15.47  12552.34      0.01      0.88      0.35 
   360.80     15.47  12552.96     -0.01      1.15      0.00 
   360.90     15.47  12551.81      0.00      0.00      0.35 
   361.00     15.47  12552.70     -0.01      1.24      0.35 
   361.10     15.47  12552.70     -0.00      0.62      0.41 
   361.20     15.48  12552.52      0.00      0.79      0.00 
   361.30     15.48  12552.96      0.01      0.97      0.35 
   361.40     15.47  12552.87     -0.01      0.79      1.06 
   361.50     15.47  12552.34      0.01      0.44      2.18 
   361.60     15.47  12553.49      0.00      1.50      0.71 
   361.70     15.46  12552.96     -0.01      0.35      1.47 
   361.80     15.46  12552.34     -0.01     -0.62      1.47 
   361.90     15.48  12553.40      0.01      1.59      1.06 
   362.00     15.47  12553.22     -0.00      0.53      1.06 
   362.10     15.47  12552.61      0.00     -0.09      0.71 
   362.20     15.48  12553.14      0.00      0.62      0.71 
   362.30     15.48  12553.67      0.01      0.71      1.06 
   362.40     15.48  12553.05      0.01      0.18      0.71 
   362.50     15.48  12553.49      0.01      1.15      0.71 
   362.60     15.48  12553.22      0.01      0.00      0.71 
   362.70     15.48  12552.87      0.01     -0.09      1.82 
   362.80     15.48  12552.87      0.01      0.00      2.18 
   362.90     15.46  12553.93     -0.02      0.53      1.82 
   363.00     15.47  12553.93      0.00      0.71      1.47 
   363.10     15.48  12553.67      0.00      1.06      0.35 
   363.20     15.48  12553.67     -0.00      0.00      0.35 
   363.30     15.49  12553.93      0.00      0.26      0.41 
   363.40     15.47  12553.05     -0.00      0.53      0.76 
   363.50     15.47  12554.81     -0.02      1.32      0.41 
   363.60     15.48  12558.52     -0.00      5.30      1.12 
   363.70     15.47  12605.05     -0.00     51.64      0.35 
   363.80     15.47  12812.51     -0.00    258.49      0.71 
   363.90     15.47  13161.29      0.01    607.36      1.06 
   364.00     15.48  13434.55      0.01    881.77      0.71 
   364.10     15.49  13616.23      0.02   1063.09      1.06 
   364.20     15.53  13731.39      0.05   1177.72      1.82 
   364.30     15.57  13802.75      0.09   1249.44      1.41 
   364.40     15.60  13896.33      0.12   1343.28      0.76 
   364.50     15.63  13984.08      0.16   1429.27      1.06 
   364.60     15.67  14062.70      0.19   1503.65      1.12 
   364.70     15.70  14150.29      0.22   1532.00      1.59 
   364.80     15.71  14434.18      0.25   1593.11      2.29 
   364.90     15.73  15241.52      0.26   2042.03      3.24 
   365.00     15.75  17090.28      0.27   3635.13      2.47 
   365.10     15.82  19567.87      0.32   5936.09      0.71 
   365.20     15.90  23982.56      0.37  10243.79      1.06 
   365.30     16.02  40434.71      0.45  26623.67      1.76 
   365.40     16.18  44768.97      0.58  30863.20      2.47 
