#Written by Robertson Geologging WinLogger V1.0/312
~VERSION INFORMATION
#------------------------------------------------------------------------------
 VERS. 2.0 : CWLS LOG ASCII STANDARD - VERSION 2.0
 WRAP. NO  : ONE LINE PER DEPTH STEP
~WELL INFORMATION
#MNEM.UNIT         DATA                                DESCRIPTION OF MNEMONIC
#------------------------------------------------------------------------------
 STRT.M         72.1000                            :   START DEPTH
 STOP.M        377.0000                            :   STOP DEPTH
 STEP.M          0.1000                            :   STEP VALUE
 NULL.        -999.2500                            :   NULL VALUE
 COMP.    I.M..C.                                  :   COMPANY NAME
 WELL.    Horden Shaft                             :   WELL NAME
 FLD.     Horden                                   :   FIELD NAME
 LOC.     N/A                                      :   LOCATION
 PROV.    N/A                                      :   PROVINCE
 SRVC.    N/A                                      :   SERVICE COMPANY NAME
 DATE.    30 Jan 04                                :   DATE
 UWI.     N/A                                      :   UNIQUE WELL IDENTIFIER
~PARAMETER INFORMATION
#MNEMO.UNIT         VALUE                 DESCRIPTION OF MNEMONIC
#------------------------------------------------------------------------------
~OTHER INFORMATION SECTION
#------------------------------------------------------------------------------
 TCGX extended range 1365
~CURVE INFORMATION
#MNEMO.UNIT         API CODE              CURVE DESCRIPTION
#------------------------------------------------------------------------------
 DEPTH.M                                 :   0     Depth
 COND.mS/cm                              :   1     Conductivity
 TEMP.DegC                               :   2     Temperature
 C@25.mS/cm                              :   3     Conductivity @25Deg
 DELT.DegC                               :   4     Delta T
 DC@25.mS/cm                             :   5     Delta C @25Deg
 OUT4.CPS                                :   6     Natural Gamma
#------------------------------------------------------------------------------
~A  DEPTH     COND      TEMP      C@25      DELT      DC@25     OUT4      
# ...
   106.00     10.33     15.05     16.09      0.00      0.00      0.00 
   106.10     10.33     15.06     16.08      0.02     -0.03      0.35 
   106.20     10.33     15.06     16.09      0.00     -0.00      0.71 
   106.30     10.33     15.04     16.10     -0.01      0.01      0.76 
   106.40     10.33     15.05     16.10     -0.01      0.01      0.41 
   106.50     10.33     15.04     16.11     -0.01      0.01      0.00 
   106.60     10.33     15.04     16.11     -0.01      0.02      0.82 
   106.70     10.33     15.05     16.10     -0.01      0.01      2.65 
   106.80     10.33     15.04     16.11     -0.01      0.02      3.41 
   106.90     10.33     15.04     16.10     -0.00      0.00      2.71 
   107.00     10.33     15.05     16.10     -0.01      0.01      1.94 
   107.10     10.33     15.04     16.11     -0.02      0.02      1.18 
   107.20     10.33     15.04     16.10     -0.01      0.01      0.82 
   107.30     10.33     15.04     16.12     -0.01      0.00      1.53 
   107.40     10.33     15.04     16.12     -0.01      0.02      1.47 
   107.50     10.33     15.04     16.12     -0.00      0.01      1.24 
   107.60     10.33     15.05     16.10      0.01     -0.01      1.65 
   107.70     10.33     15.04     16.10      0.00      0.00      2.00 
   107.80     10.33     15.04     16.10      0.00     -0.01      0.76 
   107.90     10.33     15.04     16.11     -0.00      0.01      0.35 
   108.00     10.33     15.04     16.11     -0.00      0.00      0.71 
   108.10     10.33     15.03     16.12     -0.02      0.02      1.88 
   108.20     10.33     15.04     16.11     -0.00      0.00      2.29 
   108.30     10.33     15.04     16.10      0.01     -0.01      1.24 
   108.40     10.33     15.04     16.11      0.00     -0.00      1.24 
   108.50     10.33     15.04     16.11      0.00     -0.00      2.06 
   108.60     10.33     15.03     16.12     -0.02      0.02      2.06 
   108.70     10.33     15.04     16.12     -0.01      0.02      0.41 
   108.80     10.33     15.05     16.09      0.01     -0.01      0.00 
   108.90     10.33     15.03     16.12     -0.01      0.01      0.82 
   109.00     10.33     15.03     16.12     -0.01      0.01      1.59 
   109.10     10.33     15.03     16.13     -0.00      0.00      1.94 
   109.20     10.33     15.04     16.12     -0.01      0.01      1.88 
   109.30     10.33     15.03     16.12     -0.01      0.02      1.12 
   109.40     10.33     15.04     16.12     -0.00      0.01      1.18 
   109.50     10.33     15.03     16.13     -0.01      0.01      1.24 
   109.60     10.33     15.04     16.11      0.01     -0.01      1.24 
   109.70     10.33     15.04     16.12     -0.00      0.00      1.12 
   109.80     10.33     15.04     16.11     -0.01      0.02      1.18 
   109.90     10.33     15.03     16.12     -0.00     -0.00      1.24 
   110.00     10.33     15.04     16.12      0.00      0.00      0.82 
   110.10     10.33     15.03     16.12      0.01     -0.01      0.35 
   110.20     10.33     15.04     16.11      0.00     -0.01      0.00 
   110.30     10.33     15.02     16.14     -0.01      0.01      0.00 
   110.40     10.33     15.03     16.13     -0.00      0.00      0.76 
   110.50     10.33     15.03     16.12      0.00     -0.01      1.12 
   110.60     10.33     15.03     16.12     -0.01      0.01      1.53 
   110.70     10.33     15.04     16.12     -0.00     -0.00      1.94 
   110.80     10.33     15.03     16.12     -0.00      0.01      1.18 
   110.90     10.33     15.04     16.12      0.00     -0.00      0.35 
   111.00     10.33     15.03     16.12     -0.00      0.00      1.18 
   111.10     10.33     15.04     16.12      0.00     -0.00      1.18 
   111.20     10.33     15.04     16.12      0.00      0.00      0.71 
   111.30     10.34     15.04     16.11      0.02     -0.02      0.35 
   111.40     10.33     15.04     16.12      0.01     -0.01      1.06 
   111.50     10.34     15.04     16.12      0.00      0.00      0.82 
   111.60     10.34     15.04     16.11      0.01     -0.01      1.65 
   111.70     10.34     15.04     16.11      0.01     -0.00      2.71 
   111.80     10.33     15.04     16.11      0.01     -0.01      1.12 
   111.90     10.34     15.05     16.11      0.01     -0.01      0.41 
   112.00     10.33     15.05     16.10      0.02     -0.02      0.35 
   112.10     10.34     15.04     16.12      0.00     -0.00      0.71 
   112.20     10.34     15.05     16.10      0.01     -0.02      1.12 
   112.30     10.34     15.04     16.11      0.00      0.00      1.06 
   112.40     10.33     15.04     16.11      0.00     -0.01      0.35 
   112.50     10.34     15.05     16.11      0.01     -0.01      0.35 
   112.60     10.33     15.04     16.11     -0.00      0.00      0.41 
   112.70     10.33     15.04     16.11      0.00     -0.00      0.82 
   112.80     10.34     15.03     16.13     -0.01      0.02      0.76 
   112.90     10.34     15.05     16.11      0.00      0.00      1.12 
   113.00     10.34     15.04     16.11     -0.00      0.00      1.53 
   113.10     10.33     15.04     16.11      0.00     -0.00      1.94 
   113.20     10.34     15.05     16.10      0.00      0.00      1.59 
   113.30     10.34     15.05     16.10      0.01     -0.01      1.12 
   113.40     10.34     15.04     16.12     -0.01      0.01      0.71 
   113.50     10.33     15.05     16.11      0.00     -0.01      0.76 
   113.60     10.34     15.05     16.10      0.01     -0.01      0.71 
   113.70     10.34     15.05     16.10      0.01     -0.01      0.35 
   113.80     10.34     15.05     16.11      0.01     -0.02      0.41 
   113.90     10.34     15.05     16.10      0.00     -0.01      1.24 
   114.00     10.34     15.04     16.11      0.00      0.00      1.12 
   114.10     10.34     15.04     16.12     -0.01      0.01      0.76 
   114.20     10.34     15.05     16.10      0.00     -0.00      1.24 
   114.30     10.34     15.05     16.11      0.00     -0.00      2.00 
   114.40     10.34     15.04     16.11      0.01     -0.01      1.18 
   114.50     10.33     15.04     16.12     -0.01      0.01      0.35 
   114.60     10.34     15.05     16.11     -0.01      0.01      0.76 
   114.70     10.34     15.04     16.11     -0.00      0.01      0.76 
   114.80     10.34     15.05     16.10      0.00     -0.01      1.24 
   114.90     10.34     15.05     16.10      0.00     -0.01      2.29 
   115.00     10.34     15.06     16.10      0.01     -0.01      1.06 
   115.10     10.34     15.05     16.10      0.01     -0.02      0.41 
   115.20     10.34     15.05     16.10      0.00     -0.00      0.00 
   115.30     10.34     15.04     16.11     -0.01      0.01      0.82 
   115.40     10.34     15.03     16.13     -0.01      0.01      1.53 
   115.50     10.34     15.04     16.12      0.00      0.00      1.12 
   115.60     10.34     15.05     16.11      0.01     -0.01      1.59 
   115.70     10.33     15.05     16.11     -0.00      0.00      1.53 
   115.80     10.34     15.04     16.12     -0.01      0.02      0.71 
   115.90     10.34     15.04     16.12     -0.01      0.02      1.53 
   116.00     10.34     15.05     16.10     -0.01      0.01      1.59 
   116.10     10.34     15.04     16.12     -0.01      0.02      1.88 
   116.20     10.34     15.05     16.10     -0.00      0.00      1.82 
   116.30     10.34     15.04     16.12      0.00     -0.00      1.94 
   116.40     10.34     15.04     16.11      0.00     -0.01      1.18 
   116.50     10.34     15.05     16.11      0.01     -0.01      0.35 
   116.60     10.34     15.04     16.11     -0.00      0.01      0.35 
   116.70     10.34     15.06     16.09      0.01     -0.02      0.35 
   116.80     10.34     15.05     16.10      0.01     -0.02      1.59 
   116.90     10.34     15.05     16.10      0.01     -0.01      1.18 
   117.00     10.34     15.06     16.10      0.01     -0.01      2.71 
   117.10     10.34     15.06     16.10      0.01     -0.02      1.53 
   117.20     10.34     15.05     16.10      0.01     -0.01      0.82 
