#Written by Robertson Geologging WinLogger V1.0/311
~VERSION INFORMATION
#------------------------------------------------------------------------------
 VERS. 2.0 : CWLS LOG ASCII STANDARD - VERSION 2.0
 WRAP. NO  : ONE LINE PER DEPTH STEP
~WELL INFORMATION
#MNEM.UNIT         DATA                                DESCRIPTION OF MNEMONIC
#------------------------------------------------------------------------------
 STRT.M         75.1000                            :   START DEPTH
 STOP.M        381.1000                            :   STOP DEPTH
 STEP.M          0.1000                            :   STEP VALUE
 NULL.        -999.2500                            :   NULL VALUE
 COMP.    IMC                                      :   COMPANY NAME
 WELL.    SOUTH SHAFT                              :   WELL NAME
 FLD.     HORDEN                                   :   FIELD NAME
 LOC.     N/A                                      :   LOCATION
 PROV.    N/A                                      :   PROVINCE
 SRVC.    N/A                                      :   SERVICE COMPANY NAME
 DATE.    03 Oct 03                                :   DATE
 UWI.     N/A                                      :   UNIQUE WELL IDENTIFIER
~PARAMETER INFORMATION
#MNEMO.UNIT         VALUE                 DESCRIPTION OF MNEMONIC
#------------------------------------------------------------------------------
~OTHER INFORMATION SECTION
#------------------------------------------------------------------------------
 TCDS 2822
~CURVE INFORMATION
#MNEMO.UNIT         API CODE              CURVE DESCRIPTION
#------------------------------------------------------------------------------
 DEPTH.M                                 :   0     Depth
 TEMP.DegC                               :   1     Temperature
 COND.uS/cm                              :   2     Conductivity
 DELT.DegC                               :   3     Delta T
 DELC.uS/cm                              :   4     Delta C
 NGAM.API                                :   5     Natural Gamma
#------------------------------------------------------------------------------
~A  DEPTH     TEMP      COND      DELT      DELC      NGAM      
# ...
   167.50     13.12   7337.66     -0.01      0.00      2.59 
   167.60     13.11   7337.66     -0.02     -0.17      2.53 
   167.70     13.11   7338.26     -0.01      0.51      1.88 
   167.80     13.12   7338.68      0.00      0.94      0.71 
   167.90     13.11   7338.77     -0.00      0.60      1.47 
   168.00     13.11   7339.87      0.00      2.04      1.53 
   168.10     13.11   7339.87     -0.01      2.72      1.06 
   168.20     13.12   7340.38     -0.00      3.32      4.41 
   168.30     13.12   7340.47     -0.01      3.23      2.59 
   168.40     13.11   7340.98      0.00      4.51      1.88 
   168.50     13.11   7342.09     -0.00      4.42      3.00 
   168.60     13.12   7341.83      0.01      3.66      2.24 
   168.70     13.12   7341.92      0.01      3.66      1.12 
   168.80     13.12   7341.74     -0.01      2.98      0.71 
   168.90     13.12   7342.43      0.00      3.66      1.12 
   169.00     13.11   7342.43      0.00      2.55      2.59 
   169.10     13.12   7343.19      0.01      3.23      1.47 
   169.20     13.11   7343.28     -0.01      2.81      2.12 
   169.30     13.11   7343.19     -0.01      2.72      3.29 
   169.40     13.12   7342.43      0.00      1.45      3.06 
   169.50     13.11   7342.09     -0.01      0.00      1.94 
   169.60     13.11   7342.17     -0.01     -0.34      1.88 
   169.70     13.11   7341.66     -0.00     -0.77      2.18 
   169.80     13.12   7341.83     -0.00     -0.60      4.35 
   169.90     13.11   7341.23     -0.00     -1.19      3.12 
   170.00     13.12   7340.81      0.01     -1.11      2.71 
   170.10     13.12   7341.32      0.00     -1.36      2.18 
   170.20     13.12   7341.40      0.01     -1.19      2.53 
   170.30     13.11   7341.40      0.00     -1.19      2.94 
   170.40     13.11   7341.49     -0.00     -1.11      2.29 
   170.50     13.12   7341.40      0.02     -0.68      1.94 
   170.60     13.12   7341.06      0.01     -0.60      3.00 
   170.70     13.12   7341.57      0.00     -0.51      3.76 
   170.80     13.12   7342.17     -0.00      0.34      5.65 
   170.90     13.11   7341.57      0.00      0.77      1.82 
   171.00     13.12   7341.06     -0.01      0.26      1.12 
   171.10     13.11   7340.21     -0.01     -1.11      1.88 
   171.20     13.11   7341.49     -0.00      0.00      2.94 
   171.30     13.11   7341.49     -0.00      0.09      2.18 
   171.40     13.11   7341.83     -0.01      0.43      2.59 
   171.50     13.12   7342.34     -0.00      1.45      3.00 
   171.60     13.11   7342.43     -0.01      1.45      0.41 
   171.70     13.12   7343.62     -0.00      1.53      0.35 
   171.80     13.11   7343.11     -0.01      0.94      1.18 
   171.90     13.11   7342.94     -0.00      0.85      1.65 
   172.00     13.12   7343.53      0.00      2.04      1.94 
   172.10     13.12   7344.21      0.01      3.49      2.24 
   172.20     13.13   7343.79      0.02      2.30      1.82 
   172.30     13.12   7344.30      0.01      2.81      1.41 
   172.40     13.12   7344.64      0.01      2.81      1.06 
   172.50     13.12   7344.64     -0.01      2.30      1.59 
   172.60     13.12   7344.55      0.00      1.96      2.71 
   172.70     13.12   7343.87     -0.00      0.77      2.88 
   172.80     13.11   7344.47      0.01      1.96      1.88 
   172.90     13.11   7343.62      0.01      0.68      3.00 
   173.00     13.12   7343.02      0.00     -1.11      2.71 
   173.10     13.11   7343.11     -0.01     -0.60      2.29 
   173.20     13.11   7343.79     -0.02      0.00      2.59 
   173.30     13.11   7344.04     -0.01     -0.26      3.00 
   173.40     13.11   7345.83     -0.01      1.36      2.59 
   173.50     13.11   7345.91     -0.00      1.28      2.24 
   173.60     13.11   7348.12     -0.00      3.74      3.35 
   173.70     13.12   7350.17      0.00      6.12      2.59 
   173.80     13.11   7353.91     -0.00      9.44      3.59 
   173.90     13.10   7355.10     -0.01     11.06      3.59 
   174.00     13.12   7356.29     -0.00     12.84      3.06 
   174.10     13.10   7355.69     -0.01     12.16      3.41 
   174.20     13.11   7354.16     -0.01     10.97      2.71 
   174.30     13.11   7352.72     -0.00      8.51      2.59 
   174.40     13.10   7352.38     -0.01      6.38      2.18 
   174.50     13.10   7350.42     -0.01      4.34      2.29 
   174.60     13.11   7349.23     -0.00      0.77      2.65 
   174.70     13.11   7348.63     -0.01     -2.30      1.82 
   174.80     13.11   7349.14     -0.00     -5.36      1.41 
   174.90     13.10   7350.17     -0.00     -5.27      2.47 
   175.00     13.11   7350.76      0.00     -4.93      1.76 
   175.10     13.10   7353.91      0.00     -1.19      1.82 
   175.20     13.13   7367.01      0.02     12.84      1.47 
   175.30     13.12   7371.52      0.01     18.80      3.35 
   175.40     13.11   7372.03      0.01     19.65      3.29 
   175.50     13.09   7369.98     -0.01     19.90      1.76 
   175.60     13.09   7369.81     -0.02     21.10      2.94 
   175.70     13.09   7369.98     -0.01     21.69      3.06 
   175.80     13.09   7366.75     -0.03     17.95      2.65 
   175.90     13.09   7365.82     -0.01     15.65      2.12 
   176.00     13.10   7366.50     -0.02     15.74      3.18 
   176.10     13.10   7367.18     -0.01     12.16      3.24 
   176.20     13.10   7368.88     -0.03      0.34      4.24 
   176.30     13.08   7369.47     -0.03     -2.55      3.53 
   176.40     13.09   7369.39     -0.01     -2.64      2.12 
   176.50     13.09   7369.56      0.00      0.09      2.18 
   176.60     13.09   7365.48     -0.00     -4.34      1.41 
   176.70     13.09   7363.26     -0.00     -6.21      1.06 
   176.80     13.09   7361.99      0.00     -4.76      1.47 
   176.90     13.10   7359.52      0.01     -6.63      3.00 
   177.00     13.10   7360.63      0.01     -5.87      2.65 
   177.10     13.09   7359.27     -0.01     -7.91      3.24 
   177.20     13.09   7356.29     -0.00    -12.59      2.82 
   177.30     13.10   7357.65      0.02    -11.82      1.06 
   177.40     13.09   7347.87      0.00    -22.03      2.82 
   177.50     13.09   7345.83     -0.01    -23.22      3.18 
   177.60     13.11   7349.83      0.02    -15.65      1.76 
   177.70     13.11   7351.36      0.02    -11.91      1.47 
   177.80     13.10   7348.89      0.01    -11.99      0.76 
   177.90     13.11   7347.87      0.02    -11.65      1.06 
   178.00     13.11   7346.51      0.00    -14.63      0.71 
   178.10     13.11   7344.64      0.02    -14.12      2.35 
   178.20     13.12   7343.96      0.02    -12.93      2.59 
   178.30     13.11   7342.85      0.01    -14.54      1.12 
   178.40     13.12   7343.45      0.03     -3.91      1.47 
   178.50     13.12   7341.83      0.03     -4.34      1.76 
   178.60     13.11   7336.05     -0.01    -14.29      3.59 
   178.70     13.11   7326.61      0.00    -24.75      3.24 
   178.80     13.12   7321.25      0.02    -27.47      2.82 
   178.90     13.13   7319.72      0.01    -28.49      3.18 
   179.00     13.14   7321.08      0.03    -25.43      3.59 
   179.10     13.16   7321.08      0.05    -23.39      1.47 
   179.20     13.15   7320.06      0.04    -23.73      2.12 
   179.30     13.15   7319.72      0.04    -22.62      2.12 
   179.40     13.15   7319.89      0.04    -23.56      1.41 
   179.50     13.14   7321.93      0.02    -19.48      1.53 
   179.60     13.15   7321.59      0.05    -13.95      2.59 
   179.70     13.14   7323.12      0.03     -2.38      1.82 
   179.80     13.15   7323.89      0.03      3.15      0.71 
   179.90     13.15   7325.67      0.02      6.12      1.12 
   180.00     13.16   7324.82      0.02      3.74      1.76 
   180.10     13.14   7329.07     -0.02      8.50      2.47 
   180.20     13.13   7330.26     -0.02     10.37      2.12 
   180.30     13.14   7330.94     -0.00     11.74      1.41 
   180.40     13.14   7331.45     -0.01     11.40      0.71 
   180.50     13.14   7329.75      0.00      7.82      2.53 
   180.60     13.14   7331.54     -0.02      9.95      1.41 
