#Written by Robertson Geologging WinLogger V1.0/312
~VERSION INFORMATION
#------------------------------------------------------------------------------
 VERS. 2.0 : CWLS LOG ASCII STANDARD - VERSION 2.0
 WRAP. NO  : ONE LINE PER DEPTH STEP
~WELL INFORMATION
#MNEM.UNIT         DATA                                DESCRIPTION OF MNEMONIC
#------------------------------------------------------------------------------
 STRT.M         72.1000                            :   START DEPTH
 STOP.M        377.0000                            :   STOP DEPTH
 STEP.M          0.1000                            :   STEP VALUE
 NULL.        -999.2500                            :   NULL VALUE
 COMP.    I.M..C.                                  :   COMPANY NAME
 WELL.    Horden Shaft                             :   WELL NAME
 FLD.     Horden                                   :   FIELD NAME
 LOC.     N/A                                      :   LOCATION
 PROV.    N/A                                      :   PROVINCE
 SRVC.    N/A                                      :   SERVICE COMPANY NAME
 DATE.    30 Jan 04                                :   DATE
 UWI.     N/A                                      :   UNIQUE WELL IDENTIFIER
~PARAMETER INFORMATION
#MNEMO.UNIT         VALUE                 DESCRIPTION OF MNEMONIC
#------------------------------------------------------------------------------
~OTHER INFORMATION SECTION
#------------------------------------------------------------------------------
 TCGX extended range 1365
~CURVE INFORMATION
#MNEMO.UNIT         API CODE              CURVE DESCRIPTION
#------------------------------------------------------------------------------
 DEPTH.M                                 :   0     Depth
 COND.mS/cm                              :   1     Conductivity
 TEMP.DegC                               :   2     Temperature
 C@25.mS/cm                              :   3     Conductivity @25Deg
 DELT.DegC                               :   4     Delta T
 DC@25.mS/cm                             :   5     Delta C @25Deg
 OUT4.CPS                                :   6     Natural Gamma
#------------------------------------------------------------------------------
~A  DEPTH     COND      TEMP      C@25      DELT      DC@25     OUT4      
# ...
   151.20     10.42     15.18     16.02     -0.01      0.01      0.35 
   151.30     10.42     15.19     16.02     -0.00     -0.00      2.18 
   151.40     10.42     15.19     16.01      0.00     -0.00      0.71 
   151.50     10.42     15.19     16.01     -0.00     -0.00      0.35 
   151.60     10.42     15.19     16.01      0.01     -0.01      0.35 
   151.70     10.42     15.19     16.01      0.01     -0.01      0.71 
   151.80     10.42     15.19     16.01      0.00     -0.00      1.47 
   151.90     10.42     15.19     16.02     -0.00      0.01      1.88 
   152.00     10.42     15.19     16.02     -0.01      0.01      2.24 
   152.10     10.42     15.18     16.03     -0.01      0.01      1.47 
   152.20     10.42     15.18     16.03     -0.00      0.00      1.12 
   152.30     10.42     15.19     16.01      0.00      0.00      1.53 
   152.40     10.42     15.18     16.02     -0.00      0.01      1.53 
   152.50     10.42     15.18     16.02     -0.01      0.02      2.00 
   152.60     10.42     15.19     16.02     -0.00     -0.00      3.88 
   152.70     10.42     15.19     16.01     -0.01      0.02      1.88 
   152.80     10.42     15.18     16.03     -0.01      0.01      1.06 
   152.90     10.42     15.18     16.03     -0.01      0.01      1.88 
   153.00     10.42     15.19     16.02      0.00     -0.00      1.18 
   153.10     10.42     15.20     16.00      0.02     -0.03      1.12 
   153.20     10.42     15.19     16.01      0.01     -0.02      2.65 
   153.30     10.42     15.19     16.02     -0.00      0.01      2.12 
   153.40     10.42     15.19     16.01      0.01     -0.01      3.29 
   153.50     10.42     15.19     16.02      0.01     -0.01      2.24 
   153.60     10.42     15.19     16.00      0.00     -0.01      3.12 
   153.70     10.42     15.18     16.02     -0.00      0.01      3.06 
   153.80     10.42     15.19     16.02      0.01     -0.01      1.53 
   153.90     10.42     15.19     16.01      0.02     -0.02      0.00 
   154.00     10.42     15.18     16.03     -0.01      0.01      1.12 
   154.10     10.42     15.19     16.02     -0.01      0.02      1.47 
   154.20     10.42     15.18     16.02     -0.01      0.01      0.35 
   154.30     10.42     15.19     16.02      0.00     -0.00      1.06 
   154.40     10.42     15.18     16.03     -0.01      0.02      0.71 
   154.50     10.42     15.19     16.01      0.00     -0.00      1.53 
   154.60     10.42     15.19     16.01      0.00     -0.00      1.88 
   154.70     10.42     15.19     16.02      0.00      0.00      2.47 
   154.80     10.42     15.18     16.03     -0.01      0.02      1.06 
   154.90     10.42     15.18     16.02     -0.01      0.01      2.12 
   155.00     10.42     15.18     16.02      0.00     -0.00      2.94 
   155.10     10.42     15.19     16.02      0.00     -0.01      1.59 
   155.20     10.42     15.19     16.02      0.00     -0.00      1.12 
   155.30     10.42     15.19     16.02     -0.00      0.01      2.59 
   155.40     10.42     15.18     16.03      0.01     -0.01      1.41 
   155.50     10.42     15.18     16.02     -0.01      0.01      0.71 
   155.60     10.42     15.19     16.02     -0.01      0.01      1.06 
   155.70     10.42     15.19     16.01      0.00     -0.00      0.71 
   155.80     10.42     15.19     16.02      0.01     -0.01      1.06 
   155.90     10.42     15.19     16.01      0.01     -0.01      1.76 
   156.00     10.42     15.19     16.02      0.00     -0.00      2.53 
   156.10     10.42     15.18     16.03     -0.01      0.01      1.82 
   156.20     10.42     15.19     16.02      0.00     -0.00      0.76 
   156.30     10.42     15.19     16.01      0.01     -0.01      1.88 
   156.40     10.42     15.19     16.01      0.01     -0.01      3.00 
   156.50     10.42     15.19     16.01      0.01     -0.01      2.88 
   156.60     10.42     15.19     16.02      0.00     -0.00      2.65 
   156.70     10.42     15.19     16.02     -0.00      0.00      3.12 
   156.80     10.42     15.18     16.02     -0.01      0.01      1.12 
   156.90     10.42     15.19     16.02     -0.01      0.01      0.71 
   157.00     10.42     15.19     16.02      0.00     -0.00      1.47 
   157.10     10.42     15.19     16.01      0.01     -0.01      1.12 
   157.20     10.42     15.19     16.02      0.01     -0.01      0.76 
   157.30     10.42     15.19     16.01     -0.00      0.00      1.59 
   157.40     10.42     15.18     16.03     -0.01      0.02      1.59 
   157.50     10.42     15.18     16.03     -0.01      0.01      1.53 
   157.60     10.42     15.17     16.04     -0.01      0.01      1.18 
   157.70     10.42     15.18     16.04     -0.01      0.01      0.71 
   157.80     10.42     15.19     16.02      0.01     -0.01      1.88 
   157.90     10.42     15.19     16.02      0.00     -0.00      1.18 
   158.00     10.42     15.18     16.03     -0.01      0.01      0.41 
   158.10     10.42     15.18     16.03     -0.01      0.02      0.71 
   158.20     10.42     15.18     16.02     -0.01      0.01      3.18 
   158.30     10.42     15.18     16.03     -0.01      0.01      2.12 
   158.40     10.42     15.19     16.02      0.01     -0.01      1.88 
   158.50     10.42     15.18     16.03     -0.01      0.01      1.53 
   158.60     10.42     15.18     16.03      0.01     -0.01      0.76 
   158.70     10.42     15.18     16.03     -0.00      0.00      0.35 
   158.80     10.42     15.18     16.03     -0.01      0.01      1.53 
   158.90     10.42     15.18     16.03     -0.01      0.01      2.53 
   159.00     10.42     15.18     16.03     -0.00      0.01      0.71 
   159.10     10.43     15.18     16.03     -0.00      0.01      0.71 
   159.20     10.42     15.18     16.03     -0.00      0.00      1.53 
   159.30     10.43     15.18     16.03      0.00      0.00      1.59 
   159.40     10.42     15.19     16.02      0.00     -0.00      1.88 
   159.50     10.42     15.19     16.02      0.01     -0.02      1.76 
   159.60     10.43     15.19     16.02      0.01     -0.01      0.35 
   159.70     10.42     15.18     16.03      0.00     -0.00      0.71 
   159.80     10.42     15.18     16.03      0.00     -0.00      0.76 
   159.90     10.43     15.18     16.03      0.00     -0.00      1.12 
   160.00     10.43     15.19     16.02      0.01     -0.01      3.00 
   160.10     10.43     15.19     16.02      0.01     -0.01      3.35 
   160.20     10.43     15.18     16.03      0.00      0.00      1.47 
   160.30     10.43     15.19     16.02      0.00     -0.01      0.35 
   160.40     10.42     15.18     16.02     -0.00      0.01      1.88 
   160.50     10.43     15.18     16.03     -0.01      0.01      3.88 
   160.60     10.43     15.18     16.04     -0.01      0.01      2.41 
   160.70     10.43     15.19     16.02      0.01     -0.01      1.18 
   160.80     10.43     15.18     16.03      0.00     -0.00      0.35 
   160.90     10.43     15.18     16.04     -0.01      0.02      0.71 
   161.00     10.43     15.19     16.02      0.00     -0.00      2.82 
   161.10     10.43     15.19     16.03      0.00      0.00      2.82 
   161.20     10.43     15.18     16.03     -0.00      0.00      1.82 
   161.30     10.43     15.19     16.03     -0.00      0.01      1.94 
   161.40     10.43     15.19     16.02      0.01     -0.01      0.00 
   161.50     10.43     15.19     16.01      0.01     -0.02      0.00 
   161.60     10.43     15.19     16.02      0.01     -0.01      0.82 
   161.70     10.43     15.19     16.02     -0.00      0.01      1.59 
   161.80     10.43     15.19     16.03      0.01     -0.00      0.76 
   161.90     10.43     15.18     16.03      0.01     -0.01      1.59 
   162.00     10.43     15.19     16.03     -0.00      0.01      2.00 
   162.10     10.43     15.18     16.03     -0.00      0.01      1.12 
   162.20     10.43     15.19     16.02      0.01     -0.01      1.94 
   162.30     10.42     15.19     16.02      0.00     -0.01      3.47 
   162.40     10.43     15.18     16.03     -0.01      0.02      3.00 
