#Written by Robertson Geologging WinLogger V1.0/311
~VERSION INFORMATION
#------------------------------------------------------------------------------
 VERS. 2.0 : CWLS LOG ASCII STANDARD - VERSION 2.0
 WRAP. NO  : ONE LINE PER DEPTH STEP
~WELL INFORMATION
#MNEM.UNIT         DATA                                DESCRIPTION OF MNEMONIC
#------------------------------------------------------------------------------
 STRT.M         75.1000                            :   START DEPTH
 STOP.M        381.1000                            :   STOP DEPTH
 STEP.M          0.1000                            :   STEP VALUE
 NULL.        -999.2500                            :   NULL VALUE
 COMP.    IMC                                      :   COMPANY NAME
 WELL.    SOUTH SHAFT                              :   WELL NAME
 FLD.     HORDEN                                   :   FIELD NAME
 LOC.     N/A                                      :   LOCATION
 PROV.    N/A                                      :   PROVINCE
 SRVC.    N/A                                      :   SERVICE COMPANY NAME
 DATE.    03 Oct 03                                :   DATE
 UWI.     N/A                                      :   UNIQUE WELL IDENTIFIER
~PARAMETER INFORMATION
#MNEMO.UNIT         VALUE                 DESCRIPTION OF MNEMONIC
#------------------------------------------------------------------------------
~OTHER INFORMATION SECTION
#------------------------------------------------------------------------------
 TCDS 2822
~CURVE INFORMATION
#MNEMO.UNIT         API CODE              CURVE DESCRIPTION
#------------------------------------------------------------------------------
 DEPTH.M                                 :   0     Depth
 TEMP.DegC                               :   1     Temperature
 COND.uS/cm                              :   2     Conductivity
 DELT.DegC                               :   3     Delta T
 DELC.uS/cm                              :   4     Delta C
 NGAM.API                                :   5     Natural Gamma
#------------------------------------------------------------------------------
~A  DEPTH     TEMP      COND      DELT      DELC      NGAM      
# ...
   193.90     13.14   7339.11     -0.01     -0.51      2.88 
   194.00     13.14   7340.13     -0.02     -0.09      2.53 
   194.10     13.13   7340.13     -0.01     -0.09      1.41 
   194.20     13.13   7339.70      0.00      0.09      2.12 
   194.30     13.13   7339.79     -0.01     -0.43      2.82 
   194.40     13.13   7339.19     -0.00     -0.43      1.76 
   194.50     13.13   7338.51     -0.01     -1.19      1.41 
   194.60     13.14   7339.62     -0.00      0.43      2.82 
   194.70     13.14   7339.19      0.00      0.60      3.59 
   194.80     13.14   7340.72     -0.00      1.70      2.88 
   194.90     13.14   7339.62      0.00      0.51      1.06 
   195.00     13.13   7334.35      0.00     -5.78      1.06 
   195.10     13.13   7334.43     -0.00     -5.70      2.53 
   195.20     13.13   7334.43     -0.00     -5.27      2.88 
   195.30     13.14   7330.86      0.01     -8.84      1.47 
   195.40     13.14   7327.46      0.01    -11.74      2.53 
   195.50     13.15   7326.18      0.02    -12.84      2.12 
   195.60     13.14   7326.18      0.00    -13.44      0.71 
   195.70     13.14   7326.69      0.01    -13.01      1.47 
   195.80     13.14   7326.27      0.00    -14.46      2.18 
   195.90     13.14   7326.27     -0.00    -13.35      0.71 
   196.00     13.15   7325.50      0.02     -8.84      1.76 
   196.10     13.15   7326.10      0.03     -8.33      2.12 
   196.20     13.15   7326.27      0.01     -8.16      3.18 
   196.30     13.15   7326.18      0.01     -4.08      3.18 
   196.40     13.15   7325.76      0.01     -1.70      2.18 
   196.50     13.15   7325.25     -0.00     -0.94      1.82 
   196.60     13.15   7325.25      0.00     -0.94      1.41 
   196.70     13.14   7325.76      0.00     -0.43      2.82 
   196.80     13.16   7326.18      0.02      0.43      2.47 
   196.90     13.16   7326.18      0.02      0.00      1.41 
   197.00     13.16   7326.18      0.01      0.68      2.24 
   197.10     13.15   7326.86     -0.01      0.77      2.29 
   197.20     13.16   7326.69      0.01      0.43      2.88 
   197.30     13.16   7326.61      0.01      0.43      2.12 
   197.40     13.15   7324.74      0.00     -1.02      1.06 
   197.50     13.15   7323.21      0.00     -2.55      1.06 
   197.60     13.15   7322.18      0.01     -3.06      2.12 
   197.70     13.15   7322.27      0.00     -3.40      3.53 
   197.80     13.15   7322.10     -0.01     -4.08      1.76 
   197.90     13.15   7322.10     -0.01     -4.59      0.76 
   198.00     13.16   7323.04     -0.01     -3.83      1.47 
   198.10     13.16   7327.88      0.01      0.51      3.59 
   198.20     13.16   7328.48      0.00      1.79      2.88 
   198.30     13.15   7328.99     -0.00      2.89      3.65 
   198.40     13.15   7329.58      0.00      5.36      3.29 
   198.50     13.15   7332.05     -0.00      9.86      3.94 
   198.60     13.14   7332.73     -0.01     10.55      3.24 
   198.70     13.15   7333.33     -0.00     11.06      1.88 
   198.80     13.14   7333.33     -0.00     11.23      3.29 
   198.90     13.15   7333.92     -0.00     11.82      2.88 
   199.00     13.14   7333.92     -0.02     10.38      1.76 
   199.10     13.14   7333.33     -0.02      5.36      1.76 
   199.20     13.14   7332.13     -0.02      2.98      2.88 
   199.30     13.15   7331.37     -0.00      1.79      2.59 
   199.40     13.15   7331.45     -0.00      1.19      2.00 
   199.50     13.15   7330.86      0.00     -1.79      2.06 
   199.60     13.15   7330.18      0.00     -2.55      1.94 
   199.70     13.14   7331.96     -0.01     -1.36      1.12 
   199.80     13.14   7332.56     -0.00     -0.77      1.59 
   199.90     13.14   7331.37     -0.01     -2.55      1.59 
   200.00     13.15   7327.97      0.01     -5.95      3.94 
   200.10     13.14   7327.03     -0.00     -6.29      2.82 
   200.20     13.15   7324.99      0.01     -7.14      0.82 
   200.30     13.15   7324.48      0.00     -6.29      2.29 
   200.40     13.15   7324.40      0.00     -6.38      1.94 
   200.50     13.15   7324.31      0.01     -6.55      1.94 
   200.60     13.15   7325.08      0.00     -5.10      2.71 
   200.70     13.16   7327.54      0.02     -4.42      1.59 
   200.80     13.15   7329.33      0.01     -3.23      1.24 
   200.90     13.16   7333.24      0.01      1.19      2.41 
   201.00     13.15   7336.30      0.00      8.25      2.00 
   201.10     13.16   7336.13      0.02      9.01      1.94 
   201.20     13.15   7336.13      0.00     11.14      1.53 
   201.30     13.15   7334.86      0.00     10.97      0.82 
   201.40     13.16   7336.13      0.01     12.42      1.65 
   201.50     13.15   7337.24     -0.01     12.93      1.24 
   201.60     13.15   7337.83     -0.00     12.76      1.24 
   201.70     13.15   7339.02     -0.02     10.97      2.88 
   201.80     13.15   7339.11      0.00      9.10      2.41 
   201.90     13.15   7338.51     -0.01      4.00      2.41 
   202.00     13.14   7339.19     -0.01      2.89      2.47 
   202.10     13.14   7339.62     -0.02      3.49      4.06 
   202.20     13.13   7339.11     -0.02      3.57      2.35 
   202.30     13.14   7339.19     -0.02      4.34      3.88 
   202.40     13.14   7339.11     -0.02      2.98      3.88 
   202.50     13.14   7339.62     -0.01      2.38      1.18 
   202.60     13.14   7340.21     -0.01      1.87      0.41 
   202.70     13.14   7339.36     -0.01      0.94      1.59 
   202.80     13.14   7339.62     -0.01      1.11      2.76 
   202.90     13.14   7340.21     -0.01      1.70      1.59 
   203.00     13.14   7339.11      0.00     -0.09      0.82 
   203.10     13.14   7340.21      0.01      0.60      4.00 
   203.20     13.14   7339.70      0.01      0.51      4.76 
   203.30     13.14   7339.11      0.01     -0.60      2.41 
   203.40     13.14   7338.00      0.00     -1.70      3.47 
   203.50     13.15   7337.41      0.01     -2.13      3.06 
   203.60     13.15   7336.90      0.01     -3.23      1.59 
   203.70     13.14   7337.24      0.00     -2.13      0.76 
   203.80     13.14   7336.90      0.01     -3.32      0.82 
   203.90     13.15   7336.81      0.01     -3.40      2.76 
   204.00     13.14   7336.22      0.00     -2.98      1.65 
   204.10     13.13   7332.64     -0.01     -7.65      1.18 
   204.20     13.14   7331.28     -0.00     -8.42      1.12 
   204.30     13.14   7330.01      0.00     -8.50      1.53 
   204.40     13.14   7326.69      0.00    -11.23      1.12 
   204.50     13.14   7322.18     -0.01    -15.22      0.71 
   204.60     13.14   7318.19     -0.01    -18.71      0.76 
   204.70     13.15   7317.08      0.01    -20.15      1.12 
   204.80     13.15   7317.42      0.01    -19.39      1.88 
   204.90     13.16   7317.68      0.02    -19.13      2.82 
   205.00     13.16   7316.49      0.02    -19.13      3.59 
   205.10     13.16   7315.38      0.03    -17.26      3.47 
   205.20     13.16   7313.51      0.03    -17.77      3.18 
   205.30     13.16   7313.26      0.02    -16.75      1.65 
   205.40     13.17   7313.60      0.03    -12.67      1.18 
   205.50     13.16   7313.34      0.02     -8.25      2.71 
   205.60     13.16   7313.34      0.02     -4.85      3.12 
   205.70     13.17   7313.00      0.02     -4.42      2.82 
   205.80     13.18   7311.98      0.02     -5.44      2.47 
   205.90     13.18   7312.58      0.01     -4.76      4.00 
   206.00     13.17   7312.83      0.02     -3.32      1.59 
   206.10     13.17   7312.15      0.01     -3.49      1.94 
   206.20     13.18   7311.81      0.02     -1.70      2.71 
   206.30     13.18   7311.73      0.01     -2.38      3.18 
   206.40     13.18   7311.90      0.01     -1.70      4.35 
   206.50     13.17   7314.79      0.02      1.45      2.82 
   206.60     13.17   7313.60      0.00      0.51      3.18 
   206.70     13.17   7314.11      0.00      1.11      3.06 
   206.80     13.17   7314.11     -0.01      2.13      3.53 
   206.90     13.17   7314.11     -0.00      1.53      2.41 
   207.00     13.16   7314.28     -0.01      1.79      2.47 
