#Written by Robertson Geologging WinLogger V1.0/311
~VERSION INFORMATION
#------------------------------------------------------------------------------
 VERS. 2.0 : CWLS LOG ASCII STANDARD - VERSION 2.0
 WRAP. NO  : ONE LINE PER DEPTH STEP
~WELL INFORMATION
#MNEM.UNIT         DATA                                DESCRIPTION OF MNEMONIC
#------------------------------------------------------------------------------
 STRT.M         75.1000                            :   START DEPTH
 STOP.M        381.1000                            :   STOP DEPTH
 STEP.M          0.1000                            :   STEP VALUE
 NULL.        -999.2500                            :   NULL VALUE
 COMP.    IMC                                      :   COMPANY NAME
 WELL.    SOUTH SHAFT                              :   WELL NAME
 FLD.     HORDEN                                   :   FIELD NAME
 LOC.     N/A                                      :   LOCATION
 PROV.    N/A                                      :   PROVINCE
 SRVC.    N/A                                      :   SERVICE COMPANY NAME
 DATE.    03 Oct 03                                :   DATE
 UWI.     N/A                                      :   UNIQUE WELL IDENTIFIER
~PARAMETER INFORMATION
#MNEMO.UNIT         VALUE                 DESCRIPTION OF MNEMONIC
#------------------------------------------------------------------------------
~OTHER INFORMATION SECTION
#------------------------------------------------------------------------------
 TCDS 2822
~CURVE INFORMATION
#MNEMO.UNIT         API CODE              CURVE DESCRIPTION
#------------------------------------------------------------------------------
 DEPTH.M                                 :   0     Depth
 TEMP.DegC                               :   1     Temperature
 COND.uS/cm                              :   2     Conductivity
 DELT.DegC                               :   3     Delta T
 DELC.uS/cm                              :   4     Delta C
 NGAM.API                                :   5     Natural Gamma
#------------------------------------------------------------------------------
~A  DEPTH     TEMP      COND      DELT      DELC      NGAM      
# ...
   154.30     13.11   7323.72      0.01      0.77      3.12 
   154.40     13.11   7323.80      0.01      1.53      2.71 
   154.50     13.11   7323.97     -0.00      1.79      1.12 
   154.60     13.11   7323.46     -0.00      1.45      1.06 
   154.70     13.10   7323.97     -0.01      1.28      2.65 
   154.80     13.10   7323.89      0.00      0.85      2.65 
   154.90     13.11   7323.97      0.00      0.51      2.24 
   155.00     13.11   7324.31      0.01      0.94      2.18 
   155.10     13.11   7323.80      0.01      1.02      4.06 
   155.20     13.11   7324.23     -0.00      1.02      2.88 
   155.30     13.11   7324.91      0.00      1.11      1.47 
   155.40     13.11   7324.91      0.00      0.94      2.65 
   155.50     13.10   7324.82     -0.01      1.28      1.82 
   155.60     13.11   7324.91      0.01      1.45      1.76 
   155.70     13.11   7323.89      0.01     -0.09      1.82 
   155.80     13.10   7325.08     -0.00      0.77      2.65 
   155.90     13.10   7325.16     -0.01      0.68      1.88 
   156.00     13.11   7325.59     -0.00      1.28      1.88 
   156.10     13.11   7325.42      0.00      1.53      1.47 
   156.20     13.11   7324.99      0.00      0.60      2.29 
   156.30     13.12   7325.25      0.00      0.85      1.94 
   156.40     13.10   7326.01     -0.01      1.62      3.00 
   156.50     13.12   7325.59      0.02      1.19      3.82 
   156.60     13.12   7325.50      0.01      0.60      3.12 
   156.70     13.10   7324.91     -0.00      0.51      1.88 
   156.80     13.11   7325.50      0.01      0.43      2.65 
   156.90     13.11   7326.01      0.01      0.94      2.24 
   157.00     13.13   7326.10      0.01      1.02      1.82 
   157.10     13.11   7326.01     -0.01      0.68      3.29 
   157.20     13.11   7325.93      0.00      0.94      3.94 
   157.30     13.11   7325.42     -0.00      0.17      3.29 
   157.40     13.12   7326.10      0.02      0.60      2.29 
   157.50     13.11   7326.52     -0.01      0.94      1.47 
   157.60     13.11   7326.52     -0.01      1.11      2.65 
   157.70     13.11   7326.52      0.01      1.11      3.47 
   157.80     13.11   7325.93      0.00      0.00      1.59 
   157.90     13.11   7326.52     -0.01      0.51      1.53 
   158.00     13.12   7327.03     -0.01      0.94      1.12 
   158.10     13.11   7326.95      0.01      0.94      1.76 
   158.20     13.11   7326.44      0.00     -0.17      1.41 
   158.30     13.11   7326.52     -0.00      1.02      1.47 
   158.40     13.10   7327.12     -0.01      0.51      2.47 
   158.50     13.11   7327.12      0.00      0.51      2.82 
   158.60     13.11   7327.80      0.01      1.28      1.41 
   158.70     13.12   7327.12      0.01      0.51      1.59 
   158.80     13.11   7327.71      0.00      1.70      1.94 
   158.90     13.12   7327.20      0.01      0.68      2.29 
   159.00     13.11   7327.71     -0.00      0.77      0.82 
   159.10     13.12   7327.71      0.00      0.77      1.88 
   159.20     13.12   7328.31      0.00      1.79      3.35 
   159.30     13.12   7328.22      0.01      1.62      3.29 
   159.40     13.11   7327.71      0.01      0.60      2.18 
   159.50     13.11   7328.14     -0.01      1.02      2.24 
   159.60     13.11   7328.39      0.00      0.60      3.29 
   159.70     13.11   7328.39     -0.01      1.28      2.94 
   159.80     13.10   7328.90     -0.01      1.11      3.29 
   159.90     13.11   7328.56     -0.00      1.96      2.12 
   160.00     13.11   7328.82     -0.00      1.11      0.35 
   160.10     13.12   7328.82     -0.00      1.11      1.82 
   160.20     13.11   7328.82     -0.00      0.51      2.18 
   160.30     13.11   7328.90     -0.01      1.28      1.47 
   160.40     13.11   7328.82     -0.01      1.02      1.82 
   160.50     13.12   7328.56      0.02      0.34      1.53 
   160.60     13.10   7329.58     -0.02      1.11      2.65 
   160.70     13.10   7329.41     -0.01      1.02      2.47 
   160.80     13.10   7329.50     -0.00      0.51      2.18 
   160.90     13.12   7329.67      0.01      1.11      1.47 
   161.00     13.11   7329.07      0.00      0.17      2.94 
   161.10     13.12   7329.58     -0.00      0.68      2.18 
   161.20     13.12   7329.58      0.00      0.68      1.82 
   161.30     13.10   7329.41     -0.01      0.51      3.35 
   161.40     13.11   7329.67     -0.00      0.26      3.29 
   161.50     13.10   7328.99     -0.02     -0.17      1.47 
   161.60     13.12   7330.26      0.02      0.77      1.06 
   161.70     13.11   7330.18      0.01      1.36      4.18 
   161.80     13.11   7330.09      0.01      0.51      3.65 
   161.90     13.11   7330.18     -0.01      1.11      1.76 
   162.00     13.10   7330.01     -0.01      0.94      2.24 
   162.10     13.11   7329.75     -0.01      0.17      2.94 
   162.20     13.12   7330.86      0.01      0.68      1.76 
   162.30     13.11   7330.94      0.01      1.53      2.59 
   162.40     13.11   7330.77      0.00      0.43      2.18 
   162.50     13.11   7330.77      0.00      1.19      1.82 
   162.60     13.11   7330.26     -0.01      0.09      1.76 
   162.70     13.11   7331.45     -0.00      1.28      2.53 
   162.80     13.11   7331.54      0.00      1.45      1.94 
   162.90     13.12   7331.45      0.01      1.28      2.41 
   163.00     13.12   7331.54      0.01      0.85      3.18 
   163.10     13.11   7330.86      0.00      1.11      2.71 
   163.20     13.11   7331.28     -0.02      1.02      1.76 
   163.30     13.12   7331.37      0.01      1.02      2.12 
   163.40     13.11   7331.54      0.00      1.36      2.12 
   163.50     13.11   7331.54      0.00      0.77      0.71 
   163.60     13.12   7332.05      0.00      1.70      2.59 
   163.70     13.12   7331.03      0.01      0.17      2.18 
   163.80     13.11   7332.13     -0.01      1.19      1.06 
   163.90     13.11   7332.13     -0.01      1.28      2.24 
   164.00     13.10   7332.05     -0.01      1.11      2.59 
   164.10     13.12   7331.96      0.01      1.11      2.29 
   164.20     13.11   7331.54      0.00      0.26      3.06 
   164.30     13.11   7332.13     -0.01      0.09      3.00 
   164.40     13.11   7332.64      0.00      1.11      2.24 
   164.50     13.11   7331.96      0.00     -0.17      1.88 
   164.60     13.11   7332.64     -0.01      1.70      2.53 
   164.70     13.13   7331.54      0.01      0.51      1.06 
   164.80     13.11   7332.64      0.01      0.51      0.76 
   164.90     13.11   7332.73      0.00      1.19      2.29 
   165.00     13.11   7332.64      0.00      1.19      2.59 
   165.10     13.11   7333.33     -0.00      1.36      1.76 
   165.20     13.12   7332.64      0.01      1.11      1.41 
   165.30     13.11   7332.73      0.00      0.60      2.24 
   165.40     13.12   7333.92      0.01      1.96      3.24 
   165.50     13.12   7333.92      0.01      1.96      1.88 
   165.60     13.12   7334.43      0.01      2.38      0.82 
   165.70     13.11   7335.03     -0.02      3.49      2.94 
   165.80     13.11   7334.86     -0.00      2.21      2.94 
   165.90     13.11   7336.64     -0.01      3.91      2.24 
   166.00     13.12   7337.24      0.01      4.59      2.29 
   166.10     13.12   7337.15      0.01      3.83      4.47 
   166.20     13.12   7337.24     -0.00      4.59      3.29 
   166.30     13.12   7336.47      0.00      3.15      3.06 
   166.40     13.11   7337.24     -0.01      3.32      3.35 
   166.50     13.13   7337.15      0.01      3.23      2.94 
   166.60     13.13   7337.83      0.01      3.40      2.47 
   166.70     13.12   7337.83      0.01      2.81      2.53 
   166.80     13.12   7337.24      0.01      1.87      2.65 
   166.90     13.12   7337.66      0.01      1.02      3.29 
   167.00     13.11   7337.83     -0.01      1.19      2.59 
   167.10     13.12   7337.15     -0.00      0.60      1.41 
   167.20     13.12   7337.07      0.00      0.43      1.82 
   167.30     13.13   7337.24      0.02      1.36      3.29 
   167.40     13.11   7337.07     -0.00     -0.09      2.71 
