#Written by Robertson Geologging WinLogger V1.0/312
~VERSION INFORMATION
#------------------------------------------------------------------------------
 VERS. 2.0 : CWLS LOG ASCII STANDARD - VERSION 2.0
 WRAP. NO  : ONE LINE PER DEPTH STEP
~WELL INFORMATION
#MNEM.UNIT         DATA                                DESCRIPTION OF MNEMONIC
#------------------------------------------------------------------------------
 STRT.M         72.1000                            :   START DEPTH
 STOP.M        377.0000                            :   STOP DEPTH
 STEP.M          0.1000                            :   STEP VALUE
 NULL.        -999.2500                            :   NULL VALUE
 COMP.    I.M..C.                                  :   COMPANY NAME
 WELL.    Horden Shaft                             :   WELL NAME
 FLD.     Horden                                   :   FIELD NAME
 LOC.     N/A                                      :   LOCATION
 PROV.    N/A                                      :   PROVINCE
 SRVC.    N/A                                      :   SERVICE COMPANY NAME
 DATE.    30 Jan 04                                :   DATE
 UWI.     N/A                                      :   UNIQUE WELL IDENTIFIER
~PARAMETER INFORMATION
#MNEMO.UNIT         VALUE                 DESCRIPTION OF MNEMONIC
#------------------------------------------------------------------------------
~OTHER INFORMATION SECTION
#------------------------------------------------------------------------------
 TCGX extended range 1365
~CURVE INFORMATION
#MNEMO.UNIT         API CODE              CURVE DESCRIPTION
#------------------------------------------------------------------------------
 DEPTH.M                                 :   0     Depth
 COND.mS/cm                              :   1     Conductivity
 TEMP.DegC                               :   2     Temperature
 C@25.mS/cm                              :   3     Conductivity @25Deg
 DELT.DegC                               :   4     Delta T
 DC@25.mS/cm                             :   5     Delta C @25Deg
 OUT4.CPS                                :   6     Natural Gamma
#------------------------------------------------------------------------------
~A  DEPTH     COND      TEMP      C@25      DELT      DC@25     OUT4      
# ...
   185.10     10.72     15.67     15.72      0.00     -0.00     10.06 
   185.20     10.73     15.67     15.72      0.01     -0.01      6.59 
   185.30     10.72     15.67     15.71      0.00     -0.01      8.12 
   185.40     10.72     15.66     15.73     -0.01      0.01     11.82 
   185.50     10.72     15.67     15.72      0.01     -0.01      8.47 
   185.60     10.73     15.66     15.73     -0.01      0.01     10.18 
   185.70     10.72     15.67     15.72      0.01     -0.02      9.47 
   185.80     10.72     15.67     15.71      0.01     -0.01     11.65 
   185.90     10.72     15.67     15.71      0.01     -0.01     14.24 
   186.00     10.73     15.68     15.71      0.01     -0.01     12.94 
   186.10     10.72     15.68     15.71      0.01     -0.01     12.94 
   186.20     10.73     15.67     15.72     -0.00      0.01      9.41 
   186.30     10.72     15.67     15.72     -0.00      0.01      9.35 
   186.40     10.72     15.66     15.73      0.00     -0.00      7.65 
   186.50     10.72     15.66     15.73     -0.01      0.01      7.18 
   186.60     10.73     15.67     15.73      0.00     -0.01      6.24 
   186.70     10.72     15.67     15.72     -0.00      0.00      9.12 
   186.80     10.72     15.67     15.72     -0.00      0.00      7.53 
   186.90     10.72     15.67     15.72     -0.01      0.01      8.24 
   187.00     10.73     15.67     15.72     -0.01      0.01      8.76 
   187.10     10.72     15.66     15.73     -0.01      0.01      6.88 
   187.20     10.72     15.66     15.72     -0.01      0.01      5.12 
   187.30     10.72     15.66     15.73     -0.00     -0.00      4.47 
   187.40     10.73     15.67     15.72      0.00     -0.00      7.94 
   187.50     10.72     15.67     15.72      0.01     -0.01      5.88 
   187.60     10.72     15.67     15.72      0.00     -0.00      6.41 
   187.70     10.73     15.67     15.72      0.00     -0.00      7.71 
   187.80     10.73     15.68     15.71      0.01     -0.01      5.35 
   187.90     10.72     15.66     15.73     -0.01      0.01      7.18 
   188.00     10.73     15.67     15.73     -0.00      0.00      6.41 
   188.10     10.73     15.67     15.72      0.00     -0.00      5.71 
   188.20     10.73     15.66     15.73     -0.01      0.01      7.94 
   188.30     10.72     15.65     15.74     -0.01      0.02      7.65 
   188.40     10.72     15.66     15.73     -0.01      0.01      6.24 
   188.50     10.73     15.67     15.73      0.00      0.00      9.53 
   188.60     10.72     15.67     15.72     -0.00      0.00      8.59 
   188.70     10.72     15.66     15.73     -0.01      0.02      6.88 
   188.80     10.72     15.65     15.74     -0.02      0.03      5.29 
   188.90     10.72     15.66     15.73      0.00     -0.00      5.00 
   189.00     10.73     15.67     15.72      0.00      0.00      5.82 
   189.10     10.73     15.67     15.72      0.00     -0.00      7.29 
   189.20     10.73     15.67     15.72      0.02     -0.02      6.82 
   189.30     10.73     15.67     15.72      0.01     -0.02      6.29 
   189.40     10.73     15.67     15.72      0.01     -0.01      6.53 
   189.50     10.73     15.65     15.74     -0.02      0.02      3.65 
   189.60     10.72     15.65     15.74     -0.01      0.02      6.35 
   189.70     10.72     15.66     15.73      0.00     -0.00      7.24 
   189.80     10.73     15.67     15.72      0.01     -0.02      8.00 
   189.90     10.73     15.67     15.72      0.01     -0.01      8.59 
   190.00     10.72     15.66     15.73     -0.00      0.01      8.24 
   190.10     10.73     15.66     15.73     -0.00      0.01      6.88 
   190.20     10.73     15.67     15.72     -0.00      0.00      7.24 
   190.30     10.73     15.66     15.73     -0.00      0.00      5.06 
   190.40     10.73     15.66     15.73     -0.00      0.00      7.94 
   190.50     10.73     15.67     15.71      0.02     -0.03      6.65 
   190.60     10.72     15.66     15.72      0.01     -0.02      5.18 
   190.70     10.73     15.66     15.73     -0.01      0.01      3.94 
   190.80     10.73     15.67     15.72     -0.00      0.00      5.41 
   190.90     10.73     15.67     15.72     -0.01      0.01      6.76 
   191.00     10.73     15.67     15.72      0.01     -0.01     10.82 
   191.10     10.73     15.66     15.73     -0.01      0.01      9.06 
   191.20     10.73     15.67     15.73     -0.00      0.01      7.59 
   191.30     10.72     15.66     15.73      0.00     -0.00      7.00 
   191.40     10.73     15.66     15.73     -0.01      0.01      5.76 
   191.50     10.73     15.66     15.73     -0.01      0.02      5.47 
   191.60     10.73     15.66     15.73     -0.00      0.01      6.18 
   191.70     10.73     15.68     15.72      0.01     -0.02      6.47 
   191.80     10.73     15.67     15.72     -0.00      0.00      8.06 
   191.90     10.73     15.66     15.73     -0.00      0.01      6.53 
   192.00     10.73     15.66     15.73     -0.01      0.01      5.41 
   192.10     10.73     15.66     15.74     -0.00      0.00      8.82 
   192.20     10.73     15.66     15.74     -0.01      0.01      8.41 
   192.30     10.72     15.67     15.72      0.00     -0.01     10.29 
   192.40     10.73     15.66     15.73     -0.00      0.00      8.06 
   192.50     10.73     15.67     15.72      0.01     -0.01      7.00 
   192.60     10.73     15.67     15.73      0.00     -0.00      6.18 
   192.70     10.73     15.67     15.72     -0.01      0.01      9.06 
   192.80     10.73     15.67     15.72      0.01     -0.01     12.65 
   192.90     10.73     15.67     15.72      0.00     -0.00      8.59 
   193.00     10.73     15.67     15.73      0.00     -0.00      8.65 
   193.10     10.73     15.67     15.72      0.01     -0.01     10.65 
   193.20     10.73     15.67     15.72      0.01     -0.01     15.71 
   193.30     10.73     15.67     15.72      0.00      0.00     19.76 
   193.40     10.73     15.66     15.73      0.01     -0.01     17.12 
   193.50     10.73     15.66     15.73     -0.01      0.01     13.47 
   193.60     10.73     15.66     15.73     -0.01      0.01     17.41 
   193.70     10.73     15.66     15.73     -0.00      0.00     21.41 
   193.80     10.73     15.67     15.72     -0.01      0.01     22.47 
   193.90     10.73     15.66     15.74     -0.01      0.02     17.88 
   194.00     10.73     15.66     15.74     -0.01      0.01     16.71 
   194.10     10.73     15.66     15.73     -0.00     -0.00     16.88 
   194.20     10.73     15.67     15.73     -0.00      0.00     13.35 
   194.30     10.73     15.66     15.73     -0.01      0.01     15.65 
   194.40     10.73     15.66     15.74     -0.00      0.00     18.82 
   194.50     10.73     15.67     15.72      0.01     -0.01     15.06 
   194.60     10.73     15.67     15.73      0.01     -0.01     10.76 
   194.70     10.73     15.67     15.72      0.00     -0.00     15.35 
   194.80     10.73     15.67     15.72      0.01     -0.01     15.24 
   194.90     10.73     15.68     15.72      0.02     -0.02     17.76 
   195.00     10.73     15.66     15.73      0.00     -0.01     19.00 
   195.10     10.73     15.66     15.73     -0.00      0.00     15.65 
   195.20     10.73     15.66     15.73     -0.00      0.00     16.65 
   195.30     10.73     15.66     15.73      0.00     -0.01     20.00 
   195.40     10.73     15.67     15.72      0.01     -0.01     21.76 
   195.50     10.73     15.67     15.72     -0.00     -0.00     15.76 
   195.60     10.73     15.66     15.73     -0.00      0.00     11.65 
   195.70     10.73     15.66     15.73     -0.00      0.01     13.47 
   195.80     10.73     15.66     15.73     -0.01      0.02     17.47 
   195.90     10.73     15.67     15.73     -0.01      0.02     15.88 
   196.00     10.73     15.66     15.74     -0.00      0.00     13.12 
   196.10     10.73     15.66     15.74     -0.01      0.01     13.53 
   196.20     10.73     15.66     15.73      0.00     -0.00     16.82 
   196.30     10.73     15.67     15.73      0.00     -0.00     14.94 
