#Written by Robertson Geologging WinLogger V1.0/311
~VERSION INFORMATION
#------------------------------------------------------------------------------
 VERS. 2.0 : CWLS LOG ASCII STANDARD - VERSION 2.0
 WRAP. NO  : ONE LINE PER DEPTH STEP
~WELL INFORMATION
#MNEM.UNIT         DATA                                DESCRIPTION OF MNEMONIC
#------------------------------------------------------------------------------
 STRT.M         75.1000                            :   START DEPTH
 STOP.M        381.1000                            :   STOP DEPTH
 STEP.M          0.1000                            :   STEP VALUE
 NULL.        -999.2500                            :   NULL VALUE
 COMP.    IMC                                      :   COMPANY NAME
 WELL.    SOUTH SHAFT                              :   WELL NAME
 FLD.     HORDEN                                   :   FIELD NAME
 LOC.     N/A                                      :   LOCATION
 PROV.    N/A                                      :   PROVINCE
 SRVC.    N/A                                      :   SERVICE COMPANY NAME
 DATE.    03 Oct 03                                :   DATE
 UWI.     N/A                                      :   UNIQUE WELL IDENTIFIER
~PARAMETER INFORMATION
#MNEMO.UNIT         VALUE                 DESCRIPTION OF MNEMONIC
#------------------------------------------------------------------------------
~OTHER INFORMATION SECTION
#------------------------------------------------------------------------------
 TCDS 2822
~CURVE INFORMATION
#MNEMO.UNIT         API CODE              CURVE DESCRIPTION
#------------------------------------------------------------------------------
 DEPTH.M                                 :   0     Depth
 TEMP.DegC                               :   1     Temperature
 COND.uS/cm                              :   2     Conductivity
 DELT.DegC                               :   3     Delta T
 DELC.uS/cm                              :   4     Delta C
 NGAM.API                                :   5     Natural Gamma
#------------------------------------------------------------------------------
~A  DEPTH     TEMP      COND      DELT      DELC      NGAM      
# ...
   207.10     13.16   7312.24     -0.01      0.09      1.24 
   207.20     13.16   7310.96     -0.02     -1.36      1.59 
   207.30     13.17   7312.49     -0.01      0.17      1.47 
   207.40     13.17   7314.11     -0.01      1.62      1.59 
   207.50     13.17   7313.26      0.00     -1.53      2.35 
   207.60     13.17   7310.20      0.00     -2.81      3.12 
   207.70     13.17   7308.41      0.00     -5.70      4.35 
   207.80     13.18   7307.56      0.02     -6.89      3.12 
   207.90     13.18   7306.03      0.01     -8.08      3.18 
   208.00     13.17   7305.09      0.01     -8.93      2.41 
   208.10     13.17   7304.58      0.01     -7.91      2.00 
   208.20     13.18   7306.03      0.02     -5.53      0.82 
   208.30     13.19   7305.69      0.01     -6.80      1.65 
   208.40     13.18   7304.84      0.01     -9.27      1.24 
   208.50     13.19   7302.88      0.02    -10.12      0.82 
   208.60     13.17   7301.69     -0.00     -8.50      2.00 
   208.70     13.19   7301.95      0.01     -6.21      1.59 
   208.80     13.18   7301.86     -0.00     -5.70      1.18 
   208.90     13.19   7299.74      0.00     -6.29      1.94 
   209.00     13.18   7299.14      0.01     -5.19      3.18 
   209.10     13.18   7296.85      0.01     -7.48      2.82 
   209.20     13.18   7296.42      0.00     -9.01      2.76 
   209.30     13.18   7299.23     -0.00     -5.87      2.00 
   209.40     13.18   7299.74      0.01     -4.51      1.24 
   209.50     13.19   7302.12      0.00     -0.17      2.88 
   209.60     13.20   7299.65      0.02     -1.45      1.65 
   209.70     13.19   7300.42      0.01     -0.94      1.65 
   209.80     13.19   7301.69      0.02      0.00      2.00 
   209.90     13.19   7301.44      0.01      1.87      2.65 
   210.00     13.18   7301.95      0.00      2.98      3.47 
   210.10     13.18   7300.84      0.00      4.00      2.82 
   210.20     13.18   7300.33      0.00      3.91      3.59 
   210.30     13.20   7300.50      0.02      1.28      4.06 
   210.40     13.20   7301.27      0.01      1.36      2.29 
   210.50     13.19   7300.42     -0.00     -1.53      2.29 
   210.60     13.18   7298.63     -0.01     -1.36      1.24 
   210.70     13.19   7296.93     -0.00     -3.40      0.82 
   210.80     13.19   7296.93      0.00     -4.17      1.59 
   210.90     13.19   7295.15     -0.00     -6.29      1.18 
   211.00     13.19   7295.32      0.01     -7.23      2.65 
   211.10     13.19   7295.74      0.01     -5.10      2.24 
   211.20     13.20   7296.42      0.02     -3.91      1.18 
   211.30     13.19   7296.25     -0.01     -4.59      0.76 
   211.40     13.20   7296.34      0.00     -4.93      3.18 
   211.50     13.18   7296.34     -0.00     -4.08      2.41 
   211.60     13.20   7296.93      0.01     -1.70      2.88 
   211.70     13.20   7296.85      0.01     -0.77      2.76 
   211.80     13.21   7296.17      0.02     -0.77      3.47 
   211.90     13.21   7296.25      0.02      1.62      2.76 
   212.00     13.20   7296.85      0.01      0.94      2.35 
   212.10     13.19   7297.44     -0.00      1.11      1.47 
   212.20     13.18   7298.72     -0.01      2.38      1.53 
   212.30     13.21   7297.70      0.02      1.45      2.00 
   212.40     13.19   7296.93     -0.01      0.60      2.76 
   212.50     13.20   7298.46      0.02      2.13      2.71 
   212.60     13.19   7297.44     -0.00      1.11      2.29 
   212.70     13.19   7297.95     -0.00      1.70      3.24 
   212.80     13.20   7298.04     -0.01      2.30      2.88 
   212.90     13.19   7297.36     -0.02      1.11      1.59 
   213.00     13.19   7296.51     -0.00     -0.51      1.59 
   213.10     13.20   7295.83      0.01     -2.21      1.18 
   213.20     13.19   7296.51      0.01     -1.79      2.88 
   213.30     13.20   7296.51     -0.01     -1.19      1.65 
   213.40     13.20   7295.91      0.01     -1.62      2.00 
   213.50     13.19   7295.23     -0.01     -2.81      2.71 
   213.60     13.20   7295.83      0.01     -1.02      2.29 
   213.70     13.20   7297.36      0.01     -0.60      0.76 
   213.80     13.20   7299.57      0.00      1.70      2.00 
   213.90     13.19   7298.38     -0.00      0.43      2.00 
   214.00     13.20   7297.87      0.01      0.77      2.06 
   214.10     13.20   7298.55      0.00      2.13      2.00 
   214.20     13.20   7298.72      0.01      2.21      3.47 
   214.30     13.20   7298.12      0.01      2.30      2.41 
   214.40     13.20   7298.55      0.00      2.81      2.00 
   214.50     13.21   7298.55      0.02      3.32      2.35 
   214.60     13.20   7297.95      0.00      2.13      1.94 
   214.70     13.20   7298.55     -0.00      1.36      2.00 
   214.80     13.20   7297.53      0.00     -2.04      2.71 
   214.90     13.20   7298.55      0.01      0.00      1.88 
   215.00     13.20   7298.38     -0.00      0.34      0.00 
   215.10     13.20   7298.80      0.00      0.26      1.18 
   215.20     13.20   7299.74     -0.00      1.19      2.41 
   215.30     13.20   7300.25     -0.00      2.13      0.00 
   215.40     13.20   7299.14      0.00      0.60      0.76 
   215.50     13.19   7300.42     -0.02      2.30      1.18 
   215.60     13.19   7300.25     -0.01      2.30      2.24 
   215.70     13.20   7300.42     -0.00      2.30      1.65 
   215.80     13.19   7300.25     -0.01      2.55      3.59 
   215.90     13.20   7301.44     -0.00      3.49      2.41 
   216.00     13.20   7301.01      0.01      2.47      2.00 
   216.10     13.20   7301.61     -0.00      2.64      1.88 
   216.20     13.19   7302.46     -0.02      2.72      0.71 
   216.30     13.19   7302.54     -0.01      2.30      1.24 
   216.40     13.19   7303.05     -0.01      3.40      2.47 
   216.50     13.20   7302.63      0.01      1.87      1.65 
   216.60     13.19   7303.14     -0.01      2.89      1.94 
   216.70     13.19   7303.65     -0.00      3.40      0.76 
   216.80     13.19   7305.43     -0.00      4.59      0.76 
   216.90     13.20   7309.00     -0.00      7.57      0.00 
   217.00     13.20   7308.66     -0.01      7.48      2.00 
   217.10     13.19   7309.00     -0.00      6.80      2.00 
   217.20     13.18   7310.45     -0.00      7.99      1.94 
   217.30     13.19   7308.32      0.00      5.78      2.29 
   217.40     13.19   7309.60     -0.00      6.21      2.00 
   217.50     13.19   7308.41     -0.01      5.78      1.18 
   217.60     13.18   7306.62     -0.00      2.89      1.59 
   217.70     13.19   7300.25     -0.00     -4.00      1.24 
   217.80     13.19   7301.86      0.00     -4.42      1.24 
   217.90     13.19   7303.65     -0.01     -5.36      1.65 
   218.00     13.20   7305.69      0.00     -2.38      3.47 
   218.10     13.19   7309.26     -0.00      0.26      4.18 
   218.20     13.19   7309.60      0.01     -0.51      2.76 
   218.30     13.19   7309.60     -0.00      0.68      2.82 
   218.40     13.19   7307.81     -0.00     -1.79      3.29 
   218.50     13.19   7308.07      0.00     -0.34      2.06 
   218.60     13.18   7309.00     -0.01      3.57      0.71 
   218.70     13.18   7311.05     -0.01     10.46      1.47 
   218.80     13.18   7309.60     -0.01      7.40      2.76 
   218.90     13.18   7301.78     -0.01     -1.87      2.71 
   219.00     13.19   7296.59     -0.01     -9.44      1.94 
   219.10     13.19   7295.15     -0.00    -13.26      2.24 
   219.20     13.19   7292.34      0.00    -16.66      2.41 
   219.30     13.20   7290.64      0.01    -18.62      1.24 
   219.40     13.20   7290.13      0.02    -17.34      2.00 
   219.50     13.20   7289.28      0.01    -18.79      1.53 
   219.60     13.20   7290.04      0.03    -19.22      2.00 
   219.70     13.20   7290.64      0.02    -20.66      2.00 
   219.80     13.21   7292.34      0.03    -16.41      1.53 
   219.90     13.21   7289.28      0.03    -11.31      1.88 
   220.00     13.21   7287.66      0.02     -8.50      1.12 
   220.10     13.22   7286.56      0.03     -8.16      1.65 
   220.20     13.21   7287.66      0.02     -4.68      0.82 
