#Written by Robertson Geologging WinLogger V1.0/312
~VERSION INFORMATION
#------------------------------------------------------------------------------
 VERS. 2.0 : CWLS LOG ASCII STANDARD - VERSION 2.0
 WRAP. NO  : ONE LINE PER DEPTH STEP
~WELL INFORMATION
#MNEM.UNIT         DATA                                DESCRIPTION OF MNEMONIC
#------------------------------------------------------------------------------
 STRT.M         72.1000                            :   START DEPTH
 STOP.M        377.0000                            :   STOP DEPTH
 STEP.M          0.1000                            :   STEP VALUE
 NULL.        -999.2500                            :   NULL VALUE
 COMP.    I.M..C.                                  :   COMPANY NAME
 WELL.    Horden Shaft                             :   WELL NAME
 FLD.     Horden                                   :   FIELD NAME
 LOC.     N/A                                      :   LOCATION
 PROV.    N/A                                      :   PROVINCE
 SRVC.    N/A                                      :   SERVICE COMPANY NAME
 DATE.    30 Jan 04                                :   DATE
 UWI.     N/A                                      :   UNIQUE WELL IDENTIFIER
~PARAMETER INFORMATION
#MNEMO.UNIT         VALUE                 DESCRIPTION OF MNEMONIC
#------------------------------------------------------------------------------
~OTHER INFORMATION SECTION
#------------------------------------------------------------------------------
 TCGX extended range 1365
~CURVE INFORMATION
#MNEMO.UNIT         API CODE              CURVE DESCRIPTION
#------------------------------------------------------------------------------
 DEPTH.M                                 :   0     Depth
 COND.mS/cm                              :   1     Conductivity
 TEMP.DegC                               :   2     Temperature
 C@25.mS/cm                              :   3     Conductivity @25Deg
 DELT.DegC                               :   4     Delta T
 DC@25.mS/cm                             :   5     Delta C @25Deg
 OUT4.CPS                                :   6     Natural Gamma
#------------------------------------------------------------------------------
~A  DEPTH     COND      TEMP      C@25      DELT      DC@25     OUT4      
    72.10   -999.25   -999.25    105.24      0.00      0.00   -999.25 
    72.20   -999.25   -999.25    105.24      0.00      0.00   -999.25 
    72.30   -999.25   -999.25    105.24      0.00      0.00   -999.25 
    72.40   -999.25   -999.25    105.24      0.00      0.00   -999.25 
    72.50   -999.25   -999.25    105.24      0.00      0.00   -999.25 
    72.60   -999.25   -999.25    105.24      0.00      0.00   -999.25 
    72.70   -999.25   -999.25    105.24      0.00      0.00   -999.25 
    72.80   -999.25   -999.25    105.24      0.00      0.00   -999.25 
    72.90   -999.25   -999.25    105.24      0.00      0.00   -999.25 
    73.00   -999.25   -999.25    105.24      0.00      0.00   -999.25 
    73.10   -999.25   -999.25    105.24      0.00      0.00   -999.25 
    73.20   -999.25   -999.25    105.24      0.00      0.00   -999.25 
    73.30   -999.25   -999.25    105.24      0.00      0.00  12850.00 
    73.40   -999.25   -999.25    105.24      0.00      0.00   6059.82 
    73.50   -999.25     51.09   -720.96   1050.34   -826.20     17.00 
    73.60     61.33     38.45      3.75   1037.70    -89.39     19.00 
    73.70     11.78      9.40     34.73   1008.65    -79.39     18.59 
    73.80      0.77     10.20      9.09   1009.45    -96.14     15.76 
    73.90      0.77     10.20      9.09   1009.45    -96.15     16.53 
    74.00      0.77     10.20      9.09   1009.45    -96.14     15.41 
    74.10      0.77     10.18      9.11   1009.43    -96.13     15.94 
    74.20      0.77     10.15      9.13   1009.40    -96.10     16.24 
    74.30      0.77     10.12      9.16   1009.37    -96.07     13.94 
    74.40      0.77     10.11      9.18   1009.36    -96.06     15.29 
    74.50      0.77     10.14      9.15    -40.95    730.10     15.41 
    74.60      0.77     10.21      9.08    -24.25    -17.89     16.06 
    74.70      0.77     10.26      9.03      0.45     -8.34     22.88 
    74.80      0.77     10.35      8.96      0.15     -0.14     20.47 
    74.90      0.77     10.46      8.85      0.26     -0.24     16.71 
    75.00      0.77     10.57      8.75      0.38     -0.36     16.24 
    75.10      0.77     10.75      8.58      0.57     -0.54     15.35 
    75.20      0.77     10.87      8.46      0.72     -0.69     19.88 
    75.30      0.77     10.99      8.35      0.87     -0.83     13.88 
    75.40      0.77     11.10      8.24      0.99     -0.94     13.94 
    75.50      0.77     11.19      8.15      1.04     -1.01     15.94 
    75.60      0.77     11.30      8.03      1.09     -1.05     10.53 
    75.70      0.77     11.33      8.00      1.06     -1.02     12.00 
    75.80      0.77     11.30      8.03      0.94     -0.91     11.71 
    75.90      0.77     11.34      8.00      0.87     -0.84     11.18 
    76.00      0.77     11.42      7.92      0.83     -0.81     11.94 
    76.10      0.77     11.52      7.83      0.76     -0.74     15.47 
    76.20      0.77     11.66      7.69      0.78     -0.76     13.76 
    76.30      0.77     11.74      7.61      0.74     -0.73     17.53 
    76.40      0.77     11.79      7.55      0.68     -0.67     15.18 
    76.50      0.77     11.79      7.54      0.59     -0.58     15.88 
    76.60      0.77     11.83      7.52      0.52     -0.51     18.12 
    76.70      0.77     11.91      7.44      0.58     -0.57     18.88 
    76.80      0.77     11.96      7.38      0.66     -0.65     14.24 
    76.90      0.77     12.03      7.32      0.68     -0.67     14.12 
    77.00      0.77     12.09      7.26      0.66     -0.66     15.59 
    77.10      0.77     12.14      7.21      0.60     -0.60     18.65 
    77.20      0.77     12.18      7.16      0.51     -0.51     19.24 
    77.30      0.77     12.23      7.12      0.49     -0.48     16.47 
    77.40      0.77     12.29      7.05      0.50     -0.50     12.76 
    77.50      0.77     12.35      6.99      0.56     -0.56     12.76 
    77.60      0.77     12.38      6.97      0.54     -0.54      9.12 
    77.70      0.77     12.40      6.94      0.49     -0.49     10.18 
    77.80      0.77     12.43      6.91      0.46     -0.47     13.00 
    77.90      0.77     12.44      6.90      0.40     -0.41     13.18 
    78.00      0.77     12.43      6.90      0.34     -0.35     11.53 
    78.10      0.77     12.43      6.91      0.29     -0.29     15.12 
    78.20      0.77     12.44      6.90      0.25     -0.25     14.35 
    78.30      0.77     12.46      6.88      0.22     -0.23     16.71 
    78.40      0.77     12.47      6.87      0.17     -0.17     13.12 
    78.50      0.77     12.49      6.85      0.13     -0.13     11.29 
    78.60      0.77     12.48      6.86      0.10     -0.10     12.71 
    78.70      0.77     12.46      6.88      0.06     -0.06     12.00 
    78.80      0.77     12.46      6.87      0.03     -0.03     12.06 
    78.90      0.77     12.46      6.88      0.02     -0.02     15.00 
    79.00      0.77     12.48      6.86      0.04     -0.05     18.53 
    79.10      0.77     12.51      6.83      0.08     -0.08     14.06 
    79.20      0.77     12.54      6.80      0.09     -0.10     12.76 
    79.30      0.77     12.54      6.80      0.08     -0.08     15.82 
    79.40      0.77     12.55      6.79      0.08     -0.08     16.82 
    79.50      0.77     12.54      6.80      0.05     -0.05     14.35 
    79.60      0.77     12.53      6.81      0.04     -0.05     11.88 
    79.70      2.53     12.47      8.26      0.01      2.35     15.41 
    79.80      9.59     12.76     17.80      0.29     11.38     11.76 
    79.90      9.67     13.41     17.56      0.95     10.62      7.35 
    80.00      9.66     13.75     17.05      1.27     10.17      8.35 
    80.10      9.66     13.91     16.81      1.40      9.98      7.29 
    80.20      9.67     14.00     16.71      1.46      9.89      4.59 
    80.30      9.67     14.09     16.60      1.54      9.79      2.59 
    80.40      9.68     14.15     16.51      1.60      9.71      7.06 
    80.50      9.68     14.20     16.45      1.66      9.64      7.53 
    80.60      9.68     14.19     16.45      1.67      9.63      5.88 
    80.70      9.68     14.23     16.41      1.76      6.09      5.76 
    80.80      9.68     14.24     16.39      1.41     -1.89      3.88 
    80.90      9.69     14.23     16.41      0.78     -1.02      3.88 
    81.00      9.69     14.23     16.40      0.47     -0.59      3.06 
    81.10      9.69     14.25     16.39      0.32     -0.39      3.47 
    81.20      9.69     14.24     16.40      0.23     -0.28      3.88 
    81.30      9.69     14.24     16.40      0.15     -0.17      4.35 
    81.40      9.70     14.25     16.40      0.09     -0.10      6.47 
    81.50      9.69     14.24     16.39      0.05     -0.05      5.65 
    81.60      9.69     14.25     16.38      0.05     -0.06      5.35 
    81.70      9.69     14.24     16.40      0.01     -0.00      4.00 
    81.80      9.69     14.24     16.41     -0.00      0.01      3.82 
    81.90      9.69     14.22     16.43     -0.02      0.02      4.47 
    82.00      9.69     14.21     16.44     -0.02      0.03      3.29 
    82.10      9.69     14.22     16.43     -0.03      0.04      3.71 
    82.20      9.69     14.22     16.44     -0.02      0.03      2.65 
    82.30      9.69     14.21     16.44     -0.03      0.04      1.53 
    82.40      9.69     14.22     16.44     -0.03      0.04      2.59 
    82.50      9.70     14.23     16.43     -0.01      0.03      2.65 
    82.60      9.70     14.23     16.43     -0.02      0.05      3.12 
    82.70      9.70     14.23     16.43     -0.01      0.03      4.35 
    82.80      9.70     14.22     16.44     -0.01      0.03      5.41 
    82.90      9.71     14.23     16.43      0.02     -0.00      3.76 
    83.00      9.71     14.24     16.43      0.03     -0.01      2.94 
    83.10      9.71     14.26     16.40      0.04     -0.03      2.53 
    83.20      9.71     14.26     16.39      0.05     -0.04      5.35 
    83.30      9.71     14.26     16.40      0.05     -0.04      6.53 
