#Written by Robertson Geologging WinLogger V1.0/312
~VERSION INFORMATION
#------------------------------------------------------------------------------
 VERS. 2.0 : CWLS LOG ASCII STANDARD - VERSION 2.0
 WRAP. NO  : ONE LINE PER DEPTH STEP
~WELL INFORMATION
#MNEM.UNIT         DATA                                DESCRIPTION OF MNEMONIC
#------------------------------------------------------------------------------
 STRT.M         72.1000                            :   START DEPTH
 STOP.M        377.0000                            :   STOP DEPTH
 STEP.M          0.1000                            :   STEP VALUE
 NULL.        -999.2500                            :   NULL VALUE
 COMP.    I.M..C.                                  :   COMPANY NAME
 WELL.    Horden Shaft                             :   WELL NAME
 FLD.     Horden                                   :   FIELD NAME
 LOC.     N/A                                      :   LOCATION
 PROV.    N/A                                      :   PROVINCE
 SRVC.    N/A                                      :   SERVICE COMPANY NAME
 DATE.    30 Jan 04                                :   DATE
 UWI.     N/A                                      :   UNIQUE WELL IDENTIFIER
~PARAMETER INFORMATION
#MNEMO.UNIT         VALUE                 DESCRIPTION OF MNEMONIC
#------------------------------------------------------------------------------
~OTHER INFORMATION SECTION
#------------------------------------------------------------------------------
 TCGX extended range 1365
~CURVE INFORMATION
#MNEMO.UNIT         API CODE              CURVE DESCRIPTION
#------------------------------------------------------------------------------
 DEPTH.M                                 :   0     Depth
 COND.mS/cm                              :   1     Conductivity
 TEMP.DegC                               :   2     Temperature
 C@25.mS/cm                              :   3     Conductivity @25Deg
 DELT.DegC                               :   4     Delta T
 DC@25.mS/cm                             :   5     Delta C @25Deg
 OUT4.CPS                                :   6     Natural Gamma
#------------------------------------------------------------------------------
~A  DEPTH     COND      TEMP      C@25      DELT      DC@25     OUT4      
# ...
   286.80     13.31     16.95     16.98     -0.01      0.02      6.94 
   286.90     13.31     16.95     16.98     -0.00      0.00      7.94 
   287.00     13.31     16.96     16.96      0.00     -0.00      6.35 
   287.10     13.31     16.96     16.97      0.00     -0.00      6.88 
   287.20     13.31     16.95     16.97     -0.00      0.00      5.71 
   287.30     13.31     16.96     16.96      0.00     -0.01      6.59 
   287.40     13.31     16.96     16.96      0.00     -0.01      5.94 
   287.50     13.31     16.96     16.96      0.01     -0.01      5.41 
   287.60     13.31     16.96     16.96      0.01     -0.02      8.76 
   287.70     13.31     16.96     16.96      0.01     -0.02      9.24 
   287.80     13.31     16.95     16.98      0.00      0.00      6.94 
   287.90     13.31     16.95     16.97     -0.00     -0.00      6.24 
   288.00     13.31     16.96     16.97     -0.01      0.01      6.35 
   288.10     13.31     16.95     16.98     -0.00      0.00      3.47 
   288.20     13.31     16.95     16.98     -0.01      0.02      4.06 
   288.30     13.31     16.96     16.97     -0.00      0.01      5.00 
   288.40     13.31     16.96     16.97     -0.00      0.01      5.88 
   288.50     13.31     16.95     16.98     -0.02      0.03      7.24 
   288.60     13.30     16.95     16.98     -0.01      0.01      5.00 
   288.70     13.31     16.95     16.97     -0.01      0.02      6.29 
   288.80     13.31     16.95     16.97      0.00     -0.01      7.41 
   288.90     13.31     16.95     16.99     -0.01      0.02      7.59 
   289.00     13.31     16.96     16.96      0.01     -0.02      8.35 
   289.10     13.31     16.96     16.96      0.01     -0.01      5.12 
   289.20     13.31     16.96     16.97      0.00     -0.01      7.18 
   289.30     13.31     16.96     16.96      0.00     -0.00      7.18 
   289.40     13.31     16.96     16.96      0.00     -0.01      5.12 
   289.50     13.31     16.96     16.97      0.01     -0.02      3.65 
   289.60     13.31     16.96     16.96      0.01     -0.01      5.47 
   289.70     13.31     16.96     16.96      0.01     -0.01      7.24 
   289.80     13.31     16.96     16.97      0.00     -0.01      6.76 
   289.90     13.31     16.95     16.98      0.00     -0.01      5.76 
   290.00     13.30     16.96     16.96     -0.00     -0.00      4.65 
   290.10     13.31     16.96     16.97     -0.01      0.01      4.71 
   290.20     13.31     16.96     16.96      0.00     -0.00      5.47 
   290.30     13.31     16.95     16.97     -0.01      0.01      6.71 
   290.40     13.31     16.96     16.97     -0.00      0.01      5.65 
   290.50     13.31     16.96     16.96      0.00     -0.00      5.06 
   290.60     13.31     16.95     16.98     -0.01      0.01      8.71 
   290.70     13.31     16.95     16.97     -0.01      0.01      9.41 
   290.80     13.31     16.95     16.97     -0.00      0.00      9.65 
   290.90     13.31     16.95     16.98      0.00     -0.00      7.47 
   291.00     13.31     16.95     16.98     -0.01      0.02      7.06 
   291.10     13.31     16.96     16.97      0.00     -0.01      6.00 
   291.20     13.31     16.96     16.96      0.00     -0.01      5.06 
   291.30     13.31     16.96     16.96      0.01     -0.01      6.65 
   291.40     13.31     16.96     16.96      0.00     -0.00      7.41 
   291.50     13.31     16.95     16.97     -0.00      0.01      4.47 
   291.60     13.31     16.96     16.97      0.01     -0.01      4.24 
   291.70     13.31     16.95     16.98     -0.00      0.00      5.00 
   291.80     13.31     16.96     16.97      0.01     -0.01      8.82 
   291.90     13.31     16.96     16.96      0.01     -0.01     10.94 
   292.00     13.31     16.94     16.99     -0.01      0.01     10.12 
   292.10     13.31     16.96     16.96      0.00     -0.00      6.88 
   292.20     13.31     16.96     16.96     -0.00      0.01      5.59 
   292.30     13.31     16.96     16.97     -0.00      0.01      9.29 
   292.40     13.31     16.95     16.99     -0.01      0.02      8.71 
   292.50     13.31     16.96     16.97      0.00     -0.00      6.24 
   292.60     13.31     16.96     16.97      0.00     -0.00      5.06 
   292.70     13.31     16.95     16.98     -0.00      0.01      6.24 
   292.80     13.31     16.96     16.97     -0.00      0.00      7.71 
   292.90     13.31     16.95     16.97     -0.00      0.01      9.76 
   293.00     13.31     16.95     16.98      0.01     -0.01     10.65 
   293.10     13.31     16.95     16.98     -0.01      0.02      7.29 
   293.20     13.31     16.96     16.97      0.00      0.00      7.24 
   293.30     13.31     16.96     16.97      0.00     -0.00      7.18 
   293.40     13.31     16.96     16.97      0.01     -0.02      8.71 
   293.50     13.31     16.96     16.97     -0.00      0.01      9.94 
   293.60     13.31     16.96     16.97     -0.00      0.00      7.41 
   293.70     13.31     16.96     16.96      0.01     -0.02      7.35 
   293.80     13.31     16.96     16.97      0.00      0.00     10.59 
   293.90     13.31     16.96     16.96      0.01     -0.01      8.94 
   294.00     13.31     16.96     16.97      0.01     -0.01      9.00 
   294.10     13.31     16.95     16.98     -0.00      0.00      8.00 
   294.20     13.31     16.96     16.97     -0.00      0.00     10.00 
   294.30     13.31     16.96     16.97     -0.00      0.00      8.00 
   294.40     13.31     16.96     16.97      0.00     -0.01      4.94 
   294.50     13.31     16.96     16.97     -0.00      0.00      5.41 
   294.60     13.31     16.96     16.96      0.00     -0.01      6.24 
   294.70     13.31     16.96     16.97     -0.00      0.01      5.47 
   294.80     13.31     16.96     16.97      0.00     -0.00      9.06 
   294.90     13.31     16.96     16.97     -0.00      0.01      8.41 
   295.00     13.31     16.97     16.96      0.01     -0.02      5.47 
   295.10     13.31     16.95     16.99     -0.01      0.01      6.12 
   295.20     13.31     16.96     16.98      0.00      0.00      4.59 
   295.30     13.31     16.96     16.97     -0.00      0.00      8.06 
   295.40     13.31     16.95     16.98     -0.01      0.01      4.94 
   295.50     13.31     16.95     16.98     -0.01      0.01      7.35 
   295.60     13.31     16.96     16.96      0.00     -0.00      6.94 
   295.70     13.31     16.96     16.97      0.00     -0.00      7.35 
   295.80     13.31     16.96     16.97     -0.00      0.01      6.71 
   295.90     13.31     16.96     16.97     -0.00      0.00      6.24 
   296.00     13.31     16.96     16.97     -0.01      0.01      6.06 
   296.10     13.31     16.96     16.96      0.02     -0.02      5.71 
   296.20     13.31     16.96     16.96      0.01     -0.01      3.53 
   296.30     13.31     16.95     16.98      0.00     -0.00      6.24 
   296.40     13.31     16.96     16.97      0.01     -0.01      6.06 
   296.50     13.31     16.96     16.96      0.01     -0.03      8.00 
   296.60     13.31     16.96     16.96     -0.00      0.01     10.76 
   296.70     13.31     16.96     16.97      0.00      0.00      9.12 
   296.80     13.31     16.96     16.96      0.00     -0.01      7.65 
   296.90     13.31     16.96     16.97      0.00     -0.00      6.29 
   297.00     13.31     16.96     16.97     -0.00      0.00      7.00 
   297.10     13.31     16.96     16.97     -0.01      0.01      6.29 
   297.20     13.31     16.96     16.98     -0.01      0.01      8.18 
   297.30     13.31     16.96     16.96      0.01     -0.01      8.53 
   297.40     13.31     16.95     16.99     -0.01      0.01      7.18 
   297.50     13.31     16.95     16.99     -0.02      0.03      5.53 
   297.60     13.31     16.95     16.98     -0.01      0.01      6.47 
   297.70     13.31     16.97     16.96      0.00     -0.00      6.06 
   297.80     13.31     16.97     16.96      0.01     -0.01      6.29 
   297.90     13.31     16.95     16.98     -0.00      0.01      5.88 
   298.00     13.31     16.97     16.96      0.01     -0.01      5.24 
