#Written by Robertson Geologging WinLogger V1.0/311
~VERSION INFORMATION
#------------------------------------------------------------------------------
 VERS. 2.0 : CWLS LOG ASCII STANDARD - VERSION 2.0
 WRAP. NO  : ONE LINE PER DEPTH STEP
~WELL INFORMATION
#MNEM.UNIT         DATA                                DESCRIPTION OF MNEMONIC
#------------------------------------------------------------------------------
 STRT.M         75.1000                            :   START DEPTH
 STOP.M        381.1000                            :   STOP DEPTH
 STEP.M          0.1000                            :   STEP VALUE
 NULL.        -999.2500                            :   NULL VALUE
 COMP.    IMC                                      :   COMPANY NAME
 WELL.    SOUTH SHAFT                              :   WELL NAME
 FLD.     HORDEN                                   :   FIELD NAME
 LOC.     N/A                                      :   LOCATION
 PROV.    N/A                                      :   PROVINCE
 SRVC.    N/A                                      :   SERVICE COMPANY NAME
 DATE.    03 Oct 03                                :   DATE
 UWI.     N/A                                      :   UNIQUE WELL IDENTIFIER
~PARAMETER INFORMATION
#MNEMO.UNIT         VALUE                 DESCRIPTION OF MNEMONIC
#------------------------------------------------------------------------------
~OTHER INFORMATION SECTION
#------------------------------------------------------------------------------
 TCDS 2822
~CURVE INFORMATION
#MNEMO.UNIT         API CODE              CURVE DESCRIPTION
#------------------------------------------------------------------------------
 DEPTH.M                                 :   0     Depth
 TEMP.DegC                               :   1     Temperature
 COND.uS/cm                              :   2     Conductivity
 DELT.DegC                               :   3     Delta T
 DELC.uS/cm                              :   4     Delta C
 NGAM.API                                :   5     Natural Gamma
#------------------------------------------------------------------------------
~A  DEPTH     TEMP      COND      DELT      DELC      NGAM      
# ...
    88.30     10.88   1167.78     -0.02      0.49      1.88 
    88.40     10.86   1167.37     -0.02      0.57      1.88 
    88.50     10.88   1167.69     -0.00      0.49      0.76 
    88.60     10.87   1167.78     -0.00      0.49      0.35 
    88.70     10.89   1167.78     -0.00      0.57      1.47 
    88.80     10.87   1167.86     -0.02      0.57      1.47 
    88.90     10.87   1167.21     -0.01     -0.08      0.35 
    89.00     10.88   1167.69      0.00      0.41      2.35 
    89.10     10.88   1167.86      0.00      0.49      2.94 
    89.20     10.88   1168.34      0.01      1.05      2.18 
    89.30     10.88   1168.42      0.01      0.65      2.59 
    89.40     10.87   1168.34      0.01      0.49      2.71 
    89.50     10.87   1168.34     -0.00      0.65      1.59 
    89.60     10.87   1168.34     -0.00      0.57      3.00 
    89.70     10.89   1168.26     -0.00      0.49      1.41 
    89.80     10.87   1168.67     -0.00      0.81      1.53 
    89.90     10.87   1168.75      0.01      1.54      2.76 
    90.00     10.87   1168.26     -0.00      0.57      3.59 
    90.10     10.88   1168.34     -0.00      0.00      2.00 
    90.20     10.86   1168.18     -0.02     -0.16      0.76 
    90.30     10.87   1168.26     -0.01      0.41      1.06 
    90.40     10.86   1168.26     -0.01     -0.08      0.71 
    90.50     10.88   1168.75      0.00      0.41      1.12 
    90.60     10.87   1168.75     -0.00      0.41      1.47 
    90.70     10.86   1168.26     -0.03      0.00      1.47 
    90.80     10.86   1168.91     -0.01      0.73      1.12 
    90.90     10.86   1169.32     -0.01      1.05      1.82 
    91.00     10.86   1168.83     -0.01      0.57      1.82 
    91.10     10.87   1168.91     -0.01      0.08      1.47 
    91.20     10.86   1169.32      0.00      0.57      1.82 
    91.30     10.87   1168.99     -0.00      0.24      3.29 
    91.40     10.86   1168.91     -0.00      0.16      2.94 
    91.50     10.86   1169.24     -0.02      0.49      2.94 
    91.60     10.87   1169.40      0.00      1.14      4.00 
    91.70     10.86   1169.40      0.00      0.57      2.47 
    91.80     10.86   1169.40      0.00      0.49      1.94 
    91.90     10.87   1169.56      0.01      0.73      1.82 
    92.00     10.85   1169.32     -0.01      0.41      2.53 
    92.10     10.86   1169.24     -0.01      0.32      1.94 
    92.20     10.84   1169.24     -0.02      0.49      1.94 
    92.30     10.87   1168.75     -0.00     -0.32      1.47 
    92.40     10.86   1168.83      0.01     -0.08      1.47 
    92.50     10.88   1169.24      0.02      0.49      1.82 
    92.60     10.86   1169.40     -0.01      0.49      1.88 
    92.70     10.87   1169.48      0.01      0.65      1.53 
    92.80     10.86   1169.40      0.00      0.49      2.35 
    92.90     10.85   1169.24     -0.02      0.24      2.76 
    93.00     10.86   1169.32      0.01      0.49      2.35 
    93.10     10.85   1169.48     -0.01      0.73      1.76 
    93.20     10.86   1169.40      0.02      0.65      2.24 
    93.30     10.86   1169.48     -0.01      0.73      1.94 
    93.40     10.86   1169.24     -0.00     -0.08      1.53 
    93.50     10.85   1169.32     -0.03      0.08      1.18 
    93.60     10.86   1170.05     -0.00      0.57      1.88 
    93.70     10.86   1169.40     -0.01     -0.08      3.06 
    93.80     10.87   1169.15      0.01     -0.16      2.29 
    93.90     10.85   1169.32      0.00      0.08      1.18 
    94.00     10.85   1169.40     -0.01      0.00      1.94 
    94.10     10.86   1170.05      0.00      0.57      1.53 
    94.20     10.87   1169.48      0.01      0.08      1.53 
    94.30     10.85   1169.32     -0.00     -0.16      1.18 
    94.40     10.86   1169.32     -0.00      0.08      1.59 
    94.50     10.87   1169.80      0.02      0.00      0.82 
    94.60     10.86   1170.05     -0.00      0.57      2.35 
    94.70     10.86   1169.56     -0.00      0.24      3.12 
    94.80     10.86   1169.32     -0.01     -0.32      1.24 
    94.90     10.86   1169.40      0.00     -0.41      2.59 
    95.00     10.86   1169.48      0.01      0.08      2.88 
    95.10     10.85   1169.24     -0.00     -0.24      2.24 
    95.20     10.86   1169.40     -0.00     -0.08      1.59 
    95.30     10.86   1169.48      0.01     -0.41      1.24 
    95.40     10.86   1169.40     -0.00     -0.41      0.35 
    95.50     10.87   1169.32      0.01      0.00      2.24 
    95.60     10.85   1168.83     -0.00     -0.65      3.35 
    95.70     10.85   1169.40     -0.01     -0.16      3.06 
    95.80     10.86   1169.32      0.01     -0.49      2.35 
    95.90     10.86   1169.97      0.01      0.00      1.88 
    96.00     10.87   1169.88      0.01     -0.08      1.88 
    96.10     10.86   1169.80      0.00      0.08      1.12 
    96.20     10.86   1169.88      0.00      0.00      0.00 
    96.30     10.86   1169.97      0.00     -0.00      1.12 
    96.40     10.86   1169.80      0.00     -0.08      2.24 
    96.50     10.87   1169.72     -0.00     -0.08      1.53 
    96.60     10.86   1169.40      0.01      0.08      1.53 
    96.70     10.86   1169.97      0.01      0.00      2.94 
    96.80     10.86   1169.80     -0.00      0.00      2.53 
    96.90     10.86   1169.97     -0.00      0.00      1.12 
    97.00     10.85   1169.97     -0.01      0.57      1.24 
    97.10     10.87   1169.88      0.01      0.57      2.29 
    97.20     10.86   1169.32      0.00     -0.08      3.06 
    97.30     10.86   1169.48     -0.00      0.08      1.18 
    97.40     10.86   1169.48      0.00     -0.24      2.00 
    97.50     10.85   1169.80     -0.02      0.00      2.29 
    97.60     10.85   1169.72     -0.01     -0.24      2.65 
    97.70     10.86   1169.97     -0.00      0.00      3.00 
    97.80     10.84   1169.88     -0.02      0.57      1.12 
    97.90     10.84   1169.72     -0.01     -0.24      1.12 
    98.00     10.85   1169.88     -0.00      0.00      1.47 
    98.10     10.84   1169.97     -0.03      0.16      0.71 
    98.20     10.85   1169.88     -0.01      0.00      0.76 
    98.30     10.85   1169.80     -0.01     -0.24      1.94 
    98.40     10.85   1169.80     -0.01     -0.24      1.94 
    98.50     10.85   1169.97     -0.00      0.16      2.18 
    98.60     10.84   1169.40     -0.02     -0.41      3.35 
    98.70     10.85   1169.97     -0.01     -0.08      1.18 
    98.80     10.84   1169.97      0.00      0.08      1.12 
    98.90     10.84   1169.80     -0.00      0.57      0.76 
    99.00     10.84   1169.15     -0.01     -0.81      1.94 
    99.10     10.84   1169.88      0.00     -0.08      0.76 
    99.20     10.85   1169.80      0.00     -0.08      1.53 
    99.30     10.85   1170.05      0.00      0.73      3.71 
    99.40     10.85   1169.97      0.00      0.08      1.47 
    99.50     10.85   1169.88      0.00     -0.08      1.06 
    99.60     10.85   1169.97      0.01      0.08      3.76 
    99.70     10.84   1169.88     -0.01     -0.08      2.24 
    99.80     10.84   1169.80      0.00     -0.08      1.76 
    99.90     10.84   1170.13      0.00      0.32      1.06 
   100.00     10.85   1169.97      0.01      0.81      2.29 
   100.10     10.84   1169.97     -0.00      0.08      3.12 
   100.20     10.84   1169.88     -0.01      0.08      2.65 
   100.30     10.83   1169.88     -0.02     -0.16      3.41 
   100.40     10.84   1169.97     -0.01      0.08      3.06 
   100.50     10.84   1169.97     -0.00      0.08      1.18 
   100.60     10.84   1170.37     -0.00      0.41      1.65 
   100.70     10.85   1169.80      0.01     -0.16      1.59 
   100.80     10.84   1169.72      0.01     -0.08      1.94 
   100.90     10.85   1169.80      0.00     -0.24      1.59 
   101.00     10.84   1169.88     -0.00     -0.08      1.47 
   101.10     10.85   1169.88      0.00     -0.57      1.88 
   101.20     10.84   1170.05     -0.00      0.16      1.12 
   101.30     10.83   1170.05     -0.00     -0.41      1.47 
   101.40     10.84   1169.80     -0.01     -0.24      1.53 
