#Written by Robertson Geologging WinLogger V1.0/311
~VERSION INFORMATION
#------------------------------------------------------------------------------
 VERS. 2.0 : CWLS LOG ASCII STANDARD - VERSION 2.0
 WRAP. NO  : ONE LINE PER DEPTH STEP
~WELL INFORMATION
#MNEM.UNIT         DATA                                DESCRIPTION OF MNEMONIC
#------------------------------------------------------------------------------
 STRT.M         75.1000                            :   START DEPTH
 STOP.M        381.1000                            :   STOP DEPTH
 STEP.M          0.1000                            :   STEP VALUE
 NULL.        -999.2500                            :   NULL VALUE
 COMP.    IMC                                      :   COMPANY NAME
 WELL.    SOUTH SHAFT                              :   WELL NAME
 FLD.     HORDEN                                   :   FIELD NAME
 LOC.     N/A                                      :   LOCATION
 PROV.    N/A                                      :   PROVINCE
 SRVC.    N/A                                      :   SERVICE COMPANY NAME
 DATE.    03 Oct 03                                :   DATE
 UWI.     N/A                                      :   UNIQUE WELL IDENTIFIER
~PARAMETER INFORMATION
#MNEMO.UNIT         VALUE                 DESCRIPTION OF MNEMONIC
#------------------------------------------------------------------------------
~OTHER INFORMATION SECTION
#------------------------------------------------------------------------------
 TCDS 2822
~CURVE INFORMATION
#MNEMO.UNIT         API CODE              CURVE DESCRIPTION
#------------------------------------------------------------------------------
 DEPTH.M                                 :   0     Depth
 TEMP.DegC                               :   1     Temperature
 COND.uS/cm                              :   2     Conductivity
 DELT.DegC                               :   3     Delta T
 DELC.uS/cm                              :   4     Delta C
 NGAM.API                                :   5     Natural Gamma
#------------------------------------------------------------------------------
~A  DEPTH     TEMP      COND      DELT      DELC      NGAM      
# ...
   325.90     15.35  10552.93     -0.00      0.52      0.35 
   326.00     15.35  10553.02     -0.00      0.52      1.12 
   326.10     15.35  10552.24     -0.01     -0.78      1.12 
   326.20     15.35  10552.50     -0.02     -0.44      0.76 
   326.30     15.35  10552.41      0.00      0.17      0.41 
   326.40     15.34  10552.50     -0.01     -0.44      1.59 
   326.50     15.33  10552.41     -0.02     -0.70      2.59 
   326.60     15.35  10552.93      0.01     -0.09      1.94 
   326.70     15.35  10553.02     -0.00      0.61      1.18 
   326.80     15.34  10552.32     -0.00     -0.61      0.00 
   326.90     15.35  10553.02     -0.01      0.09      1.12 
   327.00     15.35  10552.93      0.01     -0.09      1.82 
   327.10     15.34  10552.41     -0.01      0.17      1.06 
   327.20     15.33  10552.41     -0.01     -0.09      1.41 
   327.30     15.34  10553.02     -0.01      0.61      1.41 
   327.40     15.35  10553.02      0.01      0.52      0.71 
   327.50     15.34  10552.93      0.01     -0.09      1.06 
   327.60     15.34  10552.50     -0.01      0.09      1.76 
   327.70     15.35  10553.02      0.01      0.00      2.18 
   327.80     15.35  10552.93      0.00      0.61      2.59 
   327.90     15.34  10552.41     -0.01     -0.09      1.12 
   328.00     15.34  10551.80     -0.01     -1.13      1.53 
   328.10     15.34  10552.41     -0.00      0.00      2.59 
   328.20     15.34  10552.50      0.00      0.09      2.53 
   328.30     15.34  10551.80      0.00     -1.22      1.82 
   328.40     15.34  10552.41     -0.01     -0.09      2.18 
   328.50     15.34  10552.41      0.01     -0.52      0.35 
   328.60     15.34  10552.41     -0.00     -0.09      1.47 
   328.70     15.34  10551.28     -0.01     -1.74      1.12 
   328.80     15.34  10552.41     -0.00      0.00      1.12 
   328.90     15.34  10551.89      0.01     -0.52      1.88 
   329.00     15.35  10552.50      0.00      0.09      0.82 
   329.10     15.34  10550.50     -0.00     -1.91      0.41 
   329.20     15.33  10551.02     -0.00     -1.48      1.12 
   329.30     15.34  10551.89     -0.00      0.09      1.12 
   329.40     15.35  10550.67      0.01     -1.74      1.06 
   329.50     15.34  10550.67      0.00     -1.74      1.76 
   329.60     15.35  10550.67      0.02     -1.74      1.76 
   329.70     15.35  10550.67      0.01     -1.13      0.71 
   329.80     15.35  10549.28      0.00     -3.13      1.18 
   329.90     15.34  10550.06      0.00     -1.83      1.18 
   330.00     15.34  10550.06     -0.01     -2.44      1.18 
   330.10     15.34  10550.58      0.00      0.09      0.41 
   330.20     15.33  10552.32     -0.01      0.61      0.71 
   330.30     15.33  10566.77     -0.01     14.88      1.41 
   330.40     15.33  10601.77     -0.02     51.10      1.76 
   330.50     15.33  10657.07     -0.01    105.79      1.41 
   330.60     15.33  10708.30     -0.03    157.63      0.35 
   330.70     15.34  10738.19     -0.01    187.52      0.41 
   330.80     15.34  10755.36     -0.01    205.47      0.35 
   330.90     15.33  10762.77     -0.01    212.70      0.76 
   331.00     15.34  10772.44     -0.00    221.77      0.41 
   331.10     15.35  10778.89      0.02    228.31      0.76 
   331.20     15.34  10785.78      0.01    232.85      0.76 
   331.30     15.35  10797.64      0.02    228.34      1.82 
   331.40     15.35  10813.77      0.01    207.64      1.41 
   331.50     15.35  10861.39      0.02    198.05      0.82 
   331.60     15.35  10986.10      0.02    274.40      1.24 
   331.70     15.35  11068.97      0.01    328.60      0.82 
   331.80     15.35  11180.57      0.01    424.60      1.12 
   331.90     15.37  11284.02      0.04    520.12      1.12 
   332.00     15.37  11411.03      0.04    637.71      0.76 
   332.10     15.38  11527.79      0.03    748.37      0.71 
   332.20     15.39  11634.31      0.05    847.39      0.71 
   332.30     15.39  11799.72      0.04   1001.04      0.76 
   332.40     15.40  11944.39      0.05   1128.18      1.82 
   332.50     15.40  12011.90      0.06   1141.26      1.41 
   332.60     15.41  12084.64      0.06   1087.28      1.12 
   332.70     15.42  12141.56      0.07   1063.86      1.12 
   332.80     15.42  12186.19      0.06    993.73      2.29 
   332.90     15.41  12225.72      0.04    931.46      2.29 
   333.00     15.43  12256.37      0.05    831.07      0.76 
   333.10     15.42  12288.35      0.04    752.67      1.12 
   333.20     15.43  12315.92      0.04    668.02      1.47 
   333.30     15.43  12336.19      0.04    519.52      0.41 
   333.40     15.42  12352.14      0.03    399.49      0.35 
   333.50     15.43  12367.30      0.03    349.86      1.06 
   333.60     15.44  12383.61      0.03    291.85      0.71 
   333.70     15.43  12395.51      0.01    250.16      1.18 
   333.80     15.44  12408.29      0.03    218.05      2.35 
   333.90     15.45  12418.52      0.03    189.98      1.94 
   334.00     15.44  12427.16      0.01    168.06      1.12 
   334.10     15.45  12435.72      0.03    144.37      0.35 
   334.20     15.44  12441.18      0.02    123.15      0.00 
   334.30     15.43  12446.12      0.01    108.26      0.00 
   334.40     15.44  12453.97      0.01    100.24      1.53 
   334.50     15.44  12460.23      0.01     91.87      1.47 
   334.60     15.45  12465.35      0.01     81.04      0.35 
   334.70     15.44  12470.73      0.01     74.25      0.35 
   334.80     15.45  12476.46      0.00     67.02      0.76 
   334.90     15.44  12481.40     -0.01     62.26      1.18 
   335.00     15.44  12486.25      0.00     58.47      0.82 
   335.10     15.45  12489.78     -0.00     53.45      0.00 
   335.20     15.44  12493.40      0.00     51.69      0.41 
   335.30     15.45  12496.13      0.02     48.87      0.76 
   335.40     15.45  12499.13      0.01     44.28      1.24 
   335.50     15.45  12502.22      0.01     41.20      1.65 
   335.60     15.46  12503.99      0.02     37.93      1.59 
   335.70     15.45  12506.63      0.01     35.37      2.35 
   335.80     15.44  12508.49     -0.00     31.32      0.82 
   335.90     15.44  12510.43      0.01     28.50      0.00 
   336.00     15.45  12513.07      0.00     26.82      0.00 
   336.10     15.44  12515.28     -0.00     24.97      0.71 
   336.20     15.45  12516.69      0.01     23.47      0.35 
   336.30     15.45  12518.63     -0.00     22.50      0.71 
   336.40     15.45  12520.31      0.00     20.91      0.71 
   336.50     15.46  12520.40      0.01     17.91      0.41 
   336.60     15.45  12523.04     -0.02     19.41      1.88 
   336.70     15.44  12524.37     -0.01     18.26      2.24 
   336.80     15.46  12525.07      0.02     16.24      1.12 
   336.90     15.45  12525.60      0.00     15.18      1.88 
   337.00     15.45  12527.54      0.01     14.29      1.06 
   337.10     15.45  12529.31      0.00     13.85      1.06 
   337.20     15.45  12529.13      0.01     12.44      1.41 
   337.30     15.45  12530.37      0.00     11.74      0.71 
   337.40     15.45  12531.43     -0.00     11.12      1.12 
   337.50     15.44  12531.34     -0.02     10.32      1.41 
   337.60     15.44  12532.04     -0.01      9.00      1.47 
   337.70     15.45  12532.66      0.01      8.91      0.76 
   337.80     15.45  12532.57     -0.00      8.21      0.00 
   337.90     15.46  12534.25      0.01      8.03      0.00 
   338.00     15.46  12534.25      0.00      6.09      0.82 
   338.10     15.45  12534.25     -0.00      4.94      1.53 
   338.20     15.45  12535.40     -0.00      6.79      0.71 
   338.30     15.45  12536.10      0.00      5.74      1.47 
   338.40     15.46  12535.84      0.01      4.94      1.53 
   338.50     15.46  12536.46      0.02      5.65      0.82 
   338.60     15.46  12537.16      0.02      5.12      0.41 
   338.70     15.45  12536.81      0.00      3.62      0.00 
   338.80     15.44  12536.55     -0.01      3.97      1.06 
   338.90     15.45  12537.52     -0.01      3.88      0.35 
   339.00     15.45  12537.52     -0.01      3.27      0.41 
