#Written by Robertson Geologging WinLogger V1.0/312
~VERSION INFORMATION
#------------------------------------------------------------------------------
 VERS. 2.0 : CWLS LOG ASCII STANDARD - VERSION 2.0
 WRAP. NO  : ONE LINE PER DEPTH STEP
~WELL INFORMATION
#MNEM.UNIT         DATA                                DESCRIPTION OF MNEMONIC
#------------------------------------------------------------------------------
 STRT.M         72.1000                            :   START DEPTH
 STOP.M        377.0000                            :   STOP DEPTH
 STEP.M          0.1000                            :   STEP VALUE
 NULL.        -999.2500                            :   NULL VALUE
 COMP.    I.M..C.                                  :   COMPANY NAME
 WELL.    Horden Shaft                             :   WELL NAME
 FLD.     Horden                                   :   FIELD NAME
 LOC.     N/A                                      :   LOCATION
 PROV.    N/A                                      :   PROVINCE
 SRVC.    N/A                                      :   SERVICE COMPANY NAME
 DATE.    30 Jan 04                                :   DATE
 UWI.     N/A                                      :   UNIQUE WELL IDENTIFIER
~PARAMETER INFORMATION
#MNEMO.UNIT         VALUE                 DESCRIPTION OF MNEMONIC
#------------------------------------------------------------------------------
~OTHER INFORMATION SECTION
#------------------------------------------------------------------------------
 TCGX extended range 1365
~CURVE INFORMATION
#MNEMO.UNIT         API CODE              CURVE DESCRIPTION
#------------------------------------------------------------------------------
 DEPTH.M                                 :   0     Depth
 COND.mS/cm                              :   1     Conductivity
 TEMP.DegC                               :   2     Temperature
 C@25.mS/cm                              :   3     Conductivity @25Deg
 DELT.DegC                               :   4     Delta T
 DC@25.mS/cm                             :   5     Delta C @25Deg
 OUT4.CPS                                :   6     Natural Gamma
#------------------------------------------------------------------------------
~A  DEPTH     COND      TEMP      C@25      DELT      DC@25     OUT4      
# ...
   207.70     10.73     15.66     15.74      0.00     -0.01      9.00 
   207.80     10.73     15.66     15.74     -0.00      0.00      9.35 
   207.90     10.73     15.66     15.73     -0.00      0.00     11.41 
   208.00     10.73     15.66     15.73     -0.00      0.01      9.88 
   208.10     10.73     15.67     15.73      0.00      0.00      8.12 
   208.20     10.73     15.65     15.75     -0.01      0.01      6.29 
   208.30     10.73     15.66     15.74     -0.01      0.01      6.59 
   208.40     10.73     15.65     15.74     -0.01      0.01      7.00 
   208.50     10.73     15.65     15.75     -0.01      0.02      7.24 
   208.60     10.73     15.67     15.73      0.00     -0.00      9.18 
   208.70     10.73     15.66     15.74      0.00     -0.00      8.35 
   208.80     10.73     15.65     15.75     -0.01      0.01     10.00 
   208.90     10.73     15.66     15.74     -0.01      0.01      7.82 
   209.00     10.73     15.66     15.73      0.00     -0.00      6.18 
   209.10     10.73     15.64     15.76     -0.03      0.04      7.29 
   209.20     10.74     15.65     15.76     -0.01      0.01     10.88 
   209.30     10.74     15.66     15.74      0.00      0.00      8.35 
   209.40     10.74     15.67     15.73      0.02     -0.02      8.53 
   209.50     10.75     15.66     15.75      0.01      0.01      7.06 
   209.60     10.75     15.66     15.76     -0.00      0.02      7.00 
   209.70     10.75     15.67     15.75      0.01      0.01      7.35 
   209.80     10.75     15.67     15.75      0.02      0.00      6.24 
   209.90     10.75     15.66     15.76      0.01      0.02      5.71 
   210.00     10.75     15.67     15.75      0.01      0.01      7.12 
   210.10     10.75     15.68     15.74      0.04     -0.02      8.94 
   210.20     10.76     15.67     15.75      0.02     -0.00      7.82 
   210.30     10.76     15.67     15.76      0.00      0.03      8.65 
   210.40     10.76     15.67     15.76      0.00      0.02      5.47 
   210.50     10.76     15.67     15.76      0.01      0.01      5.76 
   210.60     10.77     15.67     15.76      0.01      0.02      7.24 
   210.70     10.76     15.67     15.77      0.00      0.02      5.71 
   210.80     10.77     15.67     15.77     -0.00      0.02      4.24 
   210.90     10.77     15.67     15.76      0.01      0.00      5.12 
   211.00     10.77     15.67     15.77     -0.01      0.02      6.29 
   211.10     10.77     15.66     15.78     -0.02      0.03      5.59 
   211.20     10.77     15.67     15.78     -0.00      0.02      6.06 
   211.30     10.77     15.66     15.78     -0.01      0.02      7.94 
   211.40     10.77     15.66     15.80     -0.02      0.04      7.65 
   211.50     10.78     15.67     15.78     -0.00      0.02      7.41 
   211.60     10.78     15.66     15.79     -0.01      0.03      7.35 
   211.70     10.78     15.67     15.79      0.00      0.02      3.24 
   211.80     10.78     15.67     15.79      0.00      0.01      4.29 
   211.90     10.78     15.67     15.79     -0.00      0.02      7.53 
   212.00     10.78     15.67     15.79      0.00      0.02      8.82 
   212.10     10.79     15.67     15.79      0.01      0.01      6.35 
   212.20     10.79     15.67     15.79      0.00      0.02      7.06 
   212.30     10.79     15.67     15.79      0.01      0.01      5.59 
   212.40     10.79     15.67     15.80      0.01      0.01      5.82 
   212.50     10.79     15.67     15.81     -0.00      0.02      7.76 
   212.60     10.79     15.67     15.80      0.01      0.00      9.88 
   212.70     10.79     15.68     15.80      0.01      0.01      6.88 
   212.80     10.80     15.67     15.81      0.00      0.02      7.94 
   212.90     10.80     15.68     15.80      0.01      0.00      8.06 
   213.00     10.80     15.69     15.79      0.02      0.00      7.65 
   213.10     10.80     15.69     15.79      0.01      0.00      7.29 
   213.20     10.81     15.69     15.79      0.02     -0.00      7.59 
   213.30     10.81     15.68     15.80      0.01      0.01      9.06 
   213.40     10.81     15.69     15.80      0.02      0.00     11.47 
   213.50     10.81     15.69     15.80      0.02     -0.00      8.00 
   213.60     10.82     15.69     15.79      0.02     -0.01      6.88 
   213.70     10.82     15.68     15.81      0.01      0.02      7.71 
   213.80     10.82     15.69     15.81      0.02     -0.00      8.06 
   213.90     10.82     15.69     15.82      0.00      0.02      9.00 
   214.00     10.82     15.69     15.81      0.00      0.02      7.88 
   214.10     10.82     15.70     15.80      0.01      0.00      7.53 
   214.20     10.82     15.69     15.81     -0.01      0.03      5.53 
   214.30     10.83     15.69     15.81      0.01      0.00      6.94 
   214.40     10.83     15.68     15.82     -0.00      0.02      6.53 
   214.50     10.83     15.69     15.83     -0.00      0.03      7.71 
   214.60     10.84     15.69     15.82     -0.00      0.03     10.12 
   214.70     10.84     15.68     15.84     -0.00      0.03      8.29 
   214.80     10.84     15.69     15.83     -0.00      0.02      6.06 
   214.90     10.84     15.69     15.84      0.00      0.02      8.94 
   215.00     10.84     15.70     15.82      0.02      0.00      7.47 
   215.10     10.84     15.69     15.84     -0.01      0.04      5.35 
   215.20     10.85     15.69     15.84      0.01      0.02      5.82 
   215.30     10.85     15.70     15.84      0.00      0.03     10.18 
   215.40     10.86     15.70     15.83      0.02      0.01     10.65 
   215.50     10.86     15.70     15.84      0.01      0.02      5.41 
   215.60     10.86     15.69     15.86      0.00      0.03      7.71 
   215.70     10.86     15.70     15.84      0.02      0.01      7.29 
   215.80     10.87     15.71     15.84      0.02      0.01      9.24 
   215.90     10.86     15.71     15.84      0.01      0.01      8.06 
   216.00     10.87     15.71     15.84      0.00      0.02      9.71 
   216.10     10.87     15.71     15.84      0.02      0.01      9.65 
   216.20     10.87     15.70     15.86      0.01      0.02      9.35 
   216.30     10.87     15.71     15.85      0.01      0.02     10.12 
   216.40     10.87     15.71     15.85      0.00      0.02      9.76 
   216.50     10.88     15.71     15.85      0.01      0.01      7.18 
   216.60     10.88     15.70     15.87      0.01      0.01      8.59 
   216.70     10.88     15.71     15.85      0.01      0.01      7.24 
   216.80     10.88     15.71     15.85      0.01      0.01      5.71 
   216.90     10.88     15.71     15.86      0.00      0.02      7.35 
   217.00     10.89     15.71     15.86      0.00      0.02      7.18 
   217.10     10.90     15.72     15.85      0.02      0.01      7.18 
   217.20     10.90     15.72     15.86      0.02     -0.00     10.82 
   217.30     10.90     15.72     15.86      0.01      0.01     11.88 
   217.40     10.90     15.72     15.87      0.02      0.01     11.18 
   217.50     10.90     15.72     15.86      0.02      0.01      8.35 
   217.60     10.91     15.72     15.87      0.02      0.01      7.94 
   217.70     10.91     15.73     15.87      0.01      0.02      6.12 
   217.80     10.91     15.73     15.86      0.02      0.01      4.71 
   217.90     10.91     15.73     15.86      0.02      0.00      7.18 
   218.00     10.91     15.74     15.86      0.02     -0.01      6.76 
   218.10     10.91     15.73     15.86      0.01      0.01     10.00 
   218.20     10.91     15.72     15.87      0.00      0.01      8.59 
   218.30     10.92     15.73     15.87      0.01      0.01      9.35 
   218.40     10.92     15.73     15.86      0.01     -0.00      6.88 
   218.50     10.92     15.72     15.89      0.00      0.02      3.71 
   218.60     10.93     15.73     15.88      0.01      0.01      5.35 
   218.70     10.93     15.73     15.88      0.01      0.02      9.65 
   218.80     10.94     15.73     15.89      0.01      0.02      9.12 
   218.90     10.94     15.75     15.87      0.01      0.02      9.82 
