#Written by Robertson Geologging WinLogger V1.0/312
~VERSION INFORMATION
#------------------------------------------------------------------------------
 VERS. 2.0 : CWLS LOG ASCII STANDARD - VERSION 2.0
 WRAP. NO  : ONE LINE PER DEPTH STEP
~WELL INFORMATION
#MNEM.UNIT         DATA                                DESCRIPTION OF MNEMONIC
#------------------------------------------------------------------------------
 STRT.M         72.1000                            :   START DEPTH
 STOP.M        377.0000                            :   STOP DEPTH
 STEP.M          0.1000                            :   STEP VALUE
 NULL.        -999.2500                            :   NULL VALUE
 COMP.    I.M..C.                                  :   COMPANY NAME
 WELL.    Horden Shaft                             :   WELL NAME
 FLD.     Horden                                   :   FIELD NAME
 LOC.     N/A                                      :   LOCATION
 PROV.    N/A                                      :   PROVINCE
 SRVC.    N/A                                      :   SERVICE COMPANY NAME
 DATE.    30 Jan 04                                :   DATE
 UWI.     N/A                                      :   UNIQUE WELL IDENTIFIER
~PARAMETER INFORMATION
#MNEMO.UNIT         VALUE                 DESCRIPTION OF MNEMONIC
#------------------------------------------------------------------------------
~OTHER INFORMATION SECTION
#------------------------------------------------------------------------------
 TCGX extended range 1365
~CURVE INFORMATION
#MNEMO.UNIT         API CODE              CURVE DESCRIPTION
#------------------------------------------------------------------------------
 DEPTH.M                                 :   0     Depth
 COND.mS/cm                              :   1     Conductivity
 TEMP.DegC                               :   2     Temperature
 C@25.mS/cm                              :   3     Conductivity @25Deg
 DELT.DegC                               :   4     Delta T
 DC@25.mS/cm                             :   5     Delta C @25Deg
 OUT4.CPS                                :   6     Natural Gamma
#------------------------------------------------------------------------------
~A  DEPTH     COND      TEMP      C@25      DELT      DC@25     OUT4      
# ...
   252.90     12.17     16.60     16.14      0.01     -0.01      3.24 
   253.00     12.17     16.60     16.13      0.00     -0.00      5.12 
   253.10     12.17     16.60     16.14      0.00      0.00      7.35 
   253.20     12.17     16.61     16.13      0.01     -0.01      6.47 
   253.30     12.17     16.62     16.11      0.03     -0.04      2.82 
   253.40     12.17     16.61     16.12      0.01     -0.00      2.71 
   253.50     12.17     16.61     16.13      0.00     -0.00      7.47 
   253.60     12.17     16.61     16.13      0.02     -0.02     10.24 
   253.70     12.17     16.60     16.13     -0.00      0.01      7.88 
   253.80     12.17     16.60     16.14     -0.01      0.01      6.94 
   253.90     12.17     16.61     16.13      0.01     -0.01      7.65 
   254.00     12.17     16.61     16.13      0.00     -0.00      6.94 
   254.10     12.17     16.61     16.12      0.01     -0.01      6.88 
   254.20     12.17     16.60     16.13     -0.00      0.01      3.59 
   254.30     12.17     16.61     16.12     -0.01      0.01      4.65 
   254.40     12.17     16.61     16.13     -0.00      0.00      5.35 
   254.50     12.17     16.61     16.12      0.01     -0.01      5.76 
   254.60     12.17     16.61     16.13     -0.00      0.00      7.18 
   254.70     12.17     16.62     16.11      0.02     -0.03      6.06 
   254.80     12.17     16.61     16.12      0.01     -0.01      6.12 
   254.90     12.17     16.61     16.13     -0.00      0.01      4.82 
   255.00     12.17     16.61     16.13      0.00     -0.00      7.35 
   255.10     12.17     16.60     16.13     -0.00      0.01      8.76 
   255.20     12.17     16.61     16.13      0.01     -0.01      9.18 
   255.30     12.17     16.61     16.12      0.00      0.00      8.29 
   255.40     12.17     16.61     16.12      0.00     -0.01      9.24 
   255.50     12.17     16.61     16.13     -0.00      0.00      6.18 
   255.60     12.17     16.61     16.13     -0.00      0.00      5.53 
   255.70     12.17     16.61     16.13     -0.01      0.02      5.06 
   255.80     12.17     16.60     16.13     -0.00      0.00      5.59 
   255.90     12.17     16.61     16.13      0.00     -0.00      6.65 
   256.00     12.17     16.61     16.12      0.01     -0.01      9.29 
   256.10     12.17     16.61     16.13      0.00     -0.00      5.47 
   256.20     12.17     16.61     16.12      0.00     -0.00      6.71 
   256.30     12.17     16.61     16.13     -0.00      0.01      5.12 
   256.40     12.17     16.61     16.12     -0.00      0.00      3.53 
   256.50     12.17     16.60     16.14     -0.01      0.01      6.65 
   256.60     12.17     16.60     16.14     -0.01      0.01      8.94 
   256.70     12.17     16.60     16.14     -0.01      0.01      8.12 
   256.80     12.17     16.61     16.13      0.00      0.00      6.88 
   256.90     12.17     16.61     16.14     -0.01      0.01      5.47 
   257.00     12.17     16.61     16.13     -0.00      0.00      7.47 
   257.10     12.17     16.61     16.12      0.01     -0.01      6.94 
   257.20     12.18     16.60     16.14     -0.01      0.02      6.06 
   257.30     12.17     16.61     16.12      0.01     -0.01      5.71 
   257.40     12.17     16.62     16.11      0.00     -0.00      6.35 
   257.50     12.18     16.61     16.13      0.01     -0.01      7.47 
   257.60     12.17     16.62     16.12      0.01     -0.02      6.06 
   257.70     12.17     16.61     16.13      0.01     -0.01      3.76 
   257.80     12.18     16.61     16.13      0.00     -0.00      3.00 
   257.90     12.17     16.62     16.12      0.01     -0.01      2.35 
   258.00     12.18     16.61     16.13     -0.00      0.01      5.53 
   258.10     12.17     16.61     16.13     -0.00     -0.00     10.88 
   258.20     12.18     16.61     16.13      0.01     -0.01      8.24 
   258.30     12.17     16.61     16.12      0.00     -0.00      5.29 
   258.40     12.18     16.62     16.12      0.00      0.00      4.71 
   258.50     12.18     16.61     16.13     -0.00      0.00      5.29 
   258.60     12.18     16.61     16.12     -0.00      0.00      6.29 
   258.70     12.17     16.62     16.12      0.01     -0.01      5.06 
   258.80     12.18     16.61     16.13     -0.00      0.00      3.35 
   258.90     12.17     16.61     16.12     -0.00      0.01      3.71 
   259.00     12.18     16.61     16.13      0.00     -0.00      4.18 
   259.10     12.18     16.61     16.13      0.00      0.00      7.88 
   259.20     12.18     16.62     16.12      0.01     -0.01      8.59 
   259.30     12.18     16.62     16.11      0.01     -0.01      5.53 
   259.40     12.18     16.62     16.11      0.00     -0.01      5.00 
   259.50     12.18     16.62     16.12      0.01     -0.01      5.18 
   259.60     12.18     16.62     16.12      0.00      0.00      4.94 
   259.70     12.18     16.61     16.13     -0.00      0.01      2.88 
   259.80     12.18     16.61     16.13      0.00     -0.00      5.18 
   259.90     12.18     16.62     16.13      0.00      0.00      6.29 
   260.00     12.19     16.62     16.12      0.01     -0.00      5.41 
   260.10     12.19     16.62     16.13      0.00      0.01      4.94 
   260.20     12.19     16.62     16.13      0.01      0.00      5.59 
   260.30     12.19     16.64     16.11      0.01     -0.00      4.88 
   260.40     12.19     16.63     16.11      0.01     -0.00      5.12 
   260.50     12.20     16.64     16.11      0.02     -0.01      4.82 
   260.60     12.20     16.64     16.11      0.03     -0.01      2.65 
   260.70     12.20     16.65     16.11      0.03     -0.02      3.35 
   260.80     12.21     16.65     16.11      0.04     -0.01      4.71 
   260.90     12.24     16.65     16.15      0.03      0.03      4.41 
   261.00     12.26     16.65     16.17      0.03      0.04      6.88 
   261.10     12.27     16.66     16.18      0.04      0.05      4.41 
   261.20     12.29     16.64     16.22      0.01      0.10      1.06 
   261.30     12.33     16.63     16.27     -0.00      0.17      0.71 
   261.40     12.36     16.64     16.31      0.00      0.20      2.24 
   261.50     12.42     16.65     16.35      0.01      0.25      2.18 
   261.60     12.50     16.70     16.38      0.06      0.28      0.71 
   261.70     12.56     16.78     16.34      0.13      0.23      0.71 
   261.80     12.61     16.86     16.29      0.21      0.17      2.12 
   261.90     12.64     16.92     16.22      0.28      0.06      2.82 
   262.00     12.69     16.94     16.24      0.29      0.07      1.82 
   262.10     12.74     16.96     16.28      0.31      0.10      1.47 
   262.20     12.76     16.99     16.26      0.35      0.03      1.76 
   262.30     12.76     16.99     16.28      0.35     -0.00      0.71 
   262.40     12.77     16.98     16.30      0.34     -0.01      0.41 
   262.50     12.78     16.98     16.31      0.32     -0.06      1.59 
   262.60     12.78     16.97     16.31      0.27     -0.07      2.24 
   262.70     12.77     16.96     16.33      0.16      0.00      1.47 
   262.80     12.77     16.92     16.38      0.06      0.09      1.41 
   262.90     12.76     16.89     16.41     -0.03      0.20      2.18 
   263.00     12.76     16.87     16.44     -0.08      0.19      1.47 
   263.10     12.75     16.84     16.48     -0.13      0.21      1.76 
   263.20     12.75     16.81     16.51     -0.17      0.25      2.88 
   263.30     12.74     16.78     16.55     -0.20      0.28      2.18 
   263.40     12.73     16.74     16.60     -0.24      0.30      0.76 
   263.50     12.71     16.70     16.64     -0.28      0.33      0.00 
   263.60     12.70     16.65     16.70     -0.33      0.39      1.12 
   263.70     12.69     16.57     16.81     -0.39      0.48      1.53 
   263.80     12.70     16.50     16.92     -0.42      0.55      1.53 
   263.90     12.71     16.45     17.00     -0.44      0.59      1.88 
   264.00     12.72     16.40     17.08     -0.46      0.63      2.53 
   264.10     12.74     16.37     17.16     -0.46      0.67      2.53 
