#Written by Robertson Geologging WinLogger V1.0/312
~VERSION INFORMATION
#------------------------------------------------------------------------------
 VERS. 2.0 : CWLS LOG ASCII STANDARD - VERSION 2.0
 WRAP. NO  : ONE LINE PER DEPTH STEP
~WELL INFORMATION
#MNEM.UNIT         DATA                                DESCRIPTION OF MNEMONIC
#------------------------------------------------------------------------------
 STRT.M         72.1000                            :   START DEPTH
 STOP.M        377.0000                            :   STOP DEPTH
 STEP.M          0.1000                            :   STEP VALUE
 NULL.        -999.2500                            :   NULL VALUE
 COMP.    I.M..C.                                  :   COMPANY NAME
 WELL.    Horden Shaft                             :   WELL NAME
 FLD.     Horden                                   :   FIELD NAME
 LOC.     N/A                                      :   LOCATION
 PROV.    N/A                                      :   PROVINCE
 SRVC.    N/A                                      :   SERVICE COMPANY NAME
 DATE.    30 Jan 04                                :   DATE
 UWI.     N/A                                      :   UNIQUE WELL IDENTIFIER
~PARAMETER INFORMATION
#MNEMO.UNIT         VALUE                 DESCRIPTION OF MNEMONIC
#------------------------------------------------------------------------------
~OTHER INFORMATION SECTION
#------------------------------------------------------------------------------
 TCGX extended range 1365
~CURVE INFORMATION
#MNEMO.UNIT         API CODE              CURVE DESCRIPTION
#------------------------------------------------------------------------------
 DEPTH.M                                 :   0     Depth
 COND.mS/cm                              :   1     Conductivity
 TEMP.DegC                               :   2     Temperature
 C@25.mS/cm                              :   3     Conductivity @25Deg
 DELT.DegC                               :   4     Delta T
 DC@25.mS/cm                             :   5     Delta C @25Deg
 OUT4.CPS                                :   6     Natural Gamma
#------------------------------------------------------------------------------
~A  DEPTH     COND      TEMP      C@25      DELT      DC@25     OUT4      
# ...
   309.40     13.31     16.95     16.98     -0.01      0.01      6.18 
   309.50     13.31     16.96     16.96     -0.00      0.00      6.12 
   309.60     13.31     16.96     16.96     -0.00      0.00      4.59 
   309.70     13.31     16.96     16.96     -0.00      0.01      4.18 
   309.80     13.31     16.96     16.97     -0.01      0.01      8.41 
   309.90     13.31     16.97     16.96      0.00     -0.00      9.41 
   310.00     13.31     16.97     16.95      0.01     -0.02      7.00 
   310.10     13.31     16.96     16.96      0.01     -0.01      7.12 
   310.20     13.31     16.96     16.97     -0.00      0.01      6.00 
   310.30     13.31     16.96     16.97      0.00     -0.00      6.00 
   310.40     13.31     16.97     16.95      0.01     -0.02      5.35 
   310.50     13.31     16.96     16.97     -0.00      0.00      4.94 
   310.60     13.31     16.96     16.96     -0.00      0.00      6.71 
   310.70     13.31     16.97     16.95      0.01     -0.02      7.00 
   310.80     13.31     16.96     16.96      0.01     -0.01      8.41 
   310.90     13.31     16.98     16.93      0.01     -0.02      9.47 
   311.00     13.31     16.97     16.95     -0.00      0.01      6.65 
   311.10     13.31     16.97     16.96      0.00     -0.00      5.29 
   311.20     13.31     16.96     16.97      0.00      0.00      6.76 
   311.30     13.31     16.97     16.96      0.00     -0.00      5.82 
   311.40     13.31     16.96     16.96     -0.00     -0.00      7.47 
   311.50     13.31     16.98     16.94      0.02     -0.03      7.47 
   311.60     13.31     16.96     16.96      0.00      0.00      5.35 
   311.70     13.31     16.96     16.97     -0.01      0.02      4.65 
   311.80     13.31     16.98     16.94      0.01     -0.02      6.41 
   311.90     13.31     16.97     16.95     -0.01      0.02      7.41 
   312.00     13.31     16.96     16.96     -0.01      0.01      6.71 
   312.10     13.31     16.97     16.96      0.00     -0.00      5.59 
   312.20     13.31     16.97     16.96      0.01     -0.01      7.24 
   312.30     13.31     16.97     16.96      0.00     -0.00      8.76 
   312.40     13.31     16.97     16.96      0.00     -0.01      5.71 
   312.50     13.31     16.96     16.97     -0.02      0.03      4.71 
   312.60     13.31     16.97     16.95      0.01     -0.01      6.47 
   312.70     13.31     16.96     16.96      0.00      0.00      4.24 
   312.80     13.31     16.97     16.95     -0.00      0.01      4.94 
   312.90     13.31     16.96     16.97     -0.01      0.01      7.18 
   313.00     13.31     16.96     16.97     -0.00      0.01      5.12 
   313.10     13.31     16.95     16.97     -0.01      0.02      5.35 
   313.20     13.31     16.96     16.97     -0.01      0.01      4.47 
   313.30     13.31     16.96     16.97     -0.01      0.01      5.24 
   313.40     13.31     16.96     16.96     -0.00      0.00      6.29 
   313.50     13.31     16.97     16.96      0.01     -0.01      6.76 
   313.60     13.31     16.97     16.96     -0.01      0.01      5.65 
   313.70     13.31     16.96     16.97     -0.00      0.00      6.35 
   313.80     13.31     16.96     16.97     -0.01      0.02      7.88 
   313.90     13.31     16.96     16.96      0.01     -0.01      8.53 
   314.00     13.31     16.95     16.98     -0.01      0.02      3.12 
   314.10     13.31     16.95     16.98     -0.00      0.01      4.59 
   314.20     13.31     16.96     16.97      0.00     -0.00      6.35 
   314.30     13.31     16.95     16.98     -0.01      0.01      6.00 
   314.40     13.31     16.96     16.97     -0.01      0.01      6.00 
   314.50     13.31     16.96     16.96     -0.00      0.01      4.88 
   314.60     13.31     16.97     16.95      0.00     -0.00      5.65 
   314.70     13.31     16.97     16.96      0.01     -0.01      4.94 
   314.80     13.31     16.96     16.97     -0.00      0.01      3.53 
   314.90     13.31     16.96     16.97     -0.01      0.01      3.18 
   315.00     13.31     16.96     16.96      0.02     -0.02      5.00 
   315.10     13.31     16.96     16.97      0.01     -0.01      6.35 
   315.20     13.31     16.95     16.98     -0.01      0.01      6.35 
   315.30     13.31     16.97     16.95      0.02     -0.03     10.12 
   315.40     13.31     16.97     16.96      0.01     -0.01      9.00 
   315.50     13.31     16.96     16.96     -0.00      0.00      6.35 
   315.60     13.31     16.96     16.97     -0.00      0.01      7.71 
   315.70     13.31     16.96     16.98     -0.01      0.01      8.82 
   315.80     13.31     16.97     16.95      0.02     -0.03      6.35 
   315.90     13.31     16.96     16.96      0.00     -0.01      4.88 
   316.00     13.31     16.96     16.97     -0.01      0.01      4.24 
   316.10     13.31     16.97     16.96      0.01     -0.02      5.65 
   316.20     13.31     16.96     16.96      0.01     -0.01      6.29 
   316.30     13.31     16.98     16.94      0.00     -0.00      4.18 
   316.40     13.31     16.97     16.95      0.01     -0.01      4.94 
   316.50     13.31     16.97     16.95      0.01     -0.01      6.00 
   316.60     13.31     16.97     16.95      0.01     -0.02      3.53 
   316.70     13.31     16.96     16.96      0.01     -0.01      4.53 
   316.80     13.31     16.97     16.96     -0.01      0.00      4.18 
   316.90     13.31     16.97     16.95      0.01     -0.02      4.88 
   317.00     13.31     16.96     16.96      0.00     -0.01      5.65 
   317.10     13.31     16.96     16.97     -0.01      0.01      3.88 
   317.20     13.31     16.96     16.97     -0.01      0.00      5.65 
   317.30     13.31     16.96     16.97     -0.02      0.03      4.24 
   317.40     13.31     16.96     16.97     -0.01      0.02      5.94 
   317.50     13.31     16.96     16.98     -0.01      0.02      6.29 
   317.60     13.31     16.96     16.97     -0.01      0.02      7.18 
   317.70     13.31     16.96     16.96     -0.00      0.00      7.24 
   317.80     13.31     16.95     16.99     -0.02      0.04      5.94 
   317.90     13.31     16.96     16.96     -0.00      0.00      4.24 
   318.00     13.31     16.97     16.95      0.01     -0.02      3.53 
   318.10     13.31     16.96     16.96      0.00     -0.00      3.82 
   318.20     13.31     16.96     16.97     -0.01      0.01      5.24 
   318.30     13.31     16.96     16.97      0.00     -0.00      5.65 
   318.40     13.31     16.97     16.96      0.01     -0.02      5.65 
   318.50     13.31     16.97     16.95      0.02     -0.03      5.29 
   318.60     13.31     16.96     16.96     -0.00     -0.00      5.00 
   318.70     13.31     16.97     16.96      0.01     -0.01      6.12 
   318.80     13.31     16.96     16.97      0.01     -0.01      5.71 
   318.90     13.31     16.96     16.98     -0.01      0.01      4.94 
   319.00     13.31     16.97     16.96     -0.01      0.01      4.88 
   319.10     13.31     16.97     16.96      0.01     -0.01      5.71 
   319.20     13.31     16.97     16.95      0.02     -0.03      9.71 
   319.30     13.31     16.96     16.96      0.00     -0.01      5.65 
   319.40     13.31     16.96     16.96     -0.01      0.01      4.59 
   319.50     13.31     16.96     16.97     -0.01      0.02      6.12 
   319.60     13.31     16.96     16.97     -0.00      0.01      4.35 
   319.70     13.31     16.95     16.98     -0.01      0.02      4.94 
   319.80     13.31     16.96     16.98      0.00     -0.00      7.12 
   319.90     13.31     16.96     16.98     -0.00      0.01      5.59 
   320.00     13.31     16.96     16.97     -0.01      0.01      5.29 
   320.10     13.31     16.96     16.96     -0.00      0.01      4.24 
   320.20     13.31     16.96     16.97     -0.01      0.02      5.59 
   320.30     13.31     16.97     16.95      0.01     -0.01      5.53 
   320.40     13.31     16.96     16.97     -0.00      0.00      2.82 
   320.50     13.31     16.96     16.98     -0.01      0.01      2.41 
   320.60     13.31     16.96     16.97      0.00     -0.01      6.41 
