#Written by Robertson Geologging WinLogger V1.0/311
~VERSION INFORMATION
#------------------------------------------------------------------------------
 VERS. 2.0 : CWLS LOG ASCII STANDARD - VERSION 2.0
 WRAP. NO  : ONE LINE PER DEPTH STEP
~WELL INFORMATION
#MNEM.UNIT         DATA                                DESCRIPTION OF MNEMONIC
#------------------------------------------------------------------------------
 STRT.M         75.1000                            :   START DEPTH
 STOP.M        381.1000                            :   STOP DEPTH
 STEP.M          0.1000                            :   STEP VALUE
 NULL.        -999.2500                            :   NULL VALUE
 COMP.    IMC                                      :   COMPANY NAME
 WELL.    SOUTH SHAFT                              :   WELL NAME
 FLD.     HORDEN                                   :   FIELD NAME
 LOC.     N/A                                      :   LOCATION
 PROV.    N/A                                      :   PROVINCE
 SRVC.    N/A                                      :   SERVICE COMPANY NAME
 DATE.    03 Oct 03                                :   DATE
 UWI.     N/A                                      :   UNIQUE WELL IDENTIFIER
~PARAMETER INFORMATION
#MNEMO.UNIT         VALUE                 DESCRIPTION OF MNEMONIC
#------------------------------------------------------------------------------
~OTHER INFORMATION SECTION
#------------------------------------------------------------------------------
 TCDS 2822
~CURVE INFORMATION
#MNEMO.UNIT         API CODE              CURVE DESCRIPTION
#------------------------------------------------------------------------------
 DEPTH.M                                 :   0     Depth
 TEMP.DegC                               :   1     Temperature
 COND.uS/cm                              :   2     Conductivity
 DELT.DegC                               :   3     Delta T
 DELC.uS/cm                              :   4     Delta C
 NGAM.API                                :   5     Natural Gamma
#------------------------------------------------------------------------------
~A  DEPTH     TEMP      COND      DELT      DELC      NGAM      
# ...
   365.50     16.38  45808.74      0.75  31815.74      2.18 
   365.60     16.56  46552.93      0.89  32482.48      1.47 
   365.70     16.68  47252.07      0.98  33089.47      1.76 
   365.80     16.76  47767.77      1.05  33277.15      2.24 
   365.90     16.83  48115.59      1.10  32745.29      2.18 
   366.00     16.89  48430.25      1.13  31099.83      2.18 
   366.10     16.94  48698.75      1.12  28876.69      3.29 
   366.20     16.99  48898.87      1.08  23538.46      2.47 
   366.30     17.05  49019.21      1.02   7557.01      2.12 
   366.40     17.10  49101.24      0.90   4166.60      1.76 
   366.50     17.14  49188.82      0.74   3307.14      3.24 
   366.60     17.17  49275.35      0.60   2646.23      4.29 
   366.70     17.20  49362.24      0.51   2051.21      2.82 
   366.80     17.20  49425.78      0.43   1615.68      1.47 
   366.90     17.20  49486.19      0.36   1339.83      1.12 
   367.00     17.22  49602.53      0.33   1144.04      0.35 
   367.10     17.22  49746.02      0.27   1023.75      2.88 
   367.20     17.23  49851.42      0.24    938.08      3.29 
   367.30     17.24  49927.15      0.18    899.83      1.53 
   367.40     17.24  49989.76      0.13    879.11      2.53 
   367.50     17.24  50046.21      0.10    850.25      2.53 
   367.60     17.25  50109.94      0.07    825.83      0.76 
   367.70     17.24  50160.44      0.04    790.09      1.82 
   367.80     17.24  50192.81      0.04    761.62      2.53 
   367.90     17.24  50218.78      0.04    725.11      1.76 
   368.00     17.25  50240.29      0.03    621.95      3.59 
   368.10     17.24  50252.35      0.02    495.49      3.59 
   368.20     17.24  50265.50      0.00    405.51      1.41 
   368.30     17.23  50276.91     -0.01    343.69      1.76 
   368.40     17.23  50288.32     -0.01    293.14      2.12 
   368.50     17.24  50298.32     -0.01    246.69      1.06 
   368.60     17.23  50310.93     -0.02    195.56      1.41 
   368.70     17.23  50329.73     -0.01    164.51      1.41 
   368.80     17.23  50356.37     -0.02    161.60      1.12 
   368.90     17.23  50375.61     -0.01    154.12      0.71 
   369.00     17.23  50393.66     -0.02    151.52      1.06 
   369.10     17.24  50406.27      0.00    151.97      1.06 
   369.20     17.25  50416.93      0.01    150.02      0.71 
   369.30     17.25  50427.37      0.02    148.39      0.76 
   369.40     17.24  50435.64      0.01    146.66      1.76 
   369.50     17.26  50442.70      0.02    142.97      1.82 
   369.60     17.26  50450.10      0.02    137.21      1.47 
   369.70     17.24  50456.30      0.01    123.19      1.82 
   369.80     17.24  50464.35      0.01    105.91      2.53 
   369.90     17.25  50478.38      0.03    100.70      1.41 
   370.00     17.26  50493.83      0.03     98.10      2.47 
   370.10     17.26  50502.75      0.02     95.82      2.47 
   370.20     17.26  50512.76      0.01     94.74      0.71 
   370.30     17.28  50523.42      0.03     95.39      1.41 
   370.40     17.29  50532.56      0.05     97.68      2.12 
   370.50     17.28  50540.83      0.03     98.12      2.12 
   370.60     17.29  50545.18      0.03     95.08      2.82 
   370.70     17.30  50548.33      0.06     92.03      2.47 
   370.80     17.29  50551.71      0.04     86.05      1.06 
   370.90     17.31  50556.17      0.06     75.72      0.71 
   371.00     17.31  50558.56      0.04     64.73      2.12 
   371.10     17.32  50560.85      0.06     57.23      3.88 
   371.20     17.33  50564.55      0.07     51.03      2.82 
   371.30     17.32  50566.72      0.04     42.00      0.71 
   371.40     17.33  50570.31      0.04     37.10      1.41 
   371.50     17.34  50574.12      0.06     32.97      0.71 
   371.60     17.34  50576.62      0.05     31.77      2.12 
   371.70     17.37  50578.80      0.07     30.47      2.82 
   371.80     17.37  50581.85      0.08     28.84      2.18 
   371.90     17.37  50583.15      0.06     26.99      3.35 
   372.00     17.39  50585.22      0.08     26.66      2.24 
   372.10     17.41  50586.96      0.09     26.12      1.06 
   372.20     17.41  50588.05      0.08     23.51      0.71 
   372.30     17.43  50589.14      0.11     21.66      1.76 
   372.40     17.44  50590.55      0.11     19.37      1.47 
   372.50     17.44  50589.79      0.10     16.32      1.53 
   372.60     17.45  50591.97      0.10     15.45      2.18 
   372.70     17.46  50593.49      0.09     14.04      1.76 
   372.80     17.46  50593.71      0.09     11.86      2.82 
   372.90     17.46  50594.80      0.09     11.64      2.53 
   373.00     17.47  50595.89      0.08     10.12      0.71 
   373.10     17.46  50595.78      0.05      9.47      2.12 
   373.20     17.47  50596.76      0.06      8.71      2.53 
   373.30     17.48  50598.50      0.05      9.36      2.18 
   373.40     17.47  50598.61      0.03      8.71      1.41 
   373.50     17.48  50599.81      0.04     10.01      1.06 
   373.60     17.48  50600.78      0.03      8.82      0.71 
   373.70     17.48  50600.78      0.02      8.05      1.06 
   373.80     17.49  50600.78      0.03      7.84      1.41 
   373.90     17.49  50602.42      0.03      7.62      1.12 
   374.00     17.49  50603.07      0.03      8.60      0.76 
   374.10     17.49  50602.96      0.03      7.18      1.47 
   374.20     17.48  50603.40      0.01      5.66      2.53 
   374.30     17.49  50602.96      0.01      4.46      2.12 
   374.40     17.49  50603.72      0.02      5.12      1.47 
   374.50     17.50  50605.46      0.02      5.33      2.18 
   374.60     17.50  50606.01      0.02      5.99      4.00 
   374.70     17.50  50606.12      0.02      5.99      2.88 
   374.80     17.50  50606.77      0.01      5.33      2.24 
   374.90     17.50  50606.12      0.01      3.70      0.76 
   375.00     17.49  50607.97      0.00      5.66      1.76 
   375.10     17.50  50607.75      0.02      4.79      2.82 
   375.20     17.49  50608.51      0.01      5.12      3.59 
   375.30     17.50  50609.17      0.01      5.55      1.76 
   375.40     17.51  50609.38      0.01      4.24      1.76 
   375.50     17.50  50609.17      0.00      4.03      1.82 
   375.60     17.50  50609.93      0.00      3.92      2.88 
   375.70     17.51  50611.02      0.01      4.90      3.18 
   375.80     17.51  50611.45      0.01      5.33      2.12 
   375.90     17.51  50612.10      0.01      5.22      1.76 
   376.00     17.51  50610.47      0.01      2.50      1.88 
   376.10     17.51  50611.89      0.01      3.48      1.88 
   376.20     17.51  50613.30      0.02      4.14      2.82 
   376.30     17.51  50613.95      0.01      4.79      2.88 
   376.40     17.52  50613.85      0.01      5.12      1.47 
   376.50     17.51  50614.72      0.01      5.55      1.76 
   376.60     17.53  50615.37      0.02      4.79      2.82 
   376.70     17.54  50615.04      0.03      4.03      1.76 
   376.80     17.53  50614.82      0.02      3.37      1.41 
   376.90     17.54  50616.24      0.04      3.48      2.29 
   377.00     17.53  50616.68      0.02      6.64      2.35 
   377.10     17.53  50616.57      0.02      4.35      2.18 
   377.20     17.53  50617.33      0.02      4.24      1.41 
   377.30     17.53  50617.98      0.02      4.24      2.12 
   377.40     17.53  50620.59      0.01      6.75      1.82 
   377.50     17.54  50629.63      0.03     14.91      1.53 
   377.60     17.55  50643.23      0.02     28.52      0.76 
   377.70     17.56  50672.08      0.02     57.58      1.41 
   377.80     17.59  50692.33      0.06     76.20      0.71 
   377.90     17.63  50699.52      0.09     82.63      2.47 
   378.00     17.68  50705.62      0.15     89.16      2.47 
   378.10     17.72  50713.24      0.19     96.67      1.47 
   378.20     17.77  50720.43      0.24    103.64      4.12 
   378.30     17.79  50725.65      0.26    107.13      2.65 
   378.40     17.82  50728.81      0.29    106.80      2.24 
   378.50     17.86  50732.19      0.31    101.14      3.24 
   378.60     17.90  50735.02      0.36     89.72      2.18 
