#Written by Robertson Geologging WinLogger V1.0/311
~VERSION INFORMATION
#------------------------------------------------------------------------------
 VERS. 2.0 : CWLS LOG ASCII STANDARD - VERSION 2.0
 WRAP. NO  : ONE LINE PER DEPTH STEP
~WELL INFORMATION
#MNEM.UNIT         DATA                                DESCRIPTION OF MNEMONIC
#------------------------------------------------------------------------------
 STRT.M         75.1000                            :   START DEPTH
 STOP.M        381.1000                            :   STOP DEPTH
 STEP.M          0.1000                            :   STEP VALUE
 NULL.        -999.2500                            :   NULL VALUE
 COMP.    IMC                                      :   COMPANY NAME
 WELL.    SOUTH SHAFT                              :   WELL NAME
 FLD.     HORDEN                                   :   FIELD NAME
 LOC.     N/A                                      :   LOCATION
 PROV.    N/A                                      :   PROVINCE
 SRVC.    N/A                                      :   SERVICE COMPANY NAME
 DATE.    03 Oct 03                                :   DATE
 UWI.     N/A                                      :   UNIQUE WELL IDENTIFIER
~PARAMETER INFORMATION
#MNEMO.UNIT         VALUE                 DESCRIPTION OF MNEMONIC
#------------------------------------------------------------------------------
~OTHER INFORMATION SECTION
#------------------------------------------------------------------------------
 TCDS 2822
~CURVE INFORMATION
#MNEMO.UNIT         API CODE              CURVE DESCRIPTION
#------------------------------------------------------------------------------
 DEPTH.M                                 :   0     Depth
 TEMP.DegC                               :   1     Temperature
 COND.uS/cm                              :   2     Conductivity
 DELT.DegC                               :   3     Delta T
 DELC.uS/cm                              :   4     Delta C
 NGAM.API                                :   5     Natural Gamma
#------------------------------------------------------------------------------
~A  DEPTH     TEMP      COND      DELT      DELC      NGAM      
# ...
   246.70     13.32   7301.61     -0.01     -0.77      3.76 
   246.80     13.31   7302.20     -0.03      1.87      4.18 
   246.90     13.32   7301.52     -0.01      2.89      2.71 
   247.00     13.32   7302.97     -0.01      3.74      1.12 
   247.10     13.31   7305.52     -0.00      7.48      1.18 
   247.20     13.31   7304.92     -0.00      5.10      1.94 
   247.30     13.33   7307.30      0.02      4.93      2.24 
   247.40     13.33   7308.49      0.02      7.31      2.82 
   247.50     13.34   7307.30      0.02      6.29      2.94 
   247.60     13.34   7306.71      0.02      5.87      1.12 
   247.70     13.34   7303.73      0.03      2.13      1.18 
   247.80     13.34   7301.10      0.03     -1.28      1.24 
   247.90     13.35   7301.52      0.03     -0.00      0.82 
   248.00     13.34   7300.08      0.02     -3.40      2.29 
   248.10     13.33   7298.97      0.02     -6.29      1.47 
   248.20     13.33   7299.40      0.02     -5.53      0.35 
   248.30     13.33   7298.72     -0.01     -9.18      0.71 
   248.40     13.33   7299.31      0.00     -9.52      2.35 
   248.50     13.32   7298.63     -0.02     -8.67      4.24 
   248.60     13.31   7298.80     -0.03     -7.91      2.71 
   248.70     13.32   7299.40     -0.02     -3.74      1.94 
   248.80     13.33   7299.82     -0.01     -1.28      1.82 
   248.90     13.31   7299.31     -0.04     -2.55      2.24 
   249.00     13.30   7299.48     -0.04     -0.60      2.35 
   249.10     13.32   7299.91     -0.01      0.94      1.24 
   249.20     13.32   7300.08     -0.02      0.85      1.65 
   249.30     13.33   7300.16      0.01      1.11      0.76 
   249.40     13.32   7299.40     -0.00     -0.34      1.76 
   249.50     13.32   7300.25      0.00      1.79      2.18 
   249.60     13.31   7300.25     -0.00      1.02      1.88 
   249.70     13.31   7299.91     -0.01      0.51      1.59 
   249.80     13.32   7299.91     -0.01      0.09      1.18 
   249.90     13.32   7299.91      0.01      1.19      1.59 
   250.00     13.32   7299.48      0.01      0.17      3.06 
   250.10     13.32   7300.59     -0.00      0.68      1.94 
   250.20     13.31   7301.95     -0.01      1.87      1.18 
   250.30     13.31   7302.63     -0.03      2.64      0.71 
   250.40     13.31   7302.37     -0.01      3.15      1.94 
   250.50     13.31   7301.35     -0.00      1.11      3.06 
   250.60     13.33   7301.01      0.02      1.28      2.18 
   250.70     13.32   7302.37      0.00      2.64      1.82 
   250.80     13.32   7303.05     -0.00      3.32      1.47 
   250.90     13.33   7302.46      0.01      3.15      1.18 
   251.00     13.33   7302.03      0.02      2.55      1.65 
   251.10     13.32   7301.69      0.01      0.77      0.41 
   251.20     13.33   7302.29      0.02      0.34      0.82 
   251.30     13.33   7303.99      0.02      1.36      1.59 
   251.40     13.32   7304.33      0.01      1.96      2.71 
   251.50     13.32   7304.33      0.01      3.57      1.24 
   251.60     13.33   7304.33      0.01      2.81      1.88 
   251.70     13.32   7305.18      0.00      2.21      2.65 
   251.80     13.34   7304.67      0.02      1.62      2.18 
   251.90     13.34   7307.64      0.01      5.78      1.53 
   252.00     13.34   7316.49      0.00     14.80      1.88 
   252.10     13.32   7315.98      0.00     14.28      1.82 
   252.20     13.33   7315.21      0.00     12.33      1.88 
   252.30     13.34   7316.74      0.01     12.16      1.88 
   252.40     13.36   7317.25      0.04     12.92      0.71 
   252.50     13.36   7318.53      0.04     14.20      0.76 
   252.60     13.37   7318.61      0.03     14.03      0.00 
   252.70     13.37   7318.02      0.05     12.84      0.41 
   252.80     13.38   7318.27      0.04     13.35      0.71 
   252.90     13.38   7317.93      0.04      9.69      1.94 
   253.00     13.39   7317.34      0.05      0.26      1.18 
   253.10     13.38   7317.17      0.06      2.38      3.12 
   253.20     13.38   7316.06      0.04      0.85      1.59 
   253.30     13.38   7314.70      0.03     -1.70      1.24 
   253.40     13.39   7315.81      0.03     -1.11      2.00 
   253.50     13.39   7315.89      0.02     -2.64      2.35 
   253.60     13.39   7315.30      0.02     -3.32      2.29 
   253.70     13.38   7314.62      0.01     -3.66      1.06 
   253.80     13.38   7314.11     -0.00     -3.83      0.76 
   253.90     13.38   7314.36      0.00     -3.23      1.12 
   254.00     13.38   7313.00     -0.01     -4.59      1.06 
   254.10     13.37   7312.75     -0.01     -3.83      1.59 
   254.20     13.38   7312.66     -0.00     -2.64      1.12 
   254.30     13.36   7311.90     -0.02     -3.32      1.47 
   254.40     13.37   7311.30     -0.02     -4.25      1.47 
   254.50     13.37   7311.90     -0.02     -3.40      2.41 
   254.60     13.37   7312.07     -0.02     -2.98      1.59 
   254.70     13.36   7310.79     -0.02     -3.83      2.59 
   254.80     13.37   7309.94     -0.01     -4.17      1.53 
   254.90     13.37   7309.09     -0.02     -4.76      1.94 
   255.00     13.35   7309.09     -0.03     -3.91      0.82 
   255.10     13.36   7308.75     -0.01     -4.00      0.41 
   255.20     13.35   7308.75     -0.02     -3.40      0.76 
   255.30     13.36   7308.15     -0.01     -3.49      3.35 
   255.40     13.36   7307.90     -0.01     -4.25      1.94 
   255.50     13.34   7307.64     -0.03     -4.59      1.47 
   255.60     13.34   7308.24     -0.02     -3.57      1.88 
   255.70     13.34   7307.90     -0.01     -2.64      2.41 
   255.80     13.34   7307.05     -0.03     -3.23      2.41 
   255.90     13.35   7307.05     -0.02     -2.04      1.59 
   256.00     13.34   7307.30     -0.01     -2.04      1.18 
   256.10     13.34   7309.34     -0.02      0.26      1.47 
   256.20     13.34   7309.09     -0.01      0.00      2.71 
   256.30     13.35   7309.09     -0.01      0.94      2.35 
   256.40     13.35   7309.68     -0.01      2.13      1.47 
   256.50     13.34   7309.34      0.01      0.85      1.88 
   256.60     13.35   7309.94      0.00      1.11      1.88 
   256.70     13.35   7310.28      0.01      2.64      1.47 
   256.80     13.35   7310.02      0.00      2.98      1.53 
   256.90     13.35   7310.02      0.00      2.72      0.35 
   257.00     13.35   7309.43      0.01      2.47      0.35 
   257.10     13.35   7309.09      0.01      0.34      1.24 
   257.20     13.35   7309.09      0.00      0.60      0.41 
   257.30     13.35   7309.34     -0.00      0.60      0.00 
   257.40     13.35   7309.68      0.00      0.00      0.71 
   257.50     13.34   7309.09     -0.00      0.00      1.53 
   257.60     13.35   7307.90      0.01     -2.38      2.24 
   257.70     13.35   7309.09      0.00     -0.94      2.53 
   257.80     13.34   7309.09     -0.00     -0.94      2.18 
   257.90     13.35   7309.43      0.00      0.00      0.41 
   258.00     13.35   7310.28     -0.00      0.85      0.41 
   258.10     13.36   7310.28      0.00      1.19      0.76 
   258.20     13.34   7309.68     -0.00      0.34      1.94 
   258.30     13.35   7309.68      0.00      0.34      2.59 
   258.40     13.35   7308.15      0.01     -1.53      2.59 
   258.50     13.35   7307.30      0.01     -1.79      1.12 
   258.60     13.36   7307.30      0.00     -0.60      1.18 
   258.70     13.35   7305.52      0.01     -3.23      0.82 
   258.80     13.34   7306.71     -0.00     -2.64      0.82 
   258.90     13.34   7306.37     -0.01     -3.66      1.12 
   259.00     13.35   7306.37     -0.00     -3.66      1.88 
   259.10     13.34   7306.71     -0.01     -3.32      1.18 
   259.20     13.34   7307.05     -0.00     -2.64      0.00 
   259.30     13.34   7306.11     -0.01     -3.23      0.35 
   259.40     13.34   7307.30     -0.02      0.00      0.71 
   259.50     13.34   7307.64     -0.01      0.34      1.94 
   259.60     13.34   7307.90     -0.01      1.53      2.00 
   259.70     13.35   7308.15     -0.00      2.64      2.00 
   259.80     13.35   7308.49      0.00      1.79      2.00 
