#Written by Robertson Geologging WinLogger V1.0/311
~VERSION INFORMATION
#------------------------------------------------------------------------------
 VERS. 2.0 : CWLS LOG ASCII STANDARD - VERSION 2.0
 WRAP. NO  : ONE LINE PER DEPTH STEP
~WELL INFORMATION
#MNEM.UNIT         DATA                                DESCRIPTION OF MNEMONIC
#------------------------------------------------------------------------------
 STRT.M         75.1000                            :   START DEPTH
 STOP.M        381.1000                            :   STOP DEPTH
 STEP.M          0.1000                            :   STEP VALUE
 NULL.        -999.2500                            :   NULL VALUE
 COMP.    IMC                                      :   COMPANY NAME
 WELL.    SOUTH SHAFT                              :   WELL NAME
 FLD.     HORDEN                                   :   FIELD NAME
 LOC.     N/A                                      :   LOCATION
 PROV.    N/A                                      :   PROVINCE
 SRVC.    N/A                                      :   SERVICE COMPANY NAME
 DATE.    03 Oct 03                                :   DATE
 UWI.     N/A                                      :   UNIQUE WELL IDENTIFIER
~PARAMETER INFORMATION
#MNEMO.UNIT         VALUE                 DESCRIPTION OF MNEMONIC
#------------------------------------------------------------------------------
~OTHER INFORMATION SECTION
#------------------------------------------------------------------------------
 TCDS 2822
~CURVE INFORMATION
#MNEMO.UNIT         API CODE              CURVE DESCRIPTION
#------------------------------------------------------------------------------
 DEPTH.M                                 :   0     Depth
 TEMP.DegC                               :   1     Temperature
 COND.uS/cm                              :   2     Conductivity
 DELT.DegC                               :   3     Delta T
 DELC.uS/cm                              :   4     Delta C
 NGAM.API                                :   5     Natural Gamma
#------------------------------------------------------------------------------
~A  DEPTH     TEMP      COND      DELT      DELC      NGAM      
# ...
   286.30     15.36  10563.81      0.02      0.44      0.76 
   286.40     15.36  10564.60     -0.00      0.78      0.76 
   286.50     15.36  10564.77      0.01      1.65      1.59 
   286.60     15.35  10563.47     -0.01     -1.31      1.59 
   286.70     15.34  10563.20     -0.01     -0.78      1.94 
   286.80     15.36  10563.38     -0.00     -0.87      1.65 
   286.90     15.36  10563.38      0.01     -1.39      1.94 
   287.00     15.36  10563.12      0.01     -1.65      1.53 
   287.10     15.35  10561.46     -0.01     -2.96      0.76 
   287.20     15.35  10561.55     -0.00     -3.05      0.41 
   287.30     15.35  10562.16     -0.01     -1.13      1.24 
   287.40     15.36  10561.38      0.00     -3.57      2.00 
   287.50     15.35  10562.16     -0.01     -2.61      1.59 
   287.60     15.35  10561.72      0.01     -1.74      0.82 
   287.70     15.35  10561.64      0.01     -1.57      0.35 
   287.80     15.35  10560.94     -0.01     -2.44      0.35 
   287.90     15.34  10561.46     -0.02     -1.91      1.65 
   288.00     15.35  10561.64     -0.01     -1.65      2.06 
   288.10     15.35  10561.72      0.01     -0.44      0.82 
   288.20     15.36  10561.55      0.01      0.00      0.76 
   288.30     15.35  10562.16     -0.01      0.61      1.88 
   288.40     15.35  10561.81     -0.01      0.26      1.47 
   288.50     15.36  10560.94      0.01     -1.22      1.18 
   288.60     15.36  10560.85      0.00     -0.78      1.53 
   288.70     15.36  10562.16      0.01      0.70      1.53 
   288.80     15.35  10562.07     -0.00      1.13      2.82 
   288.90     15.36  10562.16      0.02      0.70      1.94 
   289.00     15.36  10561.55      0.00     -0.09      1.53 
   289.10     15.36  10562.07      0.00     -0.35      1.53 
   289.20     15.35  10562.25     -0.01      0.70      1.06 
   289.30     15.35  10562.51      0.01      1.04      0.71 
   289.40     15.35  10561.46     -0.00      0.35      1.76 
   289.50     15.36  10562.51      0.00      1.74      2.18 
   289.60     15.36  10562.42      0.01      1.13      1.53 
   289.70     15.35  10561.38     -0.00     -0.78      1.94 
   289.80     15.36  10561.90      0.01     -0.26      2.29 
   289.90     15.35  10562.51     -0.01      0.52      3.47 
   290.00     15.35  10562.16     -0.01      0.78      1.88 
   290.10     15.35  10561.55     -0.01     -0.52      2.24 
   290.20     15.35  10562.77      0.00      0.96      1.41 
   290.30     15.36  10562.94      0.01      1.65      0.35 
   290.40     15.36  10562.77      0.01      1.31      2.35 
   290.50     15.37  10562.86      0.00      0.35      3.47 
   290.60     15.36  10563.12     -0.00      0.70      2.29 
   290.70     15.35  10562.42     -0.00      0.44      1.82 
   290.80     15.35  10563.03     -0.01      0.44      1.06 
   290.90     15.35  10562.42      0.00      0.35      1.53 
   291.00     15.35  10562.94      0.00      0.78      0.82 
   291.10     15.36  10563.81      0.01      1.83      0.35 
   291.20     15.35  10563.99     -0.00      1.31      1.06 
   291.30     15.36  10564.08      0.00      1.74      1.76 
   291.40     15.36  10563.81      0.00      1.04      2.65 
   291.50     15.36  10563.73     -0.00      1.31      2.76 
   291.60     15.36  10564.60      0.01      1.91      1.59 
   291.70     15.36  10563.29      0.01      0.70      1.53 
   291.80     15.37  10563.73      0.02      0.70      0.82 
   291.90     15.36  10563.47      0.01      1.65      1.12 
   292.00     15.36  10561.38      0.01     -1.74      1.59 
   292.10     15.36  10560.33      0.01     -3.66      2.06 
   292.20     15.35  10560.25     -0.00     -4.35      2.41 
   292.30     15.36  10560.33      0.01     -3.74      1.65 
   292.40     15.35  10559.29     -0.01     -4.53      1.18 
   292.50     15.37  10559.20      0.00     -4.70      0.76 
   292.60     15.35  10559.81     -0.01     -4.18      0.00 
   292.70     15.35  10560.25     -0.01     -3.57      1.18 
   292.80     15.36  10559.81     -0.01     -4.53      2.24 
   292.90     15.35  10560.25     -0.01     -2.79      0.71 
   293.00     15.37  10560.59      0.01     -0.35      1.12 
   293.10     15.36  10560.68     -0.00      0.26      3.29 
   293.20     15.36  10560.07      0.01     -0.26      3.65 
   293.30     15.37  10560.59      0.01      0.70      3.41 
   293.40     15.37  10560.51      0.02      1.65      2.24 
   293.50     15.36  10561.03     -0.01      1.74      1.41 
   293.60     15.37  10560.16      0.02     -0.17      2.12 
   293.70     15.37  10560.68      0.02      0.52      2.47 
   293.80     15.38  10561.12      0.02      1.48      0.35 
   293.90     15.37  10560.68      0.01      0.52      1.82 
   294.00     15.38  10560.07      0.01     -0.70      1.41 
   294.10     15.36  10560.77      0.00     -0.44      1.06 
   294.20     15.37  10561.72      0.00      1.13      1.06 
   294.30     15.36  10561.12     -0.01     -0.00      1.82 
   294.40     15.37  10562.25     -0.00      1.22      1.53 
   294.50     15.36  10562.33     -0.00      2.35      0.41 
   294.60     15.36  10562.07     -0.01      1.91      0.41 
   294.70     15.38  10561.72      0.01      1.13      0.35 
   294.80     15.36  10561.72     -0.01      0.61      1.12 
   294.90     15.37  10562.16      0.00      0.96      1.53 
   295.00     15.37  10562.25     -0.01      2.09      1.12 
   295.10     15.36  10562.25      0.00      2.00      1.18 
   295.20     15.36  10563.64     -0.01      1.91      1.53 
   295.30     15.36  10563.03     -0.01      1.39      1.47 
   295.40     15.36  10563.38     -0.01      1.13      1.12 
   295.50     15.37  10563.90      0.01      1.74      1.53 
   295.60     15.37  10563.73      0.00      1.65      1.94 
   295.70     15.37  10563.81     -0.01      1.91      1.18 
   295.80     15.36  10562.25     -0.00      0.00      1.47 
   295.90     15.36  10563.99     -0.01      1.83      1.12 
   296.00     15.37  10560.68      0.00     -1.57      1.53 
   296.10     15.35  10561.12     -0.01     -2.35      1.24 
   296.20     15.37  10560.16      0.01     -3.05      1.47 
   296.30     15.37  10560.77      0.01     -2.26      1.47 
   296.40     15.36  10560.42      0.00     -2.96      0.41 
   296.50     15.36  10560.59     -0.01     -3.13      0.41 
   296.60     15.36  10561.03     -0.01     -2.70      1.12 
   296.70     15.37  10561.55      0.00     -2.26      0.76 
   296.80     15.37  10561.46      0.01     -0.78      1.82 
   296.90     15.37  10561.03      0.01     -2.96      1.82 
   297.00     15.36  10561.64     -0.01      1.04      0.76 
   297.10     15.37  10561.64      0.02      0.52      1.12 
   297.20     15.37  10561.99      0.00      1.83      1.06 
   297.30     15.37  10560.68     -0.00     -0.52      1.41 
   297.40     15.35  10561.20     -0.01      0.35      1.12 
   297.50     15.37  10560.68      0.01      0.09      0.76 
   297.60     15.38  10560.25      0.02     -0.78      0.41 
   297.70     15.38  10560.51      0.01     -1.04      1.18 
   297.80     15.37  10561.55      0.00      0.00      1.53 
   297.90     15.38  10561.81      0.02      1.31      2.18 
   298.00     15.38  10561.46      0.02      0.26      1.76 
   298.10     15.37  10562.16      0.00      0.35      2.59 
   298.20     15.37  10562.42      0.00      0.44      2.71 
   298.30     15.37  10562.42      0.00      1.31      1.59 
   298.40     15.37  10561.81      0.01      0.17      0.41 
   298.50     15.37  10562.86      0.00      2.26      1.47 
   298.60     15.38  10562.86      0.00      2.70      0.35 
   298.70     15.37  10563.03     -0.01      2.52      0.76 
   298.80     15.37  10562.60     -0.00      0.87      1.06 
   298.90     15.37  10563.47     -0.01      1.13      3.35 
   299.00     15.37  10563.29     -0.01      1.74      3.06 
   299.10     15.37  10563.38      0.00      1.04      1.18 
   299.20     15.38  10563.38      0.02      0.78      1.53 
   299.30     15.38  10564.60      0.01      2.09      0.71 
   299.40     15.37  10564.08      0.00      2.26      0.71 
