#Written by Robertson Geologging WinLogger V1.0/312
~VERSION INFORMATION
#------------------------------------------------------------------------------
 VERS. 2.0 : CWLS LOG ASCII STANDARD - VERSION 2.0
 WRAP. NO  : ONE LINE PER DEPTH STEP
~WELL INFORMATION
#MNEM.UNIT         DATA                                DESCRIPTION OF MNEMONIC
#------------------------------------------------------------------------------
 STRT.M         72.1000                            :   START DEPTH
 STOP.M        377.0000                            :   STOP DEPTH
 STEP.M          0.1000                            :   STEP VALUE
 NULL.        -999.2500                            :   NULL VALUE
 COMP.    I.M..C.                                  :   COMPANY NAME
 WELL.    Horden Shaft                             :   WELL NAME
 FLD.     Horden                                   :   FIELD NAME
 LOC.     N/A                                      :   LOCATION
 PROV.    N/A                                      :   PROVINCE
 SRVC.    N/A                                      :   SERVICE COMPANY NAME
 DATE.    30 Jan 04                                :   DATE
 UWI.     N/A                                      :   UNIQUE WELL IDENTIFIER
~PARAMETER INFORMATION
#MNEMO.UNIT         VALUE                 DESCRIPTION OF MNEMONIC
#------------------------------------------------------------------------------
~OTHER INFORMATION SECTION
#------------------------------------------------------------------------------
 TCGX extended range 1365
~CURVE INFORMATION
#MNEMO.UNIT         API CODE              CURVE DESCRIPTION
#------------------------------------------------------------------------------
 DEPTH.M                                 :   0     Depth
 COND.mS/cm                              :   1     Conductivity
 TEMP.DegC                               :   2     Temperature
 C@25.mS/cm                              :   3     Conductivity @25Deg
 DELT.DegC                               :   4     Delta T
 DC@25.mS/cm                             :   5     Delta C @25Deg
 OUT4.CPS                                :   6     Natural Gamma
#------------------------------------------------------------------------------
~A  DEPTH     COND      TEMP      C@25      DELT      DC@25     OUT4      
# ...
   365.90     57.68     16.96     69.85     -0.01      0.22     16.88 
   366.00     57.69     16.95     69.87     -0.03      0.26     17.76 
   366.10     57.70     16.94     69.91     -0.04      0.27     16.53 
   366.20     57.72     16.95     69.89     -0.01      0.20     17.41 
   366.30     57.73     16.94     69.94     -0.02      0.21     16.24 
   366.40     57.74     16.96     69.91      0.00      0.15     15.53 
   366.50     57.75     16.96     69.92      0.01      0.12     18.00 
   366.60     57.76     16.96     69.94     -0.01      0.16     16.65 
   366.70     57.77     16.96     69.94     -0.01      0.16     17.94 
   366.80     57.77     16.95     69.97      0.00      0.13     17.24 
   366.90     57.78     16.95     69.97     -0.00      0.14     15.35 
   367.00     57.80     16.95     69.99      0.00      0.11     15.35 
   367.10     57.81     16.95     70.01      0.01      0.11     20.82 
   367.20     57.82     16.95     70.03     -0.00      0.12     20.88 
   367.30     57.83     16.97     70.00      0.02      0.07     21.24 
   367.40     57.84     16.96     70.04     -0.00      0.13     17.88 
   367.50     57.84     16.97     70.02      0.01      0.09     20.24 
   367.60     57.86     16.97     70.03      0.01      0.09     21.24 
   367.70     57.87     16.97     70.04      0.01      0.08     19.47 
   367.80     57.87     16.97     70.03      0.02      0.06     22.65 
   367.90     57.89     16.97     70.05      0.02      0.07     23.88 
   368.00     57.90     16.97     70.06      0.02      0.07     18.88 
   368.10     57.90     16.97     70.07      0.02      0.05     13.94 
   368.20     57.91     16.99     70.04      0.03      0.01     12.94 
   368.30     57.92     16.97     70.10      0.00      0.10     20.88 
   368.40     57.93     16.98     70.09      0.02      0.06     19.59 
   368.50     57.94     16.96     70.13     -0.00      0.11     13.76 
   368.60     57.95     16.97     70.13      0.00      0.11     14.47 
   368.70     57.96     16.97     70.15     -0.00      0.11     19.00 
   368.80     57.96     16.97     70.14     -0.00      0.11     17.24 
   368.90     57.97     16.96     70.18     -0.00      0.12     14.24 
   369.00     57.98     16.96     70.20     -0.02      0.14     22.18 
   369.10     57.99     16.96     70.19     -0.01      0.13     20.65 
   369.20     57.99     16.98     70.17     -0.01      0.12     18.76 
   369.30     58.00     16.96     70.21     -0.01      0.11     16.53 
   369.40     58.00     16.96     70.23     -0.02      0.15     16.94 
   369.50     58.00     16.95     70.24     -0.01      0.11     15.06 
   369.60     58.01     16.97     70.22     -0.00      0.08     15.71 
   369.70     58.01     16.96     70.24     -0.01      0.09     18.41 
   369.80     58.01     16.96     70.25     -0.01      0.09     18.18 
   369.90     58.02     16.95     70.25     -0.01      0.07     19.71 
   370.00     58.03     16.94     70.32     -0.02      0.13     17.53 
   370.10     58.03     16.94     70.31     -0.02      0.12     12.59 
   370.20     58.03     16.93     70.33     -0.04      0.17     15.53 
   370.30     58.03     16.93     70.35     -0.03      0.13     14.59 
   370.40     58.04     16.92     70.37     -0.04      0.14     15.12 
   370.50     58.04     16.94     70.34     -0.02      0.10     11.53 
   370.60     58.04     16.93     70.35     -0.04      0.14     17.94 
   370.70     58.05     16.94     70.34     -0.02      0.09     18.18 
   370.80     58.05     16.93     70.36     -0.03      0.12     15.47 
   370.90     58.05     16.94     70.33     -0.01      0.06     16.82 
   371.00     58.05     16.93     70.36     -0.01      0.06     18.41 
   371.10     58.06     16.92     70.39     -0.02      0.08     16.35 
   371.20     58.06     16.93     70.38     -0.00      0.04     16.12 
   371.30     58.07     16.93     70.38      0.00      0.03     19.24 
   371.40     58.07     16.94     70.35      0.02     -0.03     17.82 
   371.50     58.07     16.92     70.41     -0.02      0.08     15.12 
   371.60     58.07     16.95     70.35      0.02     -0.02     16.18 
   371.70     58.08     16.95     70.35      0.01      0.01     15.59 
   371.80     58.08     16.95     70.36      0.01      0.01     16.94 
   371.90     58.08     16.96     70.32      0.02     -0.01     16.53 
   372.00     58.09     16.95     70.35      0.02     -0.02     15.53 
   372.10     58.09     16.95     70.36      0.02     -0.03     17.00 
   372.20     58.09     16.97     70.30      0.04     -0.08     19.35 
   372.30     58.10     16.98     70.29      0.04     -0.09     19.00 
   372.40     58.10     16.97     70.31      0.03     -0.04     19.82 
   372.50     58.09     16.98     70.30      0.06     -0.13     22.18 
   372.60     58.10     16.98     70.27      0.03     -0.06     17.76 
   372.70     58.11     16.97     70.31      0.03     -0.04     15.12 
   372.80     58.11     16.98     70.29      0.03     -0.06     17.00 
   372.90     58.11     16.98     70.30      0.02     -0.01     22.35 
   373.00     58.11     16.98     70.29      0.04     -0.08     19.76 
   373.10     58.11     16.99     70.26      0.04     -0.09     16.18 
   373.20     58.11     16.98     70.29      0.01     -0.00     22.18 
   373.30     58.12     16.99     70.29      0.01     -0.00     20.88 
   373.40     58.12     16.99     70.28      0.02     -0.04     20.18 
   373.50     58.12     17.00     70.26      0.02     -0.02     17.94 
   373.60     58.12     17.00     70.26      0.02     -0.03     16.71 
   373.70     58.13     16.98     70.31      0.01     -0.00     18.82 
   373.80     58.12     16.99     70.28      0.01     -0.01     15.35 
   373.90     58.12     16.99     70.29      0.01     -0.02     13.94 
   374.00     58.13     17.00     70.25      0.02     -0.03     17.82 
   374.10     58.13     16.98     70.30     -0.00      0.03     17.47 
   374.20     58.13     17.00     70.28      0.01     -0.02     18.88 
   374.30     58.13     16.98     70.31     -0.01      0.04     18.53 
   374.40     58.13     16.99     70.30      0.00      0.01     17.65 
   374.50     58.13     16.98     70.31     -0.01      0.06     16.71 
   374.60     58.13     16.99     70.31     -0.01      0.04     18.71 
   374.70     58.14     16.98     70.32     -0.00      0.02     20.00 
   374.80     58.14     16.99     70.32     -0.00      0.02     18.59 
   374.90     58.14     16.99     70.30     -0.00      0.03     17.88 
   375.00     58.14     16.98     70.34     -0.03      0.08     18.35 
   375.10     58.14     16.98     70.34     -0.00      0.02     19.65 
   375.20     58.14     16.99     70.31     -0.01      0.04     21.24 
   375.30     58.14     17.00     70.27      0.02     -0.05     16.41 
   375.40     58.15     16.98     70.32     -0.01      0.04     14.18 
   375.50     58.15     16.99     70.31      0.01     -0.02     17.76 
   375.60     58.14     16.98     70.35     -0.02      0.05     20.47 
   375.70     58.15     16.99     70.33      0.01     -0.01     18.12 
   375.80     58.15     16.98     70.34     -0.01      0.03     15.65 
   375.90     58.15     16.97     70.36     -0.02      0.06     17.29 
   376.00     58.15     16.99     70.31      0.02     -0.03     16.18 
   376.10     58.15     16.99     70.32      0.01     -0.01     16.59 
   376.20     58.15     16.97     70.36     -0.02      0.07     17.35 
   376.30     58.15     16.98     70.35     -0.02      0.06     14.59 
   376.40     58.15     16.98     70.35     -0.00      0.02     13.53 
   376.50     58.16     16.98     70.35     -0.01      0.03     18.65 
   376.60     58.15     16.98     70.34      0.01     -0.01     18.06 
   376.70     58.16     16.99     70.33      0.00      0.00     18.47 
   376.80     58.16     16.98     70.35     -0.00      0.02     17.88 
   376.90     58.16     16.98     70.36      0.00      0.01     19.65 
   377.00     58.16     16.98     70.35     -0.01      0.05     17.29 
