#Written by Robertson Geologging WinLogger V1.0/312
~VERSION INFORMATION
#------------------------------------------------------------------------------
 VERS. 2.0 : CWLS LOG ASCII STANDARD - VERSION 2.0
 WRAP. NO  : ONE LINE PER DEPTH STEP
~WELL INFORMATION
#MNEM.UNIT         DATA                                DESCRIPTION OF MNEMONIC
#------------------------------------------------------------------------------
 STRT.M         72.1000                            :   START DEPTH
 STOP.M        377.0000                            :   STOP DEPTH
 STEP.M          0.1000                            :   STEP VALUE
 NULL.        -999.2500                            :   NULL VALUE
 COMP.    I.M..C.                                  :   COMPANY NAME
 WELL.    Horden Shaft                             :   WELL NAME
 FLD.     Horden                                   :   FIELD NAME
 LOC.     N/A                                      :   LOCATION
 PROV.    N/A                                      :   PROVINCE
 SRVC.    N/A                                      :   SERVICE COMPANY NAME
 DATE.    30 Jan 04                                :   DATE
 UWI.     N/A                                      :   UNIQUE WELL IDENTIFIER
~PARAMETER INFORMATION
#MNEMO.UNIT         VALUE                 DESCRIPTION OF MNEMONIC
#------------------------------------------------------------------------------
~OTHER INFORMATION SECTION
#------------------------------------------------------------------------------
 TCGX extended range 1365
~CURVE INFORMATION
#MNEMO.UNIT         API CODE              CURVE DESCRIPTION
#------------------------------------------------------------------------------
 DEPTH.M                                 :   0     Depth
 COND.mS/cm                              :   1     Conductivity
 TEMP.DegC                               :   2     Temperature
 C@25.mS/cm                              :   3     Conductivity @25Deg
 DELT.DegC                               :   4     Delta T
 DC@25.mS/cm                             :   5     Delta C @25Deg
 OUT4.CPS                                :   6     Natural Gamma
#------------------------------------------------------------------------------
~A  DEPTH     COND      TEMP      C@25      DELT      DC@25     OUT4      
# ...
   332.00     19.90     16.54     25.52      0.04      0.25      9.53 
   332.10     19.91     16.54     25.54      0.03      0.24      8.47 
   332.20     19.92     16.54     25.55      0.01      0.23      7.12 
   332.30     19.93     16.55     25.55      0.02      0.19      7.24 
   332.40     19.94     16.54     25.57      0.01      0.17      9.59 
   332.50     19.95     16.54     25.59      0.00      0.15      8.41 
   332.60     19.96     16.54     25.61     -0.00      0.14      5.71 
   332.70     19.96     16.54     25.60      0.00      0.12      6.82 
   332.80     19.97     16.55     25.60     -0.00      0.11      6.29 
   332.90     19.98     16.54     25.61      0.00      0.10      8.18 
   333.00     19.98     16.55     25.61      0.00      0.09      9.12 
   333.10     19.98     16.55     25.61      0.01      0.07      5.76 
   333.20     19.99     16.55     25.61      0.01      0.06      4.82 
   333.30     19.99     16.55     25.61      0.00      0.06      6.00 
   333.40     19.99     16.55     25.63      0.00      0.05      9.12 
   333.50     19.99     16.55     25.62      0.01      0.04     11.76 
   333.60     20.00     16.55     25.63      0.01      0.03     11.71 
   333.70     20.00     16.55     25.63      0.00      0.03      9.71 
   333.80     20.00     16.55     25.64      0.00      0.03     10.59 
   333.90     20.00     16.55     25.64      0.00      0.03      9.29 
   334.00     20.00     16.55     25.64     -0.00      0.04      7.53 
   334.10     20.01     16.54     25.65     -0.01      0.05      6.12 
   334.20     20.01     16.55     25.64     -0.01      0.04      7.47 
   334.30     20.01     16.55     25.65     -0.00      0.03      7.00 
   334.40     20.01     16.54     25.66     -0.01      0.03      8.18 
   334.50     20.01     16.54     25.66     -0.00      0.03      8.94 
   334.60     20.01     16.55     25.64      0.01      0.01      7.47 
   334.70     20.01     16.55     25.65      0.00      0.02      8.18 
   334.80     20.01     16.54     25.66     -0.01      0.02     10.18 
   334.90     20.01     16.55     25.65      0.00      0.01      9.29 
   335.00     20.02     16.54     25.67     -0.01      0.03      8.29 
   335.10     20.01     16.53     25.68     -0.01      0.03      7.12 
   335.20     20.02     16.55     25.66      0.00      0.01      8.00 
   335.30     20.02     16.54     25.67     -0.01      0.02      6.94 
   335.40     20.02     16.55     25.66      0.01     -0.00      4.59 
   335.50     20.02     16.55     25.66      0.01      0.00      5.53 
   335.60     20.02     16.54     25.67     -0.01      0.03      8.18 
   335.70     20.02     16.55     25.66      0.01      0.00      6.65 
   335.80     20.02     16.55     25.66      0.01     -0.00      6.82 
   335.90     20.03     16.56     25.65      0.01     -0.00      7.47 
   336.00     20.03     16.55     25.66      0.02     -0.01      7.76 
   336.10     20.03     16.55     25.67      0.01     -0.01      7.06 
   336.20     20.03     16.55     25.67      0.00      0.01      7.82 
   336.30     20.03     16.54     25.68      0.00      0.01      8.18 
   336.40     20.03     16.54     25.68     -0.01      0.02      6.71 
   336.50     20.03     16.55     25.67     -0.00      0.01      6.76 
   336.60     20.03     16.55     25.67      0.01      0.01      8.82 
   336.70     20.03     16.54     25.67     -0.01      0.03      7.29 
   336.80     20.03     16.54     25.68     -0.01      0.03      4.88 
   336.90     20.03     16.54     25.68     -0.01      0.03      6.88 
   337.00     20.03     16.55     25.68     -0.00      0.02      8.35 
   337.10     20.03     16.54     25.68     -0.00      0.01      8.65 
   337.20     20.03     16.55     25.68     -0.00      0.01      9.47 
   337.30     20.04     16.55     25.68      0.01     -0.00      4.71 
   337.40     20.04     16.55     25.68      0.01     -0.00      7.06 
   337.50     20.04     16.55     25.68      0.00      0.01      8.94 
   337.60     20.04     16.55     25.68      0.00      0.01      7.35 
   337.70     20.04     16.54     25.70     -0.00      0.02     10.12 
   337.80     20.04     16.55     25.69      0.00      0.00      8.29 
   337.90     20.05     16.55     25.69      0.01      0.00      6.41 
   338.00     20.05     16.55     25.69      0.00      0.01      9.06 
   338.10     20.04     16.55     25.69      0.00      0.00      9.06 
   338.20     20.04     16.55     25.67      0.01     -0.01      8.06 
   338.30     20.04     16.54     25.69     -0.01      0.01      5.76 
   338.40     20.04     16.55     25.68     -0.00     -0.00      6.53 
   338.50     20.04     16.55     25.68     -0.00      0.00      7.82 
   338.60     20.03     16.54     25.69     -0.01     -0.00      6.88 
   338.70     20.04     16.55     25.68      0.00     -0.01      7.76 
   338.80     20.03     16.55     25.68     -0.00     -0.01      7.18 
   338.90     20.03     16.55     25.68     -0.00     -0.01      7.47 
   339.00     20.04     16.55     25.68      0.00     -0.02      9.24 
   339.10     20.03     16.55     25.67      0.00     -0.01      8.76 
   339.20     20.03     16.55     25.67     -0.00     -0.00      6.00 
   339.30     20.03     16.54     25.68      0.00     -0.01      5.59 
   339.40     20.03     16.54     25.70     -0.01      0.02      7.94 
   339.50     20.03     16.55     25.68      0.00     -0.01      7.29 
   339.60     20.03     16.55     25.67      0.01     -0.01      4.53 
   339.70     20.04     16.55     25.68      0.00     -0.00      5.24 
   339.80     20.03     16.54     25.69     -0.00      0.01      9.12 
   339.90     20.03     16.54     25.69     -0.01      0.01      9.35 
   340.00     20.03     16.55     25.68      0.00     -0.01      7.94 
   340.10     20.03     16.55     25.68     -0.00      0.01      7.53 
   340.20     20.03     16.55     25.67      0.00     -0.00      7.76 
   340.30     20.03     16.55     25.67      0.01     -0.02      7.65 
   340.40     20.04     16.55     25.68      0.01     -0.01      7.12 
   340.50     20.03     16.54     25.68     -0.01      0.01      4.47 
   340.60     20.04     16.54     25.70     -0.01      0.03      4.06 
   340.70     20.04     16.55     25.68      0.00     -0.00      3.53 
   340.80     20.04     16.54     25.69      0.00     -0.00      5.82 
   340.90     20.04     16.54     25.69     -0.00      0.00      5.71 
   341.00     20.04     16.54     25.69     -0.00      0.01      5.35 
   341.10     20.04     16.55     25.69      0.00     -0.00      6.59 
   341.20     20.04     16.55     25.67      0.00      0.00      8.94 
   341.30     20.04     16.54     25.69     -0.01      0.02      8.47 
   341.40     20.04     16.55     25.68      0.00     -0.00      7.41 
   341.50     20.04     16.54     25.69      0.00      0.00      6.76 
   341.60     20.04     16.55     25.69      0.01     -0.01      6.29 
   341.70     20.04     16.55     25.69     -0.00      0.01      6.59 
   341.80     20.04     16.55     25.68      0.01     -0.01      9.24 
   341.90     20.04     16.55     25.69      0.00     -0.01     11.94 
   342.00     20.04     16.55     25.67      0.01     -0.02      8.00 
   342.10     20.04     16.55     25.69     -0.01      0.01      5.47 
   342.20     20.04     16.54     25.69     -0.01      0.01      7.06 
   342.30     20.04     16.55     25.69      0.01     -0.01      6.29 
   342.40     20.04     16.55     25.68      0.00      0.00      6.00 
   342.50     20.04     16.54     25.69      0.00     -0.00      7.18 
   342.60     20.04     16.55     25.68      0.00      0.00      6.35 
   342.70     20.04     16.54     25.70     -0.01      0.01      5.12 
   342.80     20.04     16.55     25.69     -0.01      0.02      7.76 
   342.90     20.04     16.55     25.68      0.01     -0.01      5.65 
   343.00     20.04     16.55     25.67     -0.00      0.00      5.12 
   343.10     20.04     16.55     25.68      0.01     -0.01      4.12 
   343.20     20.04     16.54     25.70     -0.00      0.00      5.59 
