#Written by Robertson Geologging WinLogger V1.0/312
~VERSION INFORMATION
#------------------------------------------------------------------------------
 VERS. 2.0 : CWLS LOG ASCII STANDARD - VERSION 2.0
 WRAP. NO  : ONE LINE PER DEPTH STEP
~WELL INFORMATION
#MNEM.UNIT         DATA                                DESCRIPTION OF MNEMONIC
#------------------------------------------------------------------------------
 STRT.M         72.1000                            :   START DEPTH
 STOP.M        377.0000                            :   STOP DEPTH
 STEP.M          0.1000                            :   STEP VALUE
 NULL.        -999.2500                            :   NULL VALUE
 COMP.    I.M..C.                                  :   COMPANY NAME
 WELL.    Horden Shaft                             :   WELL NAME
 FLD.     Horden                                   :   FIELD NAME
 LOC.     N/A                                      :   LOCATION
 PROV.    N/A                                      :   PROVINCE
 SRVC.    N/A                                      :   SERVICE COMPANY NAME
 DATE.    30 Jan 04                                :   DATE
 UWI.     N/A                                      :   UNIQUE WELL IDENTIFIER
~PARAMETER INFORMATION
#MNEMO.UNIT         VALUE                 DESCRIPTION OF MNEMONIC
#------------------------------------------------------------------------------
~OTHER INFORMATION SECTION
#------------------------------------------------------------------------------
 TCGX extended range 1365
~CURVE INFORMATION
#MNEMO.UNIT         API CODE              CURVE DESCRIPTION
#------------------------------------------------------------------------------
 DEPTH.M                                 :   0     Depth
 COND.mS/cm                              :   1     Conductivity
 TEMP.DegC                               :   2     Temperature
 C@25.mS/cm                              :   3     Conductivity @25Deg
 DELT.DegC                               :   4     Delta T
 DC@25.mS/cm                             :   5     Delta C @25Deg
 OUT4.CPS                                :   6     Natural Gamma
#------------------------------------------------------------------------------
~A  DEPTH     COND      TEMP      C@25      DELT      DC@25     OUT4      
# ...
    94.70     10.28     15.03     16.06      0.02      0.02      1.12 
    94.80     10.28     15.03     16.06     -0.00      0.04      0.35 
    94.90     10.28     15.03     16.07      0.00      0.04      0.00 
    95.00     10.28     15.03     16.07     -0.01      0.04      0.71 
    95.10     10.29     15.03     16.07     -0.00      0.03      1.47 
    95.20     10.29     15.04     16.06      0.01      0.01      1.24 
    95.30     10.29     15.03     16.06      0.01      0.02      1.94 
    95.40     10.29     15.03     16.07      0.01      0.01      1.53 
    95.50     10.29     15.03     16.07      0.00      0.02      2.35 
    95.60     10.30     15.03     16.07      0.00      0.02      1.53 
    95.70     10.30     15.04     16.08      0.00      0.02      1.59 
    95.80     10.30     15.03     16.08      0.00      0.01      0.82 
    95.90     10.30     15.04     16.08      0.01      0.00      2.00 
    96.00     10.30     15.03     16.08      0.00      0.01      1.53 
    96.10     10.30     15.03     16.08     -0.00      0.02      1.76 
    96.20     10.30     15.02     16.10     -0.02      0.04      1.88 
    96.30     10.30     15.03     16.09     -0.00      0.02      2.71 
    96.40     10.30     15.04     16.07      0.01     -0.00      2.29 
    96.50     10.30     15.04     16.08      0.01      0.00      1.88 
    96.60     10.30     15.04     16.08      0.01      0.00      1.12 
    96.70     10.31     15.04     16.09     -0.00      0.01      0.00 
    96.80     10.31     15.04     16.08      0.01     -0.00      0.41 
    96.90     10.31     15.04     16.08     -0.00      0.01      0.41 
    97.00     10.31     15.04     16.09      0.00      0.01      0.76 
    97.10     10.31     15.03     16.10     -0.00      0.01      1.47 
    97.20     10.31     15.03     16.10      0.01     -0.00      1.12 
    97.30     10.31     15.04     16.09      0.01     -0.00      0.41 
    97.40     10.31     15.04     16.07      0.00      0.01      1.12 
    97.50     10.31     15.04     16.09     -0.00      0.01      0.35 
    97.60     10.31     15.04     16.10     -0.00      0.01      0.41 
    97.70     10.31     15.04     16.09     -0.00      0.01      0.82 
    97.80     10.31     15.04     16.09     -0.00      0.01      1.24 
    97.90     10.31     15.03     16.10     -0.01      0.02      0.82 
    98.00     10.31     15.04     16.09      0.00      0.00      0.82 
    98.10     10.31     15.04     16.09      0.01     -0.00      1.24 
    98.20     10.31     15.04     16.10      0.00      0.00      0.41 
    98.30     10.31     15.04     16.10     -0.00      0.01      0.82 
    98.40     10.32     15.04     16.09     -0.00      0.02      0.82 
    98.50     10.32     15.05     16.08      0.01     -0.01      1.18 
    98.60     10.32     15.04     16.09      0.01     -0.00      0.82 
    98.70     10.32     15.05     16.08      0.01     -0.01      0.76 
    98.80     10.32     15.04     16.09      0.00      0.00      1.47 
    98.90     10.32     15.04     16.10      0.01     -0.00      1.12 
    99.00     10.32     15.05     16.08      0.01     -0.01      0.35 
    99.10     10.32     15.05     16.08      0.01     -0.02      0.71 
    99.20     10.32     15.05     16.08      0.01     -0.01      0.00 
    99.30     10.31     15.05     16.09      0.01     -0.02      0.76 
    99.40     10.32     15.04     16.09      0.01     -0.01      1.59 
    99.50     10.32     15.05     16.08      0.00      0.00      0.41 
    99.60     10.32     15.04     16.09      0.00      0.00      0.71 
    99.70     10.32     15.05     16.09     -0.00      0.01      0.71 
    99.80     10.32     15.05     16.08      0.01     -0.01      0.76 
    99.90     10.32     15.05     16.08      0.01     -0.01      0.76 
   100.00     10.32     15.05     16.09      0.00      0.00      0.71 
   100.10     10.32     15.05     16.09     -0.01      0.01      2.12 
   100.20     10.32     15.05     16.08      0.00     -0.00      1.76 
   100.30     10.32     15.05     16.09     -0.00      0.01      0.76 
   100.40     10.32     15.06     16.08      0.01     -0.02      0.41 
   100.50     10.32     15.05     16.08      0.00     -0.00      1.47 
   100.60     10.32     15.04     16.09     -0.00      0.01      1.82 
   100.70     10.32     15.05     16.09      0.00     -0.00      1.59 
   100.80     10.32     15.05     16.09     -0.00      0.01      0.82 
   100.90     10.32     15.04     16.10     -0.01      0.01      0.00 
   101.00     10.32     15.05     16.09      0.01     -0.01      0.41 
   101.10     10.32     15.05     16.09      0.00     -0.00      2.06 
   101.20     10.32     15.05     16.07      0.01     -0.01      1.47 
   101.30     10.32     15.05     16.09     -0.00      0.00      1.06 
   101.40     10.32     15.04     16.10     -0.01      0.02      1.06 
   101.50     10.32     15.04     16.10     -0.01      0.01      1.59 
   101.60     10.32     15.05     16.09      0.00     -0.00      1.53 
   101.70     10.32     15.04     16.10     -0.01      0.02      2.65 
   101.80     10.32     15.04     16.10     -0.01      0.01      2.29 
   101.90     10.32     15.04     16.10     -0.00      0.01      2.35 
   102.00     10.32     15.04     16.10     -0.01      0.02      1.18 
   102.10     10.32     15.04     16.11     -0.02      0.02      1.47 
   102.20     10.32     15.05     16.09     -0.01      0.01      1.76 
   102.30     10.32     15.03     16.11     -0.02      0.02      1.53 
   102.40     10.32     15.02     16.12     -0.02      0.03      0.00 
   102.50     10.33     15.03     16.11     -0.01      0.02      0.00 
   102.60     10.33     15.05     16.09      0.00      0.00      0.00 
   102.70     10.32     15.04     16.10      0.01     -0.01      0.71 
   102.80     10.33     15.04     16.10      0.00      0.00      0.35 
   102.90     10.32     15.04     16.11     -0.00      0.01      0.35 
   103.00     10.33     15.04     16.11      0.00      0.00      1.59 
   103.10     10.32     15.04     16.11     -0.00      0.00      2.35 
   103.20     10.33     15.05     16.09      0.01     -0.00      3.12 
   103.30     10.33     15.04     16.10      0.01     -0.01      2.35 
   103.40     10.33     15.05     16.09      0.02     -0.03      0.76 
   103.50     10.33     15.04     16.10      0.01     -0.02      0.41 
   103.60     10.33     15.05     16.09      0.01     -0.01      0.82 
   103.70     10.33     15.05     16.09      0.00     -0.00      1.24 
   103.80     10.33     15.04     16.10      0.00     -0.00      0.00 
   103.90     10.33     15.05     16.09      0.02     -0.02      0.35 
   104.00     10.33     15.05     16.09      0.01     -0.02      0.35 
   104.10     10.33     15.04     16.10      0.01     -0.00      0.35 
   104.20     10.33     15.05     16.09      0.00      0.00      1.18 
   104.30     10.33     15.04     16.10      0.00     -0.00      1.59 
   104.40     10.33     15.05     16.09      0.00      0.00      1.94 
   104.50     10.33     15.04     16.11     -0.01      0.01      0.76 
   104.60     10.33     15.04     16.10     -0.01      0.01      1.24 
   104.70     10.33     15.05     16.10     -0.00      0.00      1.24 
   104.80     10.33     15.04     16.10      0.00     -0.00      0.82 
   104.90     10.33     15.05     16.09     -0.00      0.01      0.41 
   105.00     10.33     15.05     16.09     -0.00      0.00      1.88 
   105.10     10.33     15.04     16.11     -0.00      0.01      3.06 
   105.20     10.33     15.05     16.10      0.00      0.00      1.88 
   105.30     10.33     15.05     16.09      0.01     -0.01      1.18 
   105.40     10.33     15.06     16.08      0.01     -0.01      0.71 
   105.50     10.33     15.05     16.09      0.01     -0.02      0.71 
   105.60     10.33     15.05     16.09      0.01     -0.01      0.76 
   105.70     10.33     15.05     16.09      0.01     -0.01      0.76 
   105.80     10.33     15.05     16.09      0.01     -0.01      0.00 
   105.90     10.33     15.05     16.09      0.00     -0.00      0.00 
