#Written by Robertson Geologging WinLogger V1.0/312
~VERSION INFORMATION
#------------------------------------------------------------------------------
 VERS. 2.0 : CWLS LOG ASCII STANDARD - VERSION 2.0
 WRAP. NO  : ONE LINE PER DEPTH STEP
~WELL INFORMATION
#MNEM.UNIT         DATA                                DESCRIPTION OF MNEMONIC
#------------------------------------------------------------------------------
 STRT.M         72.1000                            :   START DEPTH
 STOP.M        377.0000                            :   STOP DEPTH
 STEP.M          0.1000                            :   STEP VALUE
 NULL.        -999.2500                            :   NULL VALUE
 COMP.    I.M..C.                                  :   COMPANY NAME
 WELL.    Horden Shaft                             :   WELL NAME
 FLD.     Horden                                   :   FIELD NAME
 LOC.     N/A                                      :   LOCATION
 PROV.    N/A                                      :   PROVINCE
 SRVC.    N/A                                      :   SERVICE COMPANY NAME
 DATE.    30 Jan 04                                :   DATE
 UWI.     N/A                                      :   UNIQUE WELL IDENTIFIER
~PARAMETER INFORMATION
#MNEMO.UNIT         VALUE                 DESCRIPTION OF MNEMONIC
#------------------------------------------------------------------------------
~OTHER INFORMATION SECTION
#------------------------------------------------------------------------------
 TCGX extended range 1365
~CURVE INFORMATION
#MNEMO.UNIT         API CODE              CURVE DESCRIPTION
#------------------------------------------------------------------------------
 DEPTH.M                                 :   0     Depth
 COND.mS/cm                              :   1     Conductivity
 TEMP.DegC                               :   2     Temperature
 C@25.mS/cm                              :   3     Conductivity @25Deg
 DELT.DegC                               :   4     Delta T
 DC@25.mS/cm                             :   5     Delta C @25Deg
 OUT4.CPS                                :   6     Natural Gamma
#------------------------------------------------------------------------------
~A  DEPTH     COND      TEMP      C@25      DELT      DC@25     OUT4      
# ...
   128.60     10.38     15.13     16.05      0.01     -0.01      1.18 
   128.70     10.38     15.13     16.04      0.01     -0.01      1.12 
   128.80     10.38     15.14     16.04      0.02     -0.02      0.71 
   128.90     10.38     15.13     16.04      0.02     -0.02      0.71 
   129.00     10.38     15.13     16.05      0.01     -0.01      1.88 
   129.10     10.38     15.12     16.06     -0.00      0.00      1.47 
   129.20     10.38     15.14     16.04      0.01     -0.01      0.76 
   129.30     10.38     15.13     16.04     -0.01      0.00      1.88 
   129.40     10.38     15.12     16.06     -0.01      0.02      3.35 
   129.50     10.38     15.14     16.04      0.00      0.00      2.59 
   129.60     10.38     15.14     16.03      0.01     -0.01      1.12 
   129.70     10.38     15.12     16.05     -0.01      0.01      0.76 
   129.80     10.39     15.12     16.07     -0.02      0.03      1.24 
   129.90     10.40     15.14     16.05      0.01      0.00      1.76 
   130.00     10.39     15.15     16.05      0.02     -0.00      2.47 
   130.10     10.40     15.16     16.03      0.04     -0.03      1.47 
   130.20     10.40     15.17     16.02      0.03     -0.02      1.47 
   130.30     10.41     15.16     16.03      0.03     -0.01      2.59 
   130.40     10.41     15.16     16.03      0.04     -0.02      2.24 
   130.50     10.41     15.17     16.02      0.03     -0.01      0.76 
   130.60     10.41     15.16     16.03      0.03      0.00      0.35 
   130.70     10.41     15.17     16.03      0.05     -0.03      1.41 
   130.80     10.41     15.18     16.02      0.06     -0.06      1.06 
   130.90     10.41     15.17     16.02      0.03     -0.03      0.35 
   131.00     10.41     15.18     16.01      0.03     -0.03      0.76 
   131.10     10.40     15.18     16.01      0.02     -0.02      2.00 
   131.20     10.41     15.17     16.03      0.00      0.01      1.88 
   131.30     10.41     15.18     16.02      0.01     -0.02      2.24 
   131.40     10.41     15.17     16.02      0.01     -0.01      2.88 
   131.50     10.41     15.16     16.04     -0.01      0.02      2.53 
   131.60     10.41     15.17     16.03      0.01     -0.02      1.06 
   131.70     10.41     15.17     16.02      0.00     -0.00      2.65 
   131.80     10.41     15.17     16.03     -0.01      0.01      4.00 
   131.90     10.41     15.17     16.03     -0.00      0.00      1.82 
   132.00     10.41     15.18     16.02     -0.01      0.01      0.41 
   132.10     10.41     15.17     16.01     -0.00      0.00      2.18 
   132.20     10.41     15.16     16.03     -0.00      0.01      3.41 
   132.30     10.41     15.16     16.04     -0.01      0.02      1.88 
   132.40     10.41     15.17     16.02      0.00     -0.00      0.76 
   132.50     10.41     15.18     16.01      0.02     -0.02      0.76 
   132.60     10.41     15.18     16.02      0.00     -0.00      1.18 
   132.70     10.41     15.17     16.03     -0.01      0.01      2.24 
   132.80     10.41     15.17     16.03     -0.00      0.00      1.76 
   132.90     10.41     15.17     16.03      0.00     -0.00      1.06 
   133.00     10.40     15.18     16.01      0.00     -0.01      1.06 
   133.10     10.41     15.16     16.04     -0.01      0.02      0.00 
   133.20     10.41     15.18     16.01      0.02     -0.03      0.35 
   133.30     10.41     15.17     16.02      0.01     -0.01      0.71 
   133.40     10.41     15.17     16.03     -0.01      0.01      0.35 
   133.50     10.41     15.17     16.03     -0.01      0.02      0.71 
   133.60     10.41     15.17     16.02     -0.00      0.01      1.47 
   133.70     10.41     15.17     16.03      0.01     -0.01      1.18 
   133.80     10.41     15.18     16.02      0.00     -0.01      1.24 
   133.90     10.41     15.17     16.03     -0.01      0.02      1.47 
   134.00     10.41     15.17     16.03     -0.01      0.02      1.06 
   134.10     10.41     15.17     16.04      0.00     -0.01      1.41 
   134.20     10.41     15.18     16.01     -0.00      0.00      0.71 
   134.30     10.41     15.17     16.03      0.00      0.00      0.41 
   134.40     10.41     15.17     16.03      0.00      0.00      1.59 
   134.50     10.41     15.17     16.03      0.00      0.00      1.94 
   134.60     10.41     15.16     16.04     -0.01      0.01      1.82 
   134.70     10.41     15.16     16.04     -0.01      0.02      1.88 
   134.80     10.41     15.17     16.02     -0.00     -0.00      1.94 
   134.90     10.41     15.17     16.04      0.00     -0.00      1.59 
   135.00     10.41     15.17     16.03      0.01     -0.00      0.76 
   135.10     10.41     15.18     16.02      0.01     -0.01      1.82 
   135.20     10.41     15.18     16.02     -0.00      0.01      2.65 
   135.30     10.41     15.17     16.03      0.00     -0.00      1.59 
   135.40     10.41     15.18     16.02      0.01     -0.01      1.24 
   135.50     10.41     15.19     16.01      0.02     -0.02      1.12 
   135.60     10.41     15.19     16.01      0.02     -0.02      1.76 
   135.70     10.41     15.18     16.02      0.02     -0.02      1.12 
   135.80     10.41     15.18     16.02      0.01     -0.01      0.76 
   135.90     10.41     15.18     16.01      0.01     -0.02      0.76 
   136.00     10.41     15.17     16.03     -0.00      0.00      1.94 
   136.10     10.41     15.18     16.02     -0.00      0.00      1.94 
   136.20     10.41     15.18     16.02      0.00     -0.00      1.82 
   136.30     10.41     15.18     16.02      0.00     -0.00      1.82 
   136.40     10.41     15.18     16.02     -0.00     -0.00      1.41 
   136.50     10.41     15.18     16.02     -0.01      0.01      1.06 
   136.60     10.41     15.17     16.03     -0.01      0.02      0.35 
   136.70     10.41     15.18     16.02     -0.00      0.01      0.76 
   136.80     10.41     15.17     16.03     -0.01      0.01      2.94 
   136.90     10.41     15.18     16.03     -0.00      0.00      2.47 
   137.00     10.41     15.18     16.03      0.00     -0.01      1.06 
   137.10     10.41     15.17     16.03     -0.01      0.01      1.59 
   137.20     10.41     15.18     16.02      0.01     -0.01      1.53 
   137.30     10.41     15.18     16.02     -0.00      0.00      1.12 
   137.40     10.42     15.17     16.03     -0.01      0.02      1.53 
   137.50     10.41     15.18     16.02      0.00     -0.01      2.35 
   137.60     10.41     15.17     16.03      0.00     -0.00      0.41 
   137.70     10.41     15.18     16.02     -0.00      0.00      0.71 
   137.80     10.42     15.18     16.02      0.00     -0.00      1.82 
   137.90     10.41     15.18     16.02     -0.00      0.00      2.12 
   138.00     10.41     15.17     16.04     -0.00      0.01      0.35 
   138.10     10.41     15.17     16.04     -0.00      0.00      1.12 
   138.20     10.41     15.18     16.02     -0.01      0.01      1.88 
   138.30     10.42     15.18     16.02      0.01     -0.01      2.29 
   138.40     10.41     15.18     16.02      0.00     -0.01      2.35 
   138.50     10.41     15.18     16.01      0.00      0.00      1.59 
   138.60     10.41     15.18     16.02      0.00     -0.00      1.53 
   138.70     10.42     15.18     16.02      0.00     -0.00      1.41 
   138.80     10.41     15.18     16.02      0.00     -0.00      1.12 
   138.90     10.41     15.18     16.03      0.00     -0.00      2.24 
   139.00     10.41     15.18     16.03      0.01     -0.01      1.12 
   139.10     10.41     15.18     16.03      0.01     -0.01      1.53 
   139.20     10.41     15.18     16.02      0.00     -0.01      2.24 
   139.30     10.41     15.17     16.03     -0.01      0.01      1.41 
   139.40     10.41     15.18     16.02      0.01     -0.00      2.24 
   139.50     10.41     15.18     16.02     -0.00     -0.00      2.88 
   139.60     10.41     15.19     16.01      0.01     -0.01      1.47 
   139.70     10.41     15.19     16.01      0.01     -0.02      2.18 
   139.80     10.42     15.18     16.02     -0.00      0.00      2.24 
