#Written by Robertson Geologging WinLogger V1.0/311
~VERSION INFORMATION
#------------------------------------------------------------------------------
 VERS. 2.0 : CWLS LOG ASCII STANDARD - VERSION 2.0
 WRAP. NO  : ONE LINE PER DEPTH STEP
~WELL INFORMATION
#MNEM.UNIT         DATA                                DESCRIPTION OF MNEMONIC
#------------------------------------------------------------------------------
 STRT.M         75.1000                            :   START DEPTH
 STOP.M        381.1000                            :   STOP DEPTH
 STEP.M          0.1000                            :   STEP VALUE
 NULL.        -999.2500                            :   NULL VALUE
 COMP.    IMC                                      :   COMPANY NAME
 WELL.    SOUTH SHAFT                              :   WELL NAME
 FLD.     HORDEN                                   :   FIELD NAME
 LOC.     N/A                                      :   LOCATION
 PROV.    N/A                                      :   PROVINCE
 SRVC.    N/A                                      :   SERVICE COMPANY NAME
 DATE.    03 Oct 03                                :   DATE
 UWI.     N/A                                      :   UNIQUE WELL IDENTIFIER
~PARAMETER INFORMATION
#MNEMO.UNIT         VALUE                 DESCRIPTION OF MNEMONIC
#------------------------------------------------------------------------------
~OTHER INFORMATION SECTION
#------------------------------------------------------------------------------
 TCDS 2822
~CURVE INFORMATION
#MNEMO.UNIT         API CODE              CURVE DESCRIPTION
#------------------------------------------------------------------------------
 DEPTH.M                                 :   0     Depth
 TEMP.DegC                               :   1     Temperature
 COND.uS/cm                              :   2     Conductivity
 DELT.DegC                               :   3     Delta T
 DELC.uS/cm                              :   4     Delta C
 NGAM.API                                :   5     Natural Gamma
#------------------------------------------------------------------------------
~A  DEPTH     TEMP      COND      DELT      DELC      NGAM      
# ...
   127.90     12.08   5138.18      0.48   1620.46      1.82 
   128.00     12.12   5324.45      0.48   1691.75      1.41 
   128.10     12.17   5524.99      0.49   1684.06      0.76 
   128.20     12.20   5722.66      0.48   1702.78      2.59 
   128.30     12.26   5901.75      0.49   1720.12      2.53 
   128.40     12.31   6066.86      0.49   1709.72      1.06 
   128.50     12.38   6246.18      0.51   1711.45      1.12 
   128.60     12.43   6402.75      0.51   1720.97      2.18 
   128.70     12.49   6499.49      0.52   1691.77      2.59 
   128.80     12.56   6571.86      0.53   1607.57      1.47 
   128.90     12.62   6631.57      0.53   1475.08      2.53 
   129.00     12.68   6692.93      0.55   1346.94      2.24 
   129.10     12.72   6723.99      0.55   1179.28      3.18 
   129.20     12.75   6763.03      0.55   1020.46      4.35 
   129.30     12.78   6822.92      0.51    904.92      3.76 
   129.40     12.79   6868.17      0.47    783.86      1.76 
   129.50     12.80   6903.43      0.42    639.70      2.88 
   129.60     12.81   6931.41      0.38    514.80      2.94 
   129.70     12.83   6955.40      0.33    448.48      1.94 
   129.80     12.83   6983.31      0.27    405.70      3.35 
   129.90     12.85   7001.12      0.22    363.20      3.24 
   130.00     12.87   7019.11      0.19    322.46      4.35 
   130.10     12.87   7038.37      0.14    311.58      3.00 
   130.20     12.87   7059.50      0.11    292.24      1.88 
   130.30     12.88   7079.96      0.10    251.37      2.71 
   130.40     12.87   7098.30      0.08    226.74      3.06 
   130.50     12.90   7111.96      0.09    205.32      3.65 
   130.60     12.88   7121.64      0.07    187.61      2.59 
   130.70     12.89   7133.70      0.06    175.67      2.65 
   130.80     12.91   7142.19      0.07    157.27      2.65 
   130.90     12.90   7149.58      0.05    146.85      1.12 
   131.00     12.89   7158.25      0.03    137.36      0.76 
   131.10     12.90   7168.01      0.03    128.12      0.76 
   131.20     12.91   7174.98      0.04    113.95      2.59 
   131.30     12.92   7182.11      0.04    100.29      2.24 
   131.40     12.92   7188.83      0.05     89.34      1.94 
   131.50     12.93   7195.71      0.03     83.06      0.35 
   131.60     12.91   7200.72      0.03     77.97      3.00 
   131.70     12.91   7204.37      0.02     69.40      2.59 
   131.80     12.93   7210.24      0.02     67.36      1.12 
   131.90     12.92   7216.61      0.02     66.43      1.82 
   132.00     12.92   7222.22      0.03     63.29      2.82 
   132.10     12.92   7227.15      0.01     58.03      4.41 
   132.20     12.93   7231.56      0.02     55.99      4.94 
   132.30     12.93   7237.94      0.01     55.99      3.35 
   132.40     12.95   7243.63      0.03     54.21      1.06 
   132.50     12.95   7246.78      0.02     50.47      2.53 
   132.60     12.95   7249.92      0.03     49.20      1.47 
   132.70     12.96   7251.45      0.05     46.48      1.76 
   132.80     12.96   7254.09      0.03     43.34      2.88 
   132.90     12.95   7257.74      0.03     40.88      4.41 
   133.00     12.96   7260.97      0.04     38.24      3.88 
   133.10     12.96   7264.63      0.04     36.89      3.18 
   133.20     12.95   7266.84      0.03     34.85      1.18 
   133.30     12.96   7268.88      0.03     30.34      0.71 
   133.40     12.96   7273.55      0.01     30.00      1.47 
   133.50     12.97   7276.61      0.02     29.75      2.18 
   133.60     12.98   7278.14      0.03     28.73      1.82 
   133.70     12.99   7279.25      0.02     27.80      3.35 
   133.80     12.99   7279.84      0.02     24.99      3.00 
   133.90     12.99   7279.84      0.03     21.85      0.76 
   134.00     12.99   7282.22      0.03     20.40      2.71 
   134.10     12.99   7284.18      0.04     19.55      2.88 
   134.20     13.00   7285.37      0.05     18.53      3.06 
   134.30     12.97   7286.56      0.01     17.34      4.12 
   134.40     13.00   7285.88      0.04     11.99      2.88 
   134.50     13.00   7287.15      0.03     10.12      1.06 
   134.60     13.00   7287.15      0.03      8.59      1.94 
   134.70     13.00   7287.66      0.01      7.99      3.47 
   134.80     13.00   7288.68      0.02      8.84      2.24 
   134.90     12.99   7288.77      0.01      9.01      1.82 
   135.00     12.99   7289.87     -0.00      7.65      1.88 
   135.10     13.00   7289.79     -0.00      5.61      2.59 
   135.20     13.00   7290.38      0.00      4.42      2.59 
   135.30     12.99   7290.89      0.01      4.34      4.00 
   135.40     13.00   7291.49      0.00      5.02      2.88 
   135.50     13.00   7291.91      0.00      4.76      1.88 
   135.60     12.99   7292.51     -0.01      5.36      3.06 
   135.70     13.01   7292.51      0.01      4.85      1.94 
   135.80     13.01   7292.51      0.01      3.83      2.24 
   135.90     13.01   7293.02      0.01      3.74      3.06 
   136.00     13.00   7292.59      0.02      2.72      2.35 
   136.10     13.01   7293.62      0.02      3.74      0.71 
   136.20     13.00   7294.21      0.01      3.32      1.47 
   136.30     12.99   7294.72      0.01      3.83      0.71 
   136.40     13.02   7295.06      0.02      3.06      1.06 
   136.50     13.01   7295.83      0.01      4.51      2.24 
   136.60     13.01   7296.76      0.02      4.76      2.94 
   136.70     13.03   7296.76      0.02      4.17      3.24 
   136.80     13.02   7296.76      0.00      4.25      2.82 
   136.90     13.02   7297.19      0.02      4.17      1.82 
   137.00     13.02   7297.95      0.01      5.36      3.06 
   137.10     13.02   7297.44      0.01      3.83      3.76 
   137.20     13.01   7297.87      0.01      3.66      4.41 
   137.30     13.02   7298.63      0.02      3.91      2.29 
   137.40     13.03   7299.57      0.01      4.51      1.12 
   137.50     13.03   7300.25      0.02      4.93      3.65 
   137.60     13.02   7299.57      0.01      3.40      2.59 
   137.70     13.03   7299.74     -0.00      2.98      1.12 
   137.80     13.04   7299.91      0.03      3.15      2.59 
   137.90     13.03   7299.40      0.01      2.21      1.59 
   138.00     13.03   7299.99      0.01      3.06      4.88 
   138.10     13.04   7299.65      0.02      2.81      4.76 
   138.20     13.03   7300.59      0.02      2.72      4.82 
   138.30     13.04   7301.27      0.02      2.21      2.94 
   138.40     13.04   7301.18      0.00      1.62      4.06 
   138.50     13.04   7300.93      0.02      0.68      2.24 
   138.60     13.04   7301.44      0.02      1.87      2.88 
   138.70     13.03   7301.01      0.00      1.11      3.71 
   138.80     13.03   7301.69     -0.01      1.79      2.59 
   138.90     13.03   7302.12      0.00      2.89      2.65 
   139.00     13.04   7302.03      0.01      2.04      3.88 
   139.10     13.03   7302.54     -0.00      3.15      3.41 
   139.20     13.05   7302.54      0.01      2.13      3.65 
   139.30     13.06   7303.14      0.02      2.38      3.65 
   139.40     13.04   7303.65      0.00      3.06      1.18 
   139.50     13.05   7303.56      0.01      2.47      3.35 
   139.60     13.06   7303.22      0.02      2.72      4.06 
   139.70     13.06   7303.05      0.03      2.55      2.65 
   139.80     13.05   7304.16      0.02      2.47      3.12 
   139.90     13.05   7304.41      0.02      1.79      1.53 
   140.00     13.06   7305.26      0.01      2.64      2.94 
   140.10     13.06   7306.45      0.03      3.40      4.06 
   140.20     13.05   7306.79      0.00      4.25      4.00 
   140.30     13.05   7306.62     -0.01      2.98      1.76 
   140.40     13.06   7307.73      0.02      4.08      1.06 
   140.50     13.06   7307.13      0.01      3.91      1.41 
   140.60     13.06   7307.13      0.00      3.91      1.53 
   140.70     13.07   7308.32      0.01      5.27      2.29 
   140.80     13.07   7308.32      0.02      4.17      3.53 
   140.90     13.07   7309.17      0.01      5.02      3.65 
   141.00     13.06   7308.92      0.01      3.91      3.24 
