#Written by Robertson Geologging WinLogger V1.0/312
~VERSION INFORMATION
#------------------------------------------------------------------------------
 VERS. 2.0 : CWLS LOG ASCII STANDARD - VERSION 2.0
 WRAP. NO  : ONE LINE PER DEPTH STEP
~WELL INFORMATION
#MNEM.UNIT         DATA                                DESCRIPTION OF MNEMONIC
#------------------------------------------------------------------------------
 STRT.M         72.1000                            :   START DEPTH
 STOP.M        377.0000                            :   STOP DEPTH
 STEP.M          0.1000                            :   STEP VALUE
 NULL.        -999.2500                            :   NULL VALUE
 COMP.    I.M..C.                                  :   COMPANY NAME
 WELL.    Horden Shaft                             :   WELL NAME
 FLD.     Horden                                   :   FIELD NAME
 LOC.     N/A                                      :   LOCATION
 PROV.    N/A                                      :   PROVINCE
 SRVC.    N/A                                      :   SERVICE COMPANY NAME
 DATE.    30 Jan 04                                :   DATE
 UWI.     N/A                                      :   UNIQUE WELL IDENTIFIER
~PARAMETER INFORMATION
#MNEMO.UNIT         VALUE                 DESCRIPTION OF MNEMONIC
#------------------------------------------------------------------------------
~OTHER INFORMATION SECTION
#------------------------------------------------------------------------------
 TCGX extended range 1365
~CURVE INFORMATION
#MNEMO.UNIT         API CODE              CURVE DESCRIPTION
#------------------------------------------------------------------------------
 DEPTH.M                                 :   0     Depth
 COND.mS/cm                              :   1     Conductivity
 TEMP.DegC                               :   2     Temperature
 C@25.mS/cm                              :   3     Conductivity @25Deg
 DELT.DegC                               :   4     Delta T
 DC@25.mS/cm                             :   5     Delta C @25Deg
 OUT4.CPS                                :   6     Natural Gamma
#------------------------------------------------------------------------------
~A  DEPTH     COND      TEMP      C@25      DELT      DC@25     OUT4      
# ...
   264.20     12.80     16.36     17.24     -0.45      0.73      2.24 
   264.30     12.89     16.39     17.30     -0.39      0.76      3.00 
   264.40     13.05     16.47     17.40     -0.27      0.79      1.88 
   264.50     13.13     16.63     17.26     -0.06      0.60      0.76 
   264.60     13.16     16.73     17.14      0.09      0.42      1.53 
   264.70     13.18     16.81     17.04      0.25      0.21      1.94 
   264.80     13.19     16.86     16.98      0.37      0.04      2.65 
   264.90     13.21     16.88     16.96      0.44     -0.06      2.59 
   265.00     13.23     16.92     16.93      0.52     -0.16      1.12 
   265.10     13.24     16.93     16.93      0.56     -0.24      0.00 
   265.20     13.25     16.93     16.93      0.57     -0.32      0.41 
   265.30     13.25     16.94     16.92      0.55     -0.40      1.47 
   265.40     13.26     16.95     16.92      0.47     -0.46      1.06 
   265.50     13.26     16.95     16.92      0.30     -0.30      0.00 
   265.60     13.27     16.95     16.93      0.21     -0.19      1.47 
   265.70     13.27     16.95     16.94      0.13     -0.09      1.41 
   265.80     13.27     16.95     16.94      0.09     -0.03      1.06 
   265.90     13.27     16.95     16.94      0.06     -0.02      1.82 
   266.00     13.28     16.94     16.96      0.02      0.03      1.47 
   266.10     13.28     16.95     16.95      0.02      0.02      1.82 
   266.20     13.28     16.95     16.95      0.02      0.02      1.82 
   266.30     13.28     16.94     16.95      0.00      0.03      1.12 
   266.40     13.28     16.94     16.96     -0.00      0.03      0.76 
   266.50     13.29     16.94     16.96     -0.01      0.04      2.24 
   266.60     13.29     16.94     16.98     -0.02      0.05      1.41 
   266.70     13.29     16.94     16.97     -0.01      0.03      1.06 
   266.80     13.29     16.94     16.98     -0.01      0.03      1.41 
   266.90     13.29     16.94     16.98     -0.01      0.04      1.06 
   267.00     13.29     16.94     16.97      0.00      0.01      2.88 
   267.10     13.29     16.94     16.97     -0.00      0.02      5.12 
   267.20     13.29     16.94     16.97     -0.01      0.03      6.59 
   267.30     13.29     16.95     16.97      0.00      0.01      4.24 
   267.40     13.29     16.95     16.96      0.01     -0.01      5.71 
   267.50     13.29     16.94     16.98      0.00      0.01      8.29 
   267.60     13.29     16.94     16.98      0.00      0.01      7.65 
   267.70     13.30     16.94     16.97      0.01     -0.00      8.47 
   267.80     13.30     16.94     16.98      0.00      0.01      5.06 
   267.90     13.30     16.95     16.97      0.01     -0.01      5.35 
   268.00     13.30     16.94     16.98      0.00     -0.00      5.65 
   268.10     13.30     16.94     16.98     -0.00      0.01      7.47 
   268.20     13.30     16.95     16.98      0.00      0.00      7.94 
   268.30     13.30     16.95     16.98     -0.00      0.02      8.59 
   268.40     13.30     16.95     16.98     -0.01      0.02      5.71 
   268.50     13.30     16.94     16.99      0.00      0.01      5.41 
   268.60     13.30     16.95     16.98      0.01      0.00      3.29 
   268.70     13.30     16.95     16.97      0.01     -0.00      7.88 
   268.80     13.30     16.95     16.98      0.00      0.00     10.71 
   268.90     13.30     16.94     16.98     -0.00      0.02      7.94 
   269.00     13.30     16.95     16.98      0.00      0.00      5.71 
   269.10     13.30     16.95     16.97      0.00     -0.01      6.35 
   269.20     13.31     16.94     16.99     -0.00      0.01      6.53 
   269.30     13.31     16.95     16.98      0.00      0.00      9.29 
   269.40     13.31     16.95     16.97      0.00     -0.00      8.53 
   269.50     13.30     16.95     16.98      0.01     -0.01      6.88 
   269.60     13.31     16.95     16.98      0.00      0.00      6.41 
   269.70     13.31     16.96     16.97      0.00     -0.00      6.53 
   269.80     13.31     16.95     16.98      0.00     -0.00      5.53 
   269.90     13.31     16.95     16.98      0.00     -0.00      5.82 
   270.00     13.31     16.95     16.99     -0.00      0.01      7.59 
   270.10     13.31     16.95     16.98      0.01      0.00      7.59 
   270.20     13.31     16.95     16.98      0.00     -0.00      5.94 
   270.30     13.31     16.95     16.98      0.00      0.00      5.18 
   270.40     13.31     16.94     16.99     -0.01      0.02      4.71 
   270.50     13.31     16.94     16.99     -0.01      0.02      4.76 
   270.60     13.31     16.96     16.97      0.01     -0.01      7.41 
   270.70     13.31     16.95     16.98     -0.00      0.01      6.88 
   270.80     13.31     16.95     16.98      0.00      0.01      5.53 
   270.90     13.31     16.94     17.00     -0.00      0.01      4.35 
   271.00     13.31     16.95     16.98      0.01     -0.01      4.59 
   271.10     13.31     16.95     16.99     -0.00      0.01      4.35 
   271.20     13.31     16.96     16.98      0.01     -0.00      4.00 
   271.30     13.31     16.95     16.98      0.00     -0.00      5.06 
   271.40     13.31     16.95     16.97      0.01     -0.01      5.18 
   271.50     13.31     16.95     16.98      0.01     -0.01      5.06 
   271.60     13.31     16.94     16.99     -0.01      0.02      3.53 
   271.70     13.31     16.95     16.98      0.00     -0.00      5.88 
   271.80     13.31     16.96     16.97      0.01     -0.01      7.71 
   271.90     13.31     16.95     16.97      0.01     -0.02      6.59 
   272.00     13.31     16.95     16.98     -0.01      0.00      5.18 
   272.10     13.31     16.95     16.98     -0.00     -0.00      7.41 
   272.20     13.31     16.95     16.98     -0.00      0.01      7.82 
   272.30     13.31     16.96     16.97      0.01     -0.01      5.88 
   272.40     13.31     16.95     16.98     -0.00      0.00      6.53 
   272.50     13.31     16.96     16.97      0.01     -0.02      9.94 
   272.60     13.31     16.94     16.98      0.00     -0.00      7.71 
   272.70     13.31     16.95     16.98     -0.00      0.00      5.53 
   272.80     13.31     16.95     16.98     -0.01      0.01      5.53 
   272.90     13.31     16.95     16.98     -0.00      0.01      3.65 
   273.00     13.31     16.96     16.96      0.01     -0.02      4.29 
   273.10     13.31     16.95     16.98      0.01     -0.01      5.76 
   273.20     13.31     16.95     16.98     -0.00      0.00      7.59 
   273.30     13.31     16.95     16.98     -0.00      0.00      6.12 
   273.40     13.31     16.95     16.98     -0.00      0.01      6.29 
   273.50     13.31     16.95     16.98     -0.01      0.01      6.82 
   273.60     13.31     16.95     16.98      0.01     -0.01      5.53 
   273.70     13.31     16.96     16.96      0.01     -0.01      5.47 
   273.80     13.31     16.95     16.98     -0.00      0.01      6.82 
   273.90     13.31     16.95     16.98      0.00     -0.00      6.47 
   274.00     13.31     16.96     16.96      0.00     -0.01      5.06 
   274.10     13.31     16.95     16.98      0.00      0.00      6.47 
   274.20     13.31     16.95     16.98     -0.00      0.00      8.00 
   274.30     13.31     16.95     16.98     -0.00      0.01      8.47 
   274.40     13.31     16.96     16.98      0.01     -0.02      6.94 
   274.50     13.31     16.96     16.97      0.01     -0.01      6.12 
   274.60     13.31     16.95     16.99     -0.01      0.01      8.76 
   274.70     13.31     16.95     16.98     -0.01      0.01      9.29 
   274.80     13.31     16.95     16.98      0.00     -0.00      5.12 
   274.90     13.31     16.95     16.98     -0.00      0.01      7.18 
   275.00     13.31     16.95     16.98     -0.01      0.02      8.82 
   275.10     13.31     16.95     16.98     -0.00      0.00      6.82 
   275.20     13.31     16.95     16.98      0.00      0.00      9.06 
   275.30     13.31     16.95     16.99      0.00     -0.00      6.12 
   275.40     13.31     16.95     16.97     -0.00      0.00      3.59 
