#Written by Robertson Geologging WinLogger V1.0/311
~VERSION INFORMATION
#------------------------------------------------------------------------------
 VERS. 2.0 : CWLS LOG ASCII STANDARD - VERSION 2.0
 WRAP. NO  : ONE LINE PER DEPTH STEP
~WELL INFORMATION
#MNEM.UNIT         DATA                                DESCRIPTION OF MNEMONIC
#------------------------------------------------------------------------------
 STRT.M         75.1000                            :   START DEPTH
 STOP.M        381.1000                            :   STOP DEPTH
 STEP.M          0.1000                            :   STEP VALUE
 NULL.        -999.2500                            :   NULL VALUE
 COMP.    IMC                                      :   COMPANY NAME
 WELL.    SOUTH SHAFT                              :   WELL NAME
 FLD.     HORDEN                                   :   FIELD NAME
 LOC.     N/A                                      :   LOCATION
 PROV.    N/A                                      :   PROVINCE
 SRVC.    N/A                                      :   SERVICE COMPANY NAME
 DATE.    03 Oct 03                                :   DATE
 UWI.     N/A                                      :   UNIQUE WELL IDENTIFIER
~PARAMETER INFORMATION
#MNEMO.UNIT         VALUE                 DESCRIPTION OF MNEMONIC
#------------------------------------------------------------------------------
~OTHER INFORMATION SECTION
#------------------------------------------------------------------------------
 TCDS 2822
~CURVE INFORMATION
#MNEMO.UNIT         API CODE              CURVE DESCRIPTION
#------------------------------------------------------------------------------
 DEPTH.M                                 :   0     Depth
 TEMP.DegC                               :   1     Temperature
 COND.uS/cm                              :   2     Conductivity
 DELT.DegC                               :   3     Delta T
 DELC.uS/cm                              :   4     Delta C
 NGAM.API                                :   5     Natural Gamma
#------------------------------------------------------------------------------
~A  DEPTH     TEMP      COND      DELT      DELC      NGAM      
# ...
   312.70     15.36  10551.89      0.02      0.00      1.47 
   312.80     15.35  10552.41     -0.01      1.13      1.47 
   312.90     15.35  10551.89      0.00      0.61      1.88 
   313.00     15.36  10551.19      0.02     -0.70      2.24 
   313.10     15.35  10551.89     -0.00      0.00      2.59 
   313.20     15.35  10551.89     -0.00      0.61      1.94 
   313.30     15.35  10551.72      0.01     -0.17      1.53 
   313.40     15.35  10551.19      0.01     -0.70      0.76 
   313.50     15.35  10551.89     -0.00      0.00      1.47 
   313.60     15.35  10551.89     -0.00      0.61      2.18 
   313.70     15.35  10551.89     -0.00      0.00      1.06 
   313.80     15.36  10551.89      0.01     -0.52      1.18 
   313.90     15.35  10551.89      0.01      0.00      1.94 
   314.00     15.36  10552.41     -0.01      1.22      3.06 
   314.10     15.34  10551.19     -0.01     -0.70      1.59 
   314.20     15.35  10552.41      0.00      0.52      0.71 
   314.30     15.35  10551.89     -0.01      0.17      2.18 
   314.40     15.34  10552.41     -0.00      0.52      1.53 
   314.50     15.35  10551.19     -0.00     -0.70      1.47 
   314.60     15.35  10551.89     -0.00      0.00      1.41 
   314.70     15.34  10552.50     -0.01      0.61      1.88 
   314.80     15.35  10551.28     -0.01     -0.61      2.29 
   314.90     15.36  10551.80      0.00     -0.09      1.94 
   315.00     15.34  10551.89     -0.01     -0.52      1.24 
   315.10     15.35  10552.41      0.01      1.22      1.82 
   315.20     15.35  10551.19      0.00     -1.22      1.47 
   315.30     15.35  10552.41      0.00      0.52      0.76 
   315.40     15.35  10551.89      0.00     -0.52      0.71 
   315.50     15.35  10552.41     -0.00      1.22      0.35 
   315.60     15.35  10551.89      0.01      0.00      1.47 
   315.70     15.36  10552.50      0.02      0.00      1.47 
   315.80     15.35  10552.50     -0.00      1.22      0.71 
   315.90     15.36  10552.41     -0.00      0.00      0.71 
   316.00     15.35  10551.80      0.01     -0.09      1.59 
   316.10     15.34  10552.50     -0.01      0.09      2.35 
   316.20     15.35  10551.89     -0.00      0.70      2.24 
   316.30     15.35  10551.89     -0.01     -0.52      1.82 
   316.40     15.36  10551.80      0.01     -0.09      1.12 
   316.50     15.36  10552.41      0.01      0.00      1.88 
   316.60     15.36  10552.41      0.01      0.52      1.88 
   316.70     15.35  10551.89     -0.01      0.00      0.41 
   316.80     15.35  10552.41     -0.01     -0.09      0.35 
   316.90     15.36  10552.50      0.00      0.09      0.35 
   317.00     15.35  10552.41      0.01      1.13      0.41 
   317.10     15.35  10551.80      0.01     -0.70      0.76 
   317.20     15.36  10552.50      0.01      0.61      1.18 
   317.30     15.35  10551.89     -0.00     -0.00      2.41 
   317.40     15.35  10552.50     -0.01      0.09      1.18 
   317.50     15.36  10551.89      0.01     -0.52      0.71 
   317.60     15.35  10552.50     -0.01      0.61      0.76 
   317.70     15.35  10552.41      0.01      0.52      1.12 
   317.80     15.35  10551.89      0.01     -0.52      1.06 
   317.90     15.36  10552.41      0.00     -0.09      1.12 
   318.00     15.34  10552.41     -0.01      0.00      1.18 
   318.10     15.35  10552.50     -0.00      0.70      2.18 
   318.20     15.36  10551.80     -0.00     -0.70      1.41 
   318.30     15.34  10552.93     -0.00      0.44      0.71 
   318.40     15.34  10552.93     -0.01      0.44      2.59 
   318.50     15.36  10552.41     -0.01      0.52      3.35 
   318.60     15.36  10551.89      0.00     -0.61      1.88 
   318.70     15.35  10553.02     -0.01      0.61      0.76 
   318.80     15.34  10552.41     -0.01      0.52      1.82 
   318.90     15.35  10552.41     -0.00      0.00      1.53 
   319.00     15.35  10551.80      0.01     -0.61      0.71 
   319.10     15.35  10553.02     -0.01      0.52      0.71 
   319.20     15.35  10552.50     -0.00      0.17      0.00 
   319.30     15.34  10551.80      0.00     -1.13      0.35 
   319.40     15.35  10552.93      0.01      0.52      1.41 
   319.50     15.35  10552.41     -0.01      0.00      1.41 
   319.60     15.36  10553.02      0.01      1.13      0.71 
   319.70     15.36  10552.41      0.01     -0.61      1.47 
   319.80     15.35  10552.93      0.01      0.52      1.88 
   319.90     15.35  10552.93     -0.01      0.52      1.82 
   320.00     15.35  10552.41      0.00     -0.00      0.35 
   320.10     15.36  10552.41      0.01     -0.61      0.71 
   320.20     15.35  10552.41     -0.00     -0.09      1.12 
   320.30     15.35  10553.02      0.01      0.70      0.76 
   320.40     15.36  10552.41      0.00     -0.52      0.71 
   320.50     15.35  10552.41      0.00      0.00      1.18 
   320.60     15.35  10552.50     -0.01     -0.52      1.47 
   320.70     15.35  10552.93     -0.01      1.04      1.06 
   320.80     15.35  10552.41      0.00     -0.52      1.12 
   320.90     15.36  10552.41      0.01      0.00      1.18 
   321.00     15.36  10552.93      0.01      0.00      1.82 
   321.10     15.36  10553.11      0.00      0.70      1.06 
   321.20     15.35  10551.72      0.00     -0.70      0.35 
   321.30     15.35  10553.02     -0.00      0.00      0.35 
   321.40     15.33  10553.02     -0.02      0.61      1.12 
   321.50     15.34  10552.41     -0.01     -0.00      1.88 
   321.60     15.35  10552.32      0.00     -0.70      0.00 
   321.70     15.35  10552.93      0.00      0.00      0.76 
   321.80     15.35  10552.41     -0.00      0.00      1.12 
   321.90     15.35  10553.02     -0.00      0.09      2.65 
   322.00     15.35  10551.80     -0.01     -1.13      1.53 
   322.10     15.35  10552.93     -0.00     -0.17      1.65 
   322.20     15.35  10553.02     -0.00      0.70      0.76 
   322.30     15.35  10552.32     -0.00     -0.70      1.06 
   322.40     15.35  10552.93      0.02     -0.09      2.59 
   322.50     15.35  10552.41      0.01     -0.52      2.59 
   322.60     15.35  10553.02      0.00      0.70      1.12 
   322.70     15.34  10552.41     -0.01     -0.52      1.47 
   322.80     15.36  10552.41      0.01      0.00      0.35 
   322.90     15.35  10552.93     -0.01      0.52      1.82 
   323.00     15.35  10552.93      0.00      0.61      1.06 
   323.10     15.35  10551.89     -0.00     -1.04      0.41 
   323.20     15.36  10553.02      0.01      0.00      1.24 
   323.30     15.35  10552.93      0.01      1.22      0.82 
   323.40     15.34  10552.93     -0.01      0.00      0.71 
   323.50     15.35  10552.41      0.00     -0.52      1.06 
   323.60     15.34  10552.93     -0.00     -0.09      0.35 
   323.70     15.35  10552.93      0.00      0.52      0.35 
   323.80     15.35  10552.41     -0.01      0.00      1.18 
   323.90     15.34  10553.02     -0.00      0.09      0.41 
   324.00     15.34  10553.02     -0.01      0.09      0.41 
   324.10     15.34  10552.93     -0.01      1.04      1.12 
   324.20     15.35  10552.24     -0.01     -0.78      1.88 
   324.30     15.35  10553.02     -0.00      0.09      1.88 
   324.40     15.35  10553.02      0.01      1.22      0.71 
   324.50     15.36  10552.93      0.00      0.52      0.71 
   324.60     15.35  10552.41      0.01     -0.52      0.00 
   324.70     15.34  10552.41     -0.00      0.00      0.71 
   324.80     15.35  10552.93      0.01      0.52      1.12 
   324.90     15.36  10553.02      0.01      0.00      1.18 
   325.00     15.35  10551.89      0.00     -1.04      1.06 
   325.10     15.35  10553.02      0.01      0.09      2.53 
   325.20     15.37  10552.93      0.02      0.70      2.24 
   325.30     15.35  10552.24      0.00     -0.78      1.18 
   325.40     15.35  10552.93      0.00      0.44      0.00 
   325.50     15.35  10553.11     -0.01      0.17      0.35 
   325.60     15.34  10553.02     -0.01      0.61      0.00 
   325.70     15.35  10552.41      0.00     -0.52      1.12 
   325.80     15.35  10553.02     -0.00      0.09      1.12 
