#Written by Robertson Geologging WinLogger V1.5/410
~VERSION INFORMATION
#------------------------------------------------------------------------------
 VERS. 2.0 : CWLS LOG ASCII STANDARD - VERSION 2.0
 WRAP. NO  : ONE LINE PER DEPTH STEP
~WELL INFORMATION
#MNEM.UNIT         DATA                                DESCRIPTION OF MNEMONIC
#------------------------------------------------------------------------------
 STRT.M          0.0100                            :   START DEPTH
 STOP.M        254.5000                            :   STOP DEPTH
 STEP.M          0.0100                            :   STEP VALUE
 NULL.        -999.2500                            :   NULL VALUE
 COMP.    I.W.S.                                   :   COMPANY NAME
 WELL.    MAINSFORTH SHAFT                         :   WELL NAME
 FLD.     N/A                                      :   FIELD NAME
 LOC.     N/A                                      :   LOCATION
 PROV.    N/A                                      :   PROVINCE
 SRVC.    N/A                                      :   SERVICE COMPANY NAME
 DATE.    02 Dec 11                                :   DATE
 UWI.     N/A                                      :   UNIQUE WELL IDENTIFIER
~PARAMETER INFORMATION
#MNEMO.UNIT         VALUE                 DESCRIPTION OF MNEMONIC
#------------------------------------------------------------------------------
~OTHER INFORMATION SECTION
#------------------------------------------------------------------------------
 1365 LOW
~CURVE INFORMATION
#MNEMO.UNIT         API CODE              CURVE DESCRIPTION
#------------------------------------------------------------------------------
 DEPTH.M                                 :   0     Depth
 COND.uS/cm                              :   1     Absolute Conductivity
 COND.uS/cm                              :   2     Conductivity@25DegC
 TEMP.DegC                               :   3     Temperature
#------------------------------------------------------------------------------
~A  DEPTH          COND          COND          TEMP
# ...
   167.87       2612.79       3500.84         12.32
   167.88       2613.63       3501.93         12.32
   167.89       2613.63       3501.93         12.32
   167.90       2613.63       3501.84         12.32
   167.91       2613.63       3501.76         12.32
   167.92       2610.27       3497.22         12.32
   167.93       2610.27       3497.22         12.32
   167.94       2610.27       3497.14         12.32
   167.95       2611.11       3498.26         12.32
   167.96       2610.27       3497.06         12.32
   167.97       2610.27       3496.97         12.32
   167.98       2611.11       3498.10         12.32
   167.99       2613.63       3501.43         12.32
   168.00       2613.63       3501.48         12.32
   168.01       2613.63       3501.48         12.32
   168.02       2613.63       3501.52         12.32
   168.03       2614.47       3502.60         12.32
   168.04       2613.63       3501.23         12.32
   168.05       2613.63       3501.19         12.32
   168.06       2613.63       3501.07         12.33
   168.07       2613.63       3501.11         12.33
   168.08       2614.47       3502.31         12.32
   168.09       2613.63       3501.19         12.32
   168.10       2610.27       3496.73         12.32
   168.11       2611.11       3497.85         12.32
   168.12       2610.27       3496.77         12.32
   168.13       2611.11       3497.94         12.32
   168.14       2610.27       3496.85         12.32
   168.15       2610.27       3496.97         12.32
   168.16       2611.11       3498.26         12.32
   168.17       2610.27       3497.26         12.32
   168.18       2611.11       3498.51         12.32
   168.19       2613.63       3501.97         12.32
   168.20       2613.63       3502.01         12.32
   168.21       2614.47       3503.13         12.32
   168.22       2613.63       3501.97         12.32
   168.23       2614.47       3503.18         12.32
   168.24       2613.63       3502.09         12.32
   168.25       2613.63       3502.13         12.31
   168.26       2614.47       3503.30         12.31
   168.27       2613.63       3502.05         12.32
   168.28       2614.47       3503.01         12.32
   168.29       2613.63       3501.76         12.32
   168.30       2610.27       3497.26         12.32
   168.31       2611.11       3498.47         12.32
   168.32       2610.27       3497.42         12.32
   168.33       2611.11       3498.67         12.32
   168.34       2610.27       3497.51         12.32
   168.35       2610.27       3497.42         12.32
   168.36       2611.11       3498.63         12.32
   168.37       2613.63       3502.09         12.32
   168.38       2613.63       3502.13         12.31
   168.39       2613.63       3502.30         12.31
   168.40       2613.63       3502.34         12.31
   168.41       2614.47       3503.46         12.31
   168.42       2613.63       3502.30         12.31
   168.43       2613.63       3502.21         12.31
   168.44       2613.63       3502.09         12.32
   168.45       2613.63       3502.05         12.32
   168.46       2613.63       3502.17         12.31
   168.47       2613.63       3502.25         12.31
   168.48       2610.27       3497.79         12.31
   168.49       2611.11       3498.92         12.31
   168.50       2610.27       3497.71         12.31
   168.51       2610.27       3497.67         12.31
   168.52       2610.27       3497.63         12.31
   168.53       2610.27       3497.67         12.31
   168.54       2613.63       3502.21         12.31
   168.55       2609.43       3496.67         12.31
   168.56       2612.79       3501.21         12.31
   168.57       2612.79       3501.09         12.31
   168.58       2612.79       3500.92         12.32
   168.59       2612.79       3500.72         12.32
   168.60       2611.95       3499.51         12.32
   168.61       2611.95       3499.51         12.32
   168.62       2612.79       3500.64         12.32
   168.63       2611.95       3499.59         12.32
   168.64       2611.95       3499.63         12.32
   168.65       2609.43       3496.34         12.32
   168.66       2612.79       3500.88         12.32
   168.67       2609.43       3496.42         12.32
   168.68       2612.79       3501.05         12.31
   168.69       2611.95       3499.96         12.31
   168.70       2612.79       3501.17         12.31
   168.71       2612.79       3501.21         12.31
   168.72       2612.79       3501.17         12.31
   168.73       2611.95       3500.09         12.31
   168.74       2612.79       3501.25         12.31
   168.75       2612.79       3501.17         12.31
   168.76       2611.95       3499.84         12.32
   168.77       2611.95       3499.68         12.32
   168.78       2615.31       3503.97         12.32
   168.79       2608.59       3494.85         12.32
   168.80       2611.95       3499.39         12.32
   168.81       2611.11       3498.26         12.32
   168.82       2611.11       3498.26         12.32
   168.83       2611.11       3498.26         12.32
   168.84       2611.95       3499.27         12.32
   168.85       2611.11       3497.94         12.32
   168.86       2611.11       3497.89         12.32
   168.87       2611.11       3497.94         12.32
   168.88       2611.11       3497.98         12.32
   168.89       2608.59       3494.76         12.32
   168.90       2615.31       3503.81         12.32
   168.91       2611.95       3499.27         12.32
   168.92       2611.95       3499.27         12.32
   168.93       2611.95       3499.27         12.32
   168.94       2612.79       3500.47         12.32
   168.95       2611.95       3499.47         12.32
   168.96       2611.95       3499.55         12.32
   168.97       2611.95       3499.63         12.32
   168.98       2611.95       3499.59         12.32
   168.99       2612.79       3500.64         12.32
   169.00       2611.95       3499.43         12.32
   169.01       2611.95       3499.39         12.32
   169.02       2611.95       3499.47         12.32
   169.03       2612.79       3500.76         12.32
   169.04       2612.79       3500.92         12.32
   169.05       2611.95       3499.84         12.32
   169.06       2611.95       3499.80         12.32
   169.07       2612.79       3500.97         12.32
   169.08       2612.79       3500.88         12.32
   169.09       2612.79       3501.05         12.31
   169.10       2612.79       3501.13         12.31
   169.11       2612.79       3501.09         12.31
   169.12       2609.43       3496.54         12.31
   169.13       2612.79       3500.84         12.32
   169.14       2612.79       3500.64         12.32
   169.15       2612.79       3500.47         12.32
   169.16       2612.79       3500.35         12.32
   169.17       2612.79       3500.31         12.32
   169.18       2612.79       3500.27         12.32
   169.19       2612.79       3500.35         12.32
   169.20       2612.79       3500.35         12.32
   169.21       2611.95       3499.27         12.32
   169.22       2612.79       3500.43         12.32
   169.23       2612.79       3500.43         12.32
   169.24       2609.43       3495.97         12.32
   169.25       2609.43       3496.05         12.32
   169.26       2612.79       3500.64         12.32
   169.27       2612.79       3500.72         12.32
   169.28       2612.79       3500.76         12.32
   169.29       2612.79       3500.68         12.32
   169.30       2612.79       3500.51         12.32
   169.31       2612.79       3500.39         12.32
   169.32       2612.79       3500.39         12.32
   169.33       2612.79       3500.39         12.32
   169.34       2612.79       3500.43         12.32
   169.35       2612.79       3500.43         12.32
   169.36       2611.95       3499.18         12.32
   169.37       2611.95       3499.06         12.32
   169.38       2612.79       3500.02         12.33
   169.39       2612.79       3499.98         12.33
   169.40       2611.95       3498.86         12.33
