#Written by Robertson Geologging WinLogger V1.5/410
~VERSION INFORMATION
#------------------------------------------------------------------------------
 VERS. 2.0 : CWLS LOG ASCII STANDARD - VERSION 2.0
 WRAP. NO  : ONE LINE PER DEPTH STEP
~WELL INFORMATION
#MNEM.UNIT         DATA                                DESCRIPTION OF MNEMONIC
#------------------------------------------------------------------------------
 STRT.M          0.0100                            :   START DEPTH
 STOP.M        254.5000                            :   STOP DEPTH
 STEP.M          0.0100                            :   STEP VALUE
 NULL.        -999.2500                            :   NULL VALUE
 COMP.    I.W.S.                                   :   COMPANY NAME
 WELL.    MAINSFORTH SHAFT                         :   WELL NAME
 FLD.     N/A                                      :   FIELD NAME
 LOC.     N/A                                      :   LOCATION
 PROV.    N/A                                      :   PROVINCE
 SRVC.    N/A                                      :   SERVICE COMPANY NAME
 DATE.    02 Dec 11                                :   DATE
 UWI.     N/A                                      :   UNIQUE WELL IDENTIFIER
~PARAMETER INFORMATION
#MNEMO.UNIT         VALUE                 DESCRIPTION OF MNEMONIC
#------------------------------------------------------------------------------
~OTHER INFORMATION SECTION
#------------------------------------------------------------------------------
 1365 LOW
~CURVE INFORMATION
#MNEMO.UNIT         API CODE              CURVE DESCRIPTION
#------------------------------------------------------------------------------
 DEPTH.M                                 :   0     Depth
 COND.uS/cm                              :   1     Absolute Conductivity
 COND.uS/cm                              :   2     Conductivity@25DegC
 TEMP.DegC                               :   3     Temperature
#------------------------------------------------------------------------------
~A  DEPTH          COND          COND          TEMP
# ...
   101.65       2318.83       3178.16         11.48
   101.66       2318.83       3178.13         11.48
   101.67       2319.25       3178.74         11.48
   101.68       2319.25       3178.78         11.48
   101.69       2319.67       3179.43         11.48
   101.70       2319.67       3179.47         11.48
   101.71       2320.09       3179.97         11.48
   101.72       2320.09       3179.85         11.48
   101.73       2315.89       3173.94         11.48
   101.74       2319.67       3179.01         11.48
   101.75       2315.47       3173.18         11.48
   101.76       2319.25       3178.40         11.48
   101.77       2315.05       3172.68         11.48
   101.78       2318.83       3177.93         11.48
   101.79       2314.63       3172.29         11.48
   101.80       2318.41       3177.55         11.48
   101.81       2318.41       3177.66         11.48
   101.82       2318.41       3177.82         11.48
   101.83       2318.41       3177.93         11.48
   101.84       2318.83       3178.66         11.47
   101.85       2318.83       3178.77         11.47
   101.86       2319.25       3179.39         11.47
   101.87       2319.25       3179.27         11.47
   101.88       2319.67       3179.73         11.48
   101.89       2319.67       3179.54         11.48
   101.90       2320.09       3179.89         11.48
   101.91       2320.09       3179.78         11.48
   101.92       2316.31       3174.48         11.48
   101.93       2320.09       3179.47         11.49
   101.94       2316.31       3174.14         11.49
   101.95       2320.09       3179.20         11.49
   101.96       2316.31       3173.91         11.49
   101.97       2320.09       3179.13         11.49
   101.98       2320.09       3179.24         11.49
   101.99       2319.67       3178.86         11.49
   102.00       2319.67       3179.01         11.48
   102.01       2319.25       3178.62         11.48
   102.02       2319.25       3178.66         11.48
   102.03       2318.83       3178.05         11.48
   102.04       2318.83       3178.13         11.48
   102.05       2318.41       3177.66         11.48
   102.06       2318.41       3177.78         11.48
   102.07       2318.41       3177.89         11.48
   102.08       2318.41       3177.93         11.48
   102.09       2314.63       3172.83         11.48
   102.10       2318.83       3178.54         11.48
   102.11       2318.83       3178.58         11.48
   102.12       2318.83       3178.58         11.48
   102.13       2318.83       3178.54         11.48
   102.14       2318.83       3178.54         11.48
   102.15       2318.83       3178.43         11.48
   102.16       2318.83       3178.35         11.48
   102.17       2318.83       3178.24         11.48
   102.18       2318.41       3177.59         11.48
   102.19       2318.41       3177.55         11.48
   102.20       2317.99       3176.82         11.48
   102.21       2317.99       3176.67         11.48
   102.22       2313.79       3170.73         11.49
   102.23       2317.99       3176.33         11.49
   102.24       2314.21       3171.11         11.49
   102.25       2318.41       3176.83         11.49
   102.26       2318.41       3176.79         11.49
   102.27       2318.41       3176.75         11.49
   102.28       2318.41       3176.71         11.49
   102.29       2318.41       3176.71         11.49
   102.30       2318.41       3176.79         11.49
   102.31       2318.41       3176.86         11.49
   102.32       2318.41       3176.98         11.49
   102.33       2318.83       3177.78         11.48
   102.34       2318.83       3177.90         11.48
   102.35       2318.41       3177.40         11.48
   102.36       2318.41       3177.44         11.48
   102.37       2314.21       3171.68         11.48
   102.38       2318.41       3177.44         11.48
   102.39       2318.41       3177.51         11.48
   102.40       2318.83       3178.16         11.48
   102.41       2318.83       3178.20         11.48
   102.42       2319.25       3178.85         11.48
   102.43       2319.25       3178.85         11.48
   102.44       2318.83       3178.13         11.48
   102.45       2318.83       3178.01         11.48
   102.46       2318.83       3177.93         11.48
   102.47       2318.83       3177.90         11.48
   102.48       2318.83       3177.93         11.48
   102.49       2318.83       3177.93         11.48
   102.50       2314.63       3172.07         11.48
   102.51       2318.41       3177.17         11.49
   102.52       2314.21       3171.30         11.49
   102.53       2317.99       3176.40         11.49
   102.54       2314.21       3171.30         11.49
   102.55       2318.41       3177.13         11.49
   102.56       2318.41       3177.28         11.48
   102.57       2318.41       3177.36         11.48
   102.58       2318.41       3177.44         11.48
   102.59       2318.41       3177.51         11.48
   102.60       2318.41       3177.51         11.48
   102.61       2318.41       3177.55         11.48
   102.62       2318.41       3177.51         11.48
   102.63       2318.41       3177.44         11.48
   102.64       2318.41       3177.32         11.48
   102.65       2317.99       3176.56         11.49
   102.66       2317.99       3176.37         11.49
   102.67       2314.21       3171.07         11.49
   102.68       2318.41       3176.75         11.49
   102.69       2318.41       3176.75         11.49
   102.70       2318.83       3177.36         11.49
   102.71       2315.05       3172.26         11.49
   102.72       2319.25       3178.05         11.49
   102.73       2319.25       3178.05         11.49
   102.74       2319.25       3178.02         11.49
   102.75       2319.25       3177.98         11.49
   102.76       2319.25       3177.98         11.49
   102.77       2319.25       3178.09         11.49
   102.78       2318.83       3177.52         11.49
   102.79       2318.83       3177.55         11.49
   102.80       2314.63       3171.76         11.49
   102.81       2318.41       3176.86         11.49
   102.82       2317.99       3176.29         11.49
   102.83       2317.99       3176.29         11.49
   102.84       2314.21       3171.15         11.49
   102.85       2318.41       3176.90         11.49
   102.86       2314.63       3171.76         11.49
   102.87       2318.83       3177.59         11.49
   102.88       2315.05       3172.45         11.49
   102.89       2319.25       3178.32         11.49
   102.90       2319.25       3178.43         11.48
   102.91       2319.25       3178.51         11.48
   102.92       2319.25       3178.62         11.48
   102.93       2319.25       3178.70         11.48
   102.94       2319.25       3178.78         11.48
   102.95       2319.25       3178.78         11.48
   102.96       2319.25       3178.78         11.48
   102.97       2319.25       3178.78         11.48
   102.98       2319.25       3178.70         11.48
   102.99       2319.25       3178.66         11.48
   103.00       2319.25       3178.62         11.48
   103.01       2315.47       3173.29         11.48
   103.02       2319.67       3178.97         11.48
   103.03       2319.67       3178.90         11.49
   103.04       2320.09       3179.39         11.49
   103.05       2320.09       3179.36         11.49
   103.06       2320.09       3179.32         11.49
   103.07       2320.09       3179.36         11.49
   103.08       2320.09       3179.36         11.49
   103.09       2320.09       3179.43         11.49
   103.10       2320.09       3179.51         11.48
   103.11       2320.09       3179.51         11.48
   103.12       2320.09       3179.62         11.48
   103.13       2320.09       3179.66         11.48
   103.14       2316.31       3174.48         11.48
   103.15       2320.09       3179.62         11.48
   103.16       2315.89       3173.83         11.48
   103.17       2319.67       3179.05         11.48
   103.18       2315.89       3173.87         11.48
