#Written by Robertson Geologging WinLogger V1.5/410
~VERSION INFORMATION
#------------------------------------------------------------------------------
 VERS. 2.0 : CWLS LOG ASCII STANDARD - VERSION 2.0
 WRAP. NO  : ONE LINE PER DEPTH STEP
~WELL INFORMATION
#MNEM.UNIT         DATA                                DESCRIPTION OF MNEMONIC
#------------------------------------------------------------------------------
 STRT.M          0.0100                            :   START DEPTH
 STOP.M        254.5000                            :   STOP DEPTH
 STEP.M          0.0100                            :   STEP VALUE
 NULL.        -999.2500                            :   NULL VALUE
 COMP.    I.W.S.                                   :   COMPANY NAME
 WELL.    MAINSFORTH SHAFT                         :   WELL NAME
 FLD.     N/A                                      :   FIELD NAME
 LOC.     N/A                                      :   LOCATION
 PROV.    N/A                                      :   PROVINCE
 SRVC.    N/A                                      :   SERVICE COMPANY NAME
 DATE.    02 Dec 11                                :   DATE
 UWI.     N/A                                      :   UNIQUE WELL IDENTIFIER
~PARAMETER INFORMATION
#MNEMO.UNIT         VALUE                 DESCRIPTION OF MNEMONIC
#------------------------------------------------------------------------------
~OTHER INFORMATION SECTION
#------------------------------------------------------------------------------
 1365 LOW
~CURVE INFORMATION
#MNEMO.UNIT         API CODE              CURVE DESCRIPTION
#------------------------------------------------------------------------------
 DEPTH.M                                 :   0     Depth
 COND.uS/cm                              :   1     Absolute Conductivity
 COND.uS/cm                              :   2     Conductivity@25DegC
 TEMP.DegC                               :   3     Temperature
#------------------------------------------------------------------------------
~A  DEPTH          COND          COND          TEMP
# ...
   133.99       2606.07       3494.01         12.29
   134.00       2606.07       3494.09         12.29
   134.01       2606.07       3494.09         12.29
   134.02       2606.07       3494.17         12.29
   134.03       2606.07       3494.17         12.29
   134.04       2606.07       3494.09         12.29
   134.05       2606.91       3495.09         12.29
   134.06       2606.07       3493.72         12.30
   134.07       2606.07       3493.56         12.30
   134.08       2606.91       3494.68         12.30
   134.09       2606.07       3493.51         12.30
   134.10       2606.07       3493.68         12.30
   134.11       2606.07       3493.64         12.30
   134.12       2606.07       3493.51         12.30
   134.13       2606.91       3494.56         12.30
   134.14       2610.27       3498.90         12.30
   134.15       2610.27       3498.86         12.30
   134.16       2606.07       3493.27         12.30
   134.17       2606.07       3493.35         12.30
   134.18       2606.91       3494.60         12.30
   134.19       2606.07       3493.47         12.30
   134.20       2606.91       3494.64         12.30
   134.21       2606.91       3494.56         12.30
   134.22       2606.07       3493.39         12.30
   134.23       2606.91       3494.56         12.30
   134.24       2606.07       3493.35         12.30
   134.25       2606.91       3494.48         12.30
   134.26       2606.91       3494.44         12.30
   134.27       2606.91       3494.48         12.30
   134.28       2606.91       3494.44         12.30
   134.29       2606.07       3493.31         12.30
   134.30       2606.91       3494.44         12.30
   134.31       2606.07       3493.31         12.30
   134.32       2606.91       3494.52         12.30
   134.33       2606.91       3494.64         12.30
   134.34       2606.07       3493.68         12.30
   134.35       2606.91       3495.01         12.29
   134.36       2606.07       3494.05         12.29
   134.37       2606.07       3494.17         12.29
   134.38       2610.27       3499.88         12.29
   134.39       2606.91       3495.42         12.29
   134.40       2607.75       3496.63         12.29
   134.41       2606.91       3495.50         12.29
   134.42       2606.91       3495.50         12.29
   134.43       2606.91       3495.42         12.29
   134.44       2606.91       3495.25         12.29
   134.45       2606.91       3495.09         12.29
   134.46       2606.91       3494.93         12.30
   134.47       2606.91       3494.80         12.30
   134.48       2607.75       3495.89         12.30
   134.49       2606.91       3494.60         12.30
   134.50       2610.27       3499.10         12.30
   134.51       2610.27       3498.98         12.30
   134.52       2606.91       3494.39         12.30
   134.53       2606.91       3494.35         12.30
   134.54       2606.91       3494.35         12.30
   134.55       2606.91       3494.35         12.30
   134.56       2607.75       3495.48         12.30
   134.57       2606.91       3494.39         12.30
   134.58       2606.91       3494.39         12.30
   134.59       2606.91       3494.48         12.30
   134.60       2606.91       3494.64         12.30
   134.61       2606.91       3494.64         12.30
   134.62       2606.91       3494.68         12.30
   134.63       2610.27       3499.23         12.30
   134.64       2610.27       3499.27         12.30
   134.65       2606.07       3493.68         12.30
   134.66       2606.07       3493.76         12.30
   134.67       2605.23       3492.67         12.30
   134.68       2606.07       3493.76         12.30
   134.69       2606.07       3493.80         12.30
   134.70       2605.23       3492.59         12.30
   134.71       2606.07       3493.68         12.30
   134.72       2606.07       3493.72         12.30
   134.73       2605.23       3492.63         12.30
   134.74       2606.07       3493.80         12.30
   134.75       2606.07       3493.80         12.30
   134.76       2609.43       3498.22         12.30
   134.77       2606.07       3493.64         12.30
   134.78       2606.07       3493.64         12.30
   134.79       2605.23       3492.47         12.30
   134.80       2606.07       3493.64         12.30
   134.81       2606.07       3493.64         12.30
   134.82       2606.07       3493.56         12.30
   134.83       2606.07       3493.56         12.30
   134.84       2606.07       3493.51         12.30
   134.85       2606.07       3493.47         12.30
   134.86       2606.07       3493.47         12.30
   134.87       2606.07       3493.47         12.30
   134.88       2610.27       3499.15         12.30
   134.89       2610.27       3499.10         12.30
   134.90       2610.27       3499.06         12.30
   134.91       2606.07       3493.27         12.30
   134.92       2606.07       3493.11         12.30
   134.93       2605.23       3491.86         12.30
   134.94       2606.07       3492.82         12.31
   134.95       2606.07       3492.61         12.31
   134.96       2605.23       3491.32         12.31
   134.97       2606.07       3492.33         12.31
   134.98       2606.07       3492.29         12.31
   134.99       2606.07       3492.33         12.31
   135.00       2606.07       3492.41         12.31
   135.01       2606.07       3492.49         12.31
   135.02       2606.07       3492.57         12.31
   135.03       2606.07       3492.74         12.31
   135.04       2606.07       3492.78         12.31
   135.05       2606.07       3492.86         12.31
   135.06       2606.07       3493.02         12.30
   135.07       2606.07       3493.15         12.30
   135.08       2606.07       3493.39         12.30
   135.09       2606.07       3493.60         12.30
   135.10       2605.23       3492.47         12.30
   135.11       2606.07       3493.60         12.30
   135.12       2606.07       3493.51         12.30
   135.13       2610.27       3499.10         12.30
   135.14       2610.27       3499.10         12.30
   135.15       2610.27       3499.23         12.30
   135.16       2606.07       3493.60         12.30
   135.17       2606.07       3493.60         12.30
   135.18       2606.91       3494.76         12.30
   135.19       2606.07       3493.47         12.30
   135.20       2606.07       3493.39         12.30
   135.21       2606.91       3494.48         12.30
   135.22       2606.07       3493.35         12.30
   135.23       2606.91       3494.64         12.30
   135.24       2606.07       3493.72         12.30
   135.25       2606.07       3493.92         12.29
   135.26       2606.91       3495.25         12.29
   135.27       2610.27       3499.97         12.29
   135.28       2606.91       3495.58         12.29
   135.29       2606.07       3494.46         12.29
   135.30       2606.07       3494.50         12.29
   135.31       2606.91       3495.58         12.29
   135.32       2606.07       3494.50         12.29
   135.33       2606.07       3494.58         12.29
   135.34       2606.07       3494.54         12.29
   135.35       2606.07       3494.46         12.29
   135.36       2606.91       3495.38         12.29
   135.37       2606.07       3493.96         12.29
   135.38       2606.07       3493.80         12.30
   135.39       2610.27       3499.31         12.30
   135.40       2610.27       3499.23         12.30
   135.41       2606.91       3494.68         12.30
   135.42       2606.07       3493.47         12.30
   135.43       2606.07       3493.39         12.30
   135.44       2606.91       3494.44         12.30
   135.45       2606.07       3493.31         12.30
   135.46       2606.91       3494.44         12.30
   135.47       2606.07       3493.35         12.30
   135.48       2606.07       3493.35         12.30
   135.49       2606.91       3494.39         12.30
   135.50       2606.07       3493.19         12.30
   135.51       2606.07       3493.27         12.30
   135.52       2610.27       3499.10         12.30
