#Written by Robertson Geologging WinLogger V1.5/410
~VERSION INFORMATION
#------------------------------------------------------------------------------
 VERS. 2.0 : CWLS LOG ASCII STANDARD - VERSION 2.0
 WRAP. NO  : ONE LINE PER DEPTH STEP
~WELL INFORMATION
#MNEM.UNIT         DATA                                DESCRIPTION OF MNEMONIC
#------------------------------------------------------------------------------
 STRT.M          0.0100                            :   START DEPTH
 STOP.M        255.2200                            :   STOP DEPTH
 STEP.M          0.0100                            :   STEP VALUE
 NULL.        -999.2500                            :   NULL VALUE
 COMP.    IWS                                      :   COMPANY NAME
 WELL.    Mainsforth                               :   WELL NAME
 FLD.     N/A                                      :   FIELD NAME
 LOC.     N/A                                      :   LOCATION
 PROV.    N/A                                      :   PROVINCE
 SRVC.    N/A                                      :   SERVICE COMPANY NAME
 DATE.    01 Feb 11                                :   DATE
 UWI.     N/A                                      :   UNIQUE WELL IDENTIFIER
~PARAMETER INFORMATION
#MNEMO.UNIT         VALUE                 DESCRIPTION OF MNEMONIC
#------------------------------------------------------------------------------
~OTHER INFORMATION SECTION
#------------------------------------------------------------------------------
 1365
~CURVE INFORMATION
#MNEMO.UNIT         API CODE              CURVE DESCRIPTION
#------------------------------------------------------------------------------
 DEPTH.M                                 :   0     Depth
 CN25.uS/cm                              :   1     Conductivity@25DegC
 TEMP.DegC                               :   2     Temperature
 DELT.DegC                               :   3     Delta T
 DELC.uS/cm                              :   4     Delta C
#------------------------------------------------------------------------------
~A  DEPTH          CN25          TEMP          DELT          DELC
# ...
   253.77       4888.94         14.15          0.00         -0.44
   253.78       4891.20         14.15          0.00          2.04
   253.79       4892.92         14.15         -0.00          3.93
   253.80       4891.37         14.15         -0.00          4.74
   253.81       4889.16         14.15         -0.00          0.49
   253.82       4892.81         14.15         -0.00          2.54
   253.83       4892.76         14.15         -0.00          3.98
   253.84       4889.11         14.15         -0.00          2.21
   253.85       4889.38         14.15         -0.00          0.06
   253.86       4893.42         14.14         -0.00          2.26
   253.87       4889.77         14.14         -0.00          0.17
   253.88       4889.77         14.14         -0.00          2.21
   253.89       4887.51         14.14          0.00         -2.21
   253.90       4889.55         14.14          0.00         -1.89
   253.91       4891.10         14.14          0.00          1.12
   253.92       4889.44         14.14          0.00          1.55
   253.93       4887.29         14.14          0.01         -2.87
   253.94       4889.44         14.14          0.00         -2.22
   253.95       4890.99         14.15          0.00          1.23
   253.96       4890.88         14.15          0.00          3.49
   253.97       4887.07         14.15          0.00         -0.05
   253.98       4887.12         14.15          0.00         -3.76
   253.99       4890.94         14.15          0.00         -0.06
   254.00       4890.94         14.15          0.00          3.54
   254.01       4887.23         14.15          0.00         -2.43
   254.02       4887.18         14.15          0.00         -4.09
   254.03       4891.05         14.14          0.00          1.34
   254.04       4891.16         14.14          0.00          3.43
   254.05       4891.21         14.14          0.00          1.01
   254.06       4891.27         14.14          0.01         -0.88
   254.07       4889.66         14.14          0.01         -1.05
   254.08       4891.27         14.14          0.01         -1.64
   254.09       4893.31         14.14          0.01          2.77
   254.10       4891.05         14.14          0.01          2.35
   254.11       4896.21         14.15          0.01          3.79
   254.12       4901.42         14.15          0.01         11.16
   254.13       4909.91         14.15          0.01         21.21
   254.14       4916.31         14.15          0.01         25.99
   254.15       4927.60         14.15          0.01         35.40
   254.16       4941.04         14.15          0.01         51.27
   254.17       4956.63         14.15          0.01         68.64
   254.18       4973.78         14.15          0.01         84.29
   254.19       4992.37         14.15          0.01        102.83
   254.20       5009.24         14.15          0.01        119.58
   254.21       5027.60         14.16          0.01        136.34
   254.22       5041.07         14.16          0.02        153.57
   254.23       5058.61         14.17          0.02        171.21
   254.24       5068.62         14.17          0.03        177.62
   254.25       5081.02         14.18          0.03        190.14
   254.26       5091.47         14.19          0.04        204.41
   254.27       5093.09         14.20          0.06        206.03
   254.28       5098.89         14.22          0.07        208.12
   254.29       5103.39         14.23          0.08        212.56
   254.30       5105.79         14.25          0.10        218.78
   254.31       5109.69         14.26          0.11        218.86
   254.32       5111.86         14.28          0.13        220.97
   254.33       5112.53         14.29          0.15        221.65
   254.34       5111.54         14.31          0.16        220.55
   254.35       5113.11         14.32          0.18        221.95
   254.36       5114.15         14.34          0.20        222.77
   254.37       5111.98         14.36          0.22        220.32
   254.38       5116.39         14.37          0.23        224.57
   254.39       5114.45         14.39          0.25        222.52
   254.40       5115.88         14.40          0.26        223.95
   254.41       5117.74         14.42          0.28        225.70
   254.42       5115.97         14.43          0.29        227.42
   254.43       5114.37         14.44          0.31        223.56
   254.44       5115.86         14.46          0.32        224.94
   254.45       5118.11         14.47          0.33        227.24
   254.46       5118.81         14.48          0.34        228.11
   254.47       5115.20         14.49          0.35        224.61
   254.48       5116.02         14.50          0.36        225.54
   254.49       5116.14         14.51          0.37        225.82
   254.50       5116.73         14.52          0.38        226.47
   254.51       5116.90         14.53          0.39        226.64
   254.52       5114.05         14.54          0.40        223.84
   254.53       5114.62         14.55          0.41        224.58
   254.54       5115.73         14.56          0.42        225.80
   254.55       5114.93         14.56          0.42        225.05
   254.56       5114.08         14.57          0.43        224.20
   254.57       5116.95         14.58          0.44        226.91
   254.58       5120.16         14.58          0.44        230.06
   254.59       5119.53         14.59          0.45        229.38
   254.60       5119.13         14.59          0.45        228.93
   254.61       5118.73         14.59          0.45        228.58
   254.62       5120.29         14.60          0.46        230.03
   254.63       5121.55         14.60          0.46        231.28
   254.64       5119.44         14.60          0.47        229.12
   254.65       5119.04         14.61          0.47        228.67
   254.66       5120.18         14.61          0.47        228.31
   254.67       5121.79         14.61          0.47        231.64
   254.68       5119.27         14.62          0.48        231.43
   254.69       5117.05         14.62          0.48        227.17
   254.70       5122.02         14.62          0.48        232.20
   254.71       5119.92         14.63          0.49        230.09
   254.72       5123.24         14.63          0.49        233.47
   254.73       5120.94         14.63          0.49        231.45
   254.74       5118.89         14.64          0.49        229.62
   254.75       5120.20         14.64          0.49        227.39
   254.76       5123.63         14.64          0.49        234.69
   254.77       5123.41         14.64          0.49        232.21
   254.78       5123.29         14.64          0.50        230.37
   254.79       5121.64         14.64          0.50        230.28
   254.80       5126.95         14.64          0.50        237.79
   254.81       5121.42         14.65          0.50        228.60
   254.82       5125.13         14.65          0.50        232.37
   254.83       5122.90         14.65          0.50        233.79
   254.84       5124.85         14.65          0.50        235.47
   254.85       5126.44         14.65          0.50        233.02
   254.86       5128.40         14.65          0.51        238.63
   254.87       5128.28         14.65          0.51        238.52
   254.88       5128.17         14.65          0.51        240.66
   254.89       5128.05         14.65          0.51        238.51
   254.90       5129.53         14.65          0.51        238.43
   254.91       5127.71         14.65          0.51        238.28
   254.92       5129.13         14.66          0.51        241.85
   254.93       5128.85         14.66          0.51        239.41
   254.94       5128.68         14.66          0.51        237.68
   254.95       5128.62         14.66          0.51        237.74
   254.96       5128.56         14.66          0.51        241.50
   254.97       5128.56         14.66          0.51        241.44
   254.98       5126.38         14.66          0.51        235.45
