#Written by Robertson Geologging WinLogger V1.5/410
~VERSION INFORMATION
#------------------------------------------------------------------------------
 VERS. 2.0 : CWLS LOG ASCII STANDARD - VERSION 2.0
 WRAP. NO  : ONE LINE PER DEPTH STEP
~WELL INFORMATION
#MNEM.UNIT         DATA                                DESCRIPTION OF MNEMONIC
#------------------------------------------------------------------------------
 STRT.M          0.0100                            :   START DEPTH
 STOP.M        254.5000                            :   STOP DEPTH
 STEP.M          0.0100                            :   STEP VALUE
 NULL.        -999.2500                            :   NULL VALUE
 COMP.    I.W.S.                                   :   COMPANY NAME
 WELL.    MAINSFORTH SHAFT                         :   WELL NAME
 FLD.     N/A                                      :   FIELD NAME
 LOC.     N/A                                      :   LOCATION
 PROV.    N/A                                      :   PROVINCE
 SRVC.    N/A                                      :   SERVICE COMPANY NAME
 DATE.    02 Dec 11                                :   DATE
 UWI.     N/A                                      :   UNIQUE WELL IDENTIFIER
~PARAMETER INFORMATION
#MNEMO.UNIT         VALUE                 DESCRIPTION OF MNEMONIC
#------------------------------------------------------------------------------
~OTHER INFORMATION SECTION
#------------------------------------------------------------------------------
 1365 LOW
~CURVE INFORMATION
#MNEMO.UNIT         API CODE              CURVE DESCRIPTION
#------------------------------------------------------------------------------
 DEPTH.M                                 :   0     Depth
 COND.uS/cm                              :   1     Absolute Conductivity
 COND.uS/cm                              :   2     Conductivity@25DegC
 TEMP.DegC                               :   3     Temperature
#------------------------------------------------------------------------------
~A  DEPTH          COND          COND          TEMP
# ...
   218.69       3754.80       4820.69         13.94
   218.70       3758.16       4825.01         13.94
   218.71       3758.16       4825.01         13.94
   218.72       3758.16       4825.23         13.94
   218.73       3754.80       4821.18         13.94
   218.74       3758.16       4825.61         13.94
   218.75       3758.16       4825.66         13.94
   218.76       3758.16       4825.66         13.94
   218.77       3753.95       4820.31         13.94
   218.78       3757.32       4824.58         13.94
   218.79       3757.32       4824.58         13.94
   218.80       3756.48       4823.61         13.94
   218.81       3757.32       4824.69         13.94
   218.82       3757.32       4824.64         13.94
   218.83       3757.32       4824.42         13.94
   218.84       3757.32       4824.15         13.94
   218.85       3758.16       4825.07         13.94
   218.86       3758.16       4824.96         13.95
   218.87       3758.16       4824.90         13.95
   218.88       3761.53       4829.12         13.95
   218.89       3762.37       4830.09         13.95
   218.90       3762.37       4830.09         13.95
   218.91       3759.00       4825.71         13.95
   218.92       3758.16       4824.63         13.95
   218.93       3759.00       4825.77         13.95
   218.94       3759.00       4825.82         13.95
   218.95       3762.37       4830.20         13.95
   218.96       3761.53       4829.06         13.95
   218.97       3762.37       4830.04         13.95
   218.98       3762.37       4829.87         13.95
   218.99       3762.37       4829.77         13.95
   219.00       3761.53       4828.74         13.95
   219.01       3758.16       4824.31         13.95
   219.02       3761.53       4828.74         13.95
   219.03       3761.53       4828.85         13.95
   219.04       3760.69       4827.82         13.95
   219.05       3761.53       4829.01         13.95
   219.06       3761.53       4829.01         13.95
   219.07       3761.53       4829.06         13.95
   219.08       3761.53       4829.17         13.95
   219.09       3761.53       4829.44         13.94
   219.10       3761.53       4829.66         13.94
   219.11       3761.53       4829.77         13.94
   219.12       3761.53       4829.99         13.94
   219.13       3761.53       4830.04         13.94
   219.14       3761.53       4830.15         13.94
   219.15       3761.53       4830.26         13.94
   219.16       3761.53       4830.36         13.94
   219.17       3761.53       4830.58         13.93
   219.18       3761.53       4830.69         13.93
   219.19       3761.53       4830.80         13.93
   219.20       3761.53       4830.80         13.93
   219.21       3761.53       4830.85         13.93
   219.22       3761.53       4830.85         13.93
   219.23       3765.74       4836.26         13.93
   219.24       3765.74       4836.20         13.93
   219.25       3765.74       4836.10         13.93
   219.26       3765.74       4836.04         13.93
   219.27       3765.74       4835.88         13.94
   219.28       3765.74       4835.77         13.94
   219.29       3765.74       4835.72         13.94
   219.30       3764.90       4834.53         13.94
   219.31       3765.74       4835.50         13.94
   219.32       3765.74       4835.28         13.94
   219.33       3765.74       4835.06         13.94
   219.34       3764.90       4833.71         13.94
   219.35       3765.74       4834.52         13.95
   219.36       3765.74       4834.30         13.95
   219.37       3765.74       4834.03         13.95
   219.38       3764.90       4832.79         13.95
   219.39       3765.74       4833.76         13.95
   219.40       3765.74       4833.65         13.95
   219.41       3765.74       4833.60         13.95
   219.42       3764.90       4832.57         13.95
   219.43       3765.74       4833.87         13.95
   219.44       3765.74       4834.14         13.95
   219.45       3765.74       4834.47         13.95
   219.46       3764.90       4833.60         13.95
   219.47       3764.90       4833.71         13.94
   219.48       3764.90       4833.87         13.94
   219.49       3765.74       4835.01         13.94
   219.50       3764.90       4833.93         13.94
   219.51       3764.90       4834.04         13.94
   219.52       3764.90       4834.15         13.94
   219.53       3765.74       4835.34         13.94
   219.54       3764.90       4834.20         13.94
   219.55       3764.90       4834.09         13.94
   219.56       3768.26       4838.36         13.94
   219.57       3764.90       4834.15         13.94
   219.58       3768.26       4838.63         13.94
   219.59       3768.26       4838.80         13.94
   219.60       3764.05       4833.61         13.94
   219.61       3764.05       4833.77         13.93
   219.62       3764.90       4834.91         13.93
   219.63       3764.90       4834.91         13.93
   219.64       3764.05       4833.77         13.93
   219.65       3764.05       4833.77         13.93
   219.66       3764.90       4834.91         13.93
   219.67       3761.53       4830.69         13.93
   219.68       3764.90       4835.01         13.93
   219.69       3761.53       4830.64         13.93
   219.70       3762.37       4831.66         13.93
   219.71       3765.74       4835.77         13.94
   219.72       3769.11       4839.82         13.94
   219.73       3768.26       4838.52         13.94
   219.74       3769.11       4839.50         13.94
   219.75       3769.11       4839.44         13.94
   219.76       3769.11       4839.50         13.94
   219.77       3769.11       4839.44         13.94
   219.78       3769.11       4839.22         13.94
   219.79       3769.11       4839.06         13.94
   219.80       3769.11       4839.01         13.95
   219.81       3769.11       4838.90         13.95
   219.82       3769.11       4839.01         13.95
   219.83       3765.74       4834.90         13.94
   219.84       3769.11       4839.39         13.94
   219.85       3769.11       4839.50         13.94
   219.86       3769.11       4839.55         13.94
   219.87       3769.11       4839.55         13.94
   219.88       3768.26       4838.58         13.94
   219.89       3769.11       4839.82         13.94
   219.90       3769.11       4839.98         13.94
   219.91       3769.11       4839.98         13.94
   219.92       3768.26       4838.85         13.94
   219.93       3769.11       4839.93         13.94
   219.94       3769.11       4839.93         13.94
   219.95       3769.11       4840.09         13.94
   219.96       3769.11       4840.31         13.93
   219.97       3769.11       4840.26         13.93
   219.98       3769.11       4840.15         13.94
   219.99       3769.11       4839.93         13.94
   220.00       3769.11       4839.77         13.94
   220.01       3769.11       4839.71         13.94
   220.02       3769.11       4839.66         13.94
   220.03       3772.47       4843.98         13.94
   220.04       3768.26       4838.36         13.94
   220.05       3771.63       4842.52         13.94
   220.06       3768.26       4837.93         13.95
   220.07       3767.42       4836.52         13.95
   220.08       3768.26       4837.60         13.95
   220.09       3768.26       4837.55         13.95
   220.10       3768.26       4837.55         13.95
   220.11       3767.42       4836.36         13.95
   220.12       3768.26       4837.38         13.95
   220.13       3771.63       4841.76         13.95
   220.14       3768.26       4837.49         13.95
   220.15       3772.47       4843.00         13.95
   220.16       3769.11       4838.63         13.95
   220.17       3769.11       4838.46         13.95
   220.18       3769.11       4838.30         13.95
   220.19       3769.11       4838.19         13.95
   220.20       3769.11       4838.14         13.95
   220.21       3772.47       4842.46         13.95
   220.22       3773.31       4843.76         13.95
