#Written by Robertson Geologging WinLogger V1.5/410
~VERSION INFORMATION
#------------------------------------------------------------------------------
 VERS. 2.0 : CWLS LOG ASCII STANDARD - VERSION 2.0
 WRAP. NO  : ONE LINE PER DEPTH STEP
~WELL INFORMATION
#MNEM.UNIT         DATA                                DESCRIPTION OF MNEMONIC
#------------------------------------------------------------------------------
 STRT.M          0.0600                            :   START DEPTH
 STOP.M        264.8300                            :   STOP DEPTH
 STEP.M          0.0100                            :   STEP VALUE
 NULL.        -999.2500                            :   NULL VALUE
 COMP.    Coal Authority                           :   COMPANY NAME
 WELL.    Mainsforth Shaft                         :   WELL NAME
 FLD.     N/A                                      :   FIELD NAME
 LOC.     N/A                                      :   LOCATION
 PROV.    N/A                                      :   PROVINCE
 SRVC.    N/A                                      :   SERVICE COMPANY NAME
 DATE.    16 Dec 08                                :   DATE
 UWI.     N/A                                      :   UNIQUE WELL IDENTIFIER
~PARAMETER INFORMATION
#MNEMO.UNIT         VALUE                 DESCRIPTION OF MNEMONIC
#------------------------------------------------------------------------------
~OTHER INFORMATION SECTION
#------------------------------------------------------------------------------
 TCDS 1365
 16,12,2008
~CURVE INFORMATION
#MNEMO.UNIT         API CODE              CURVE DESCRIPTION
#------------------------------------------------------------------------------
 DEPTH.M                                 :   0     Depth
 TEMP.DegC                               :   1     Temperature
 COND.uS/cm                              :   2     Absolute Conductivity
 COND.uS/cm                              :   3     Conductivity@25DegC
 DELT.DegC                               :   4     Delta T
 DELC.uS/cm                              :   5     Delta C
 NGAM.CPS                                :   6     Natural Gamma
#------------------------------------------------------------------------------
~A  DEPTH          TEMP          COND          COND          DELT          DELC          NGAM
# ...
    35.32         10.72       1421.57       1990.04          0.00         -4.10          0.00
    35.33         10.72       1423.23       1992.42         -0.00          0.62          0.35
    35.34         10.72       1421.99       1990.70         -0.00         -2.86          0.35
    35.35         10.72       1423.23       1992.44         -0.00          1.18          0.35
    35.36         10.72       1421.99       1990.67         -0.00         -2.30          0.35
    35.37         10.72       1421.99       1990.67         -0.00         -0.54          0.76
    35.38         10.72       1420.74       1988.93         -0.00         -3.97          0.76
    35.39         10.72       1421.99       1990.63         -0.00         -2.21          0.76
    35.40         10.72       1423.65       1992.93         -0.00          2.55          0.76
    35.41         10.72       1423.65       1992.93         -0.01          0.88          0.76
    35.42         10.72       1423.65       1992.90         -0.01          5.04          0.76
    35.43         10.72       1423.65       1992.90         -0.01          1.07          0.76
    35.44         10.72       1421.99       1990.60         -0.01         -1.21          0.76
    35.45         10.72       1421.99       1990.60         -0.01         -1.16          0.76
    35.46         10.72       1420.74       1988.86         -0.01         -1.16          1.12
    35.47         10.72       1421.99       1990.63         -0.01          0.59          1.12
    35.48         10.72       1421.99       1990.60         -0.01          0.54          1.12
    35.49         10.72       1424.89       1994.67         -0.01          6.25          1.47
    35.50         10.72       1424.89       1994.72         -0.01          4.46          1.12
    35.51         10.72       1421.99       1990.63         -0.00          2.01          1.12
    35.52         10.72       1421.99       1990.63         -0.00         -2.11          1.12
    35.53         10.72       1421.99       1990.63         -0.00         -3.87          1.12
    35.54         10.72       1421.99       1990.60         -0.00          0.10          0.71
    35.55         10.72       1420.74       1988.83         -0.00          0.02          0.71
    35.56         10.72       1421.99       1990.58          0.00          0.00          0.71
    35.57         10.72       1424.89       1994.65          0.00          4.07          0.71
    35.58         10.72       1423.65       1992.83          0.00          4.00          0.71
    35.59         10.72       1423.65       1992.73          0.00          2.18          0.71
    35.60         10.72       1421.99       1990.31          0.00         -4.29          0.71
    35.61         10.73       1420.74       1988.42          0.01         -4.39          0.71
    35.62         10.73       1420.74       1988.37          0.01         -6.13          0.71
    35.63         10.73       1423.65       1992.41          0.01          1.98          0.35
    35.64         10.73       1423.65       1992.39          0.01          3.65          0.35
    35.65         10.73       1423.65       1992.39          0.01          1.91          0.35
    35.66         10.73       1423.65       1992.36          0.01          1.89          0.00
    35.67         10.73       1423.65       1992.36          0.01         -0.44          0.00
    35.68         10.73       1420.74       1988.27          0.01         -2.69          0.00
    35.69         10.73       1421.99       1990.09          0.00         -4.85          0.00
    35.70         10.73       1423.23       1991.90          0.00          0.55          0.00
    35.71         10.72       1421.99       1990.21         -0.00         -1.00          0.00
    35.72         10.72       1423.23       1992.10         -0.01          0.92          0.00
    35.73         10.72       1423.23       1992.20         -0.01          1.04          0.00
    35.74         10.72       1421.57       1989.97         -0.01         -1.16          0.00
    35.75         10.72       1420.33       1988.32         -0.01         -4.55          0.00
    35.76         10.72       1423.23       1992.47         -0.01          1.38          0.00
    35.77         10.71       1421.99       1990.80         -0.02         -1.98          0.00
    35.78         10.71       1423.65       1993.15         -0.02          4.46          0.00
    35.79         10.71       1423.65       1993.12         -0.02          0.86          0.00
    35.80         10.72       1423.65       1993.00         -0.01          2.99          0.00
    35.81         10.72       1422.40       1991.21         -0.01         -0.65          0.00
    35.82         10.72       1422.40       1991.19         -0.01          1.56          0.00
    35.83         10.72       1422.40       1991.16         -0.01         -0.18          0.00
    35.84         10.72       1422.40       1991.16         -0.01          1.53          0.00
    35.85         10.72       1422.40       1991.11         -0.01         -0.23          0.00
    35.86         10.72       1425.31       1995.11         -0.01          5.53          0.00
    35.87         10.72       1422.40       1990.94         -0.00         -2.76          0.00
    35.88         10.72       1424.89       1994.35         -0.00          4.09          0.00
    35.89         10.72       1421.99       1990.21          0.00         -4.22          0.00
    35.90         10.72       1421.99       1990.21          0.00         -2.50          0.00
    35.91         10.72       1421.99       1990.23          0.00         -2.45          0.00
    35.92         10.72       1421.99       1990.23          0.00         -4.19          0.00
    35.93         10.72       1423.23       1991.95          0.00         -0.71          0.00
    35.94         10.73       1421.99       1990.14          0.00         -0.78          0.00
    35.95         10.73       1424.89       1994.13          0.00          1.47          0.00
    35.96         10.73       1422.40       1990.55          0.01         -0.39          0.00
    35.97         10.73       1422.40       1990.52          0.01         -2.18          0.00
    35.98         10.73       1423.65       1992.32          0.01          3.68          0.00
    35.99         10.73       1422.40       1990.62          0.01         -1.53          0.00
    36.00         10.73       1422.40       1990.72          0.00          2.71          0.00
    36.01         10.73       1423.65       1992.51          0.00          2.81          0.00
    36.02         10.72       1422.40       1990.84          0.00         -1.18          0.00
    36.03         10.72       1422.40       1990.89         -0.00          2.40          0.00
    36.04         10.72       1422.40       1990.94         -0.00         -1.62          0.00
    36.05         10.72       1425.31       1995.08         -0.00          0.75          0.00
    36.06         10.72       1421.16       1989.32         -0.00         -3.27          0.00
    36.07         10.72       1425.31       1995.21         -0.01          0.88          0.00
    36.08         10.72       1423.65       1992.90         -0.01          0.32          0.00
    36.09         10.72       1422.40       1991.11         -0.01         -3.17          0.00
    36.10         10.72       1422.40       1991.09         -0.01         -1.40          0.00
    36.11         10.72       1423.65       1992.78         -0.01         -1.45          0.00
    36.12         10.72       1422.40       1990.96         -0.00         -1.57          0.00
    36.13         10.72       1423.65       1992.68         -0.00          2.42          0.00
    36.14         10.72       1424.90       1994.35         -0.00          2.33          0.00
    36.15         10.72       1423.65       1992.56          0.00          4.63          0.00
    36.16         10.73       1421.99       1990.16          0.00          2.25          0.00
    36.17         10.73       1423.23       1991.85          0.00         -0.10          0.00
