#Written by Robertson Geologging WinLogger V1.5/410
~VERSION INFORMATION
#------------------------------------------------------------------------------
 VERS. 2.0 : CWLS LOG ASCII STANDARD - VERSION 2.0
 WRAP. NO  : ONE LINE PER DEPTH STEP
~WELL INFORMATION
#MNEM.UNIT         DATA                                DESCRIPTION OF MNEMONIC
#------------------------------------------------------------------------------
 STRT.M          0.0600                            :   START DEPTH
 STOP.M        264.8300                            :   STOP DEPTH
 STEP.M          0.0100                            :   STEP VALUE
 NULL.        -999.2500                            :   NULL VALUE
 COMP.    Coal Authority                           :   COMPANY NAME
 WELL.    Mainsforth Shaft                         :   WELL NAME
 FLD.     N/A                                      :   FIELD NAME
 LOC.     N/A                                      :   LOCATION
 PROV.    N/A                                      :   PROVINCE
 SRVC.    N/A                                      :   SERVICE COMPANY NAME
 DATE.    16 Dec 08                                :   DATE
 UWI.     N/A                                      :   UNIQUE WELL IDENTIFIER
~PARAMETER INFORMATION
#MNEMO.UNIT         VALUE                 DESCRIPTION OF MNEMONIC
#------------------------------------------------------------------------------
~OTHER INFORMATION SECTION
#------------------------------------------------------------------------------
 TCDS 1365
 16,12,2008
~CURVE INFORMATION
#MNEMO.UNIT         API CODE              CURVE DESCRIPTION
#------------------------------------------------------------------------------
 DEPTH.M                                 :   0     Depth
 TEMP.DegC                               :   1     Temperature
 COND.uS/cm                              :   2     Absolute Conductivity
 COND.uS/cm                              :   3     Conductivity@25DegC
 DELT.DegC                               :   4     Delta T
 DELC.uS/cm                              :   5     Delta C
 NGAM.CPS                                :   6     Natural Gamma
#------------------------------------------------------------------------------
~A  DEPTH          TEMP          COND          COND          DELT          DELC          NGAM
# ...
   176.36         12.35       2793.32       3739.23          0.01         -0.19          0.82
   176.37         12.35       2791.54       3736.94          0.01         -0.61          0.82
   176.38         12.35       2791.54       3736.94          0.01         -0.52          1.18
   176.39         12.35       2794.64       3741.14          0.00          3.72          1.18
   176.40         12.35       2794.64       3741.27          0.00         -0.17          0.76
   176.41         12.35       2791.54       3737.29         -0.00         -1.60          0.76
   176.42         12.34       2794.64       3741.66         -0.00          2.86          0.76
   176.43         12.34       2794.64       3741.66         -0.00          2.81          0.76
   176.44         12.35       2794.64       3741.62         -0.00          2.51          0.76
   176.45         12.35       2792.87       3739.15          0.00         -0.22          0.76
   176.46         12.35       2794.64       3741.44          0.00          1.93          0.76
   176.47         12.35       2794.64       3741.48          0.00          1.98          0.76
   176.48         12.35       2794.64       3741.39          0.00          0.28          0.76
   176.49         12.35       2791.54       3737.11          0.00         -3.91          0.35
   176.50         12.35       2791.54       3736.85          0.01         -4.09          0.35
   176.51         12.35       2791.54       3736.63          0.01         -4.22          0.35
   176.52         12.36       2791.54       3736.45          0.01         -0.15          0.35
   176.53         12.36       2791.54       3736.32          0.01         -0.15          0.35
   176.54         12.36       2791.54       3736.28          0.01         -0.02          0.35
   176.55         12.36       2791.54       3736.23          0.00         -3.95          0.00
   176.56         12.36       2791.54       3736.32          0.00         -3.69          0.00
   176.57         12.36       2792.87       3738.19         -0.00          0.09          0.00
   176.58         12.35       2791.54       3736.54         -0.00         -1.52          0.00
   176.59         12.35       2791.54       3736.76         -0.00         -1.38          0.00
   176.60         12.35       2794.64       3741.04         -0.01          2.99          0.00
   176.61         12.35       2794.64       3741.22         -0.01          3.25          0.00
   176.62         12.35       2794.64       3741.39         -0.01          3.38          0.00
   176.63         12.35       2795.97       3743.30         -0.01          1.10          0.00
   176.64         12.35       2792.87       3739.24         -0.01          1.01          0.00
   176.65         12.34       2792.87       3739.42         -0.01          1.01          0.00
   176.66         12.34       2792.87       3739.59         -0.01          1.01          0.00
   176.67         12.34       2792.87       3739.64         -0.01          0.88          0.00
   176.68         12.34       2792.87       3739.59         -0.01         -1.08          0.00
   176.69         12.34       2792.87       3739.42         -0.00          0.40          0.00
   176.70         12.35       2792.87       3739.15         -0.00          0.13          0.00
   176.71         12.35       2792.87       3739.02          0.00         -0.09          0.00
   176.72         12.35       2792.87       3738.98          0.00         -0.22          0.00
   176.73         12.35       2792.87       3738.93          0.00         -0.26          0.00
   176.74         12.35       2792.87       3738.98          0.00         -0.31          0.00
   176.75         12.35       2792.87       3739.07          0.00         -2.59          0.00
   176.76         12.35       2794.64       3741.57          0.00         -0.04          0.00
   176.77         12.34       2794.64       3741.70         -0.00          0.22          0.00
   176.78         12.34       2791.54       3737.64         -0.01         -3.62          0.00
   176.79         12.34       2791.54       3737.73         -0.01          0.75          0.00
   176.80         12.34       2792.87       3739.68         -0.01         -1.32          0.00
   176.81         12.34       2792.87       3739.86         -0.01         -1.27          0.00
   176.82         12.34       2792.87       3740.04         -0.01          2.88          0.00
   176.83         12.34       2791.54       3738.39         -0.01          1.14          0.00
   176.84         12.34       2791.54       3738.34         -0.01         -1.36          0.00
   176.85         12.34       2791.54       3738.30         -0.01          2.96          0.00
   176.86         12.34       2794.64       3742.32         -0.01          5.42          0.00
   176.87         12.34       2792.87       3739.68         -0.01          2.87          0.00
   176.88         12.34       2792.87       3739.55         -0.01          2.69          0.00
   176.89         12.34       2792.87       3739.50         -0.01          2.39          0.00
   176.90         12.34       2792.87       3739.64         -0.00         -1.90          0.00
   176.91         12.34       2794.64       3742.10         -0.00          2.68          0.00
   176.92         12.34       2791.54       3737.99         -0.00         -1.56          0.00
   176.93         12.34       2791.54       3737.95         -0.00         -5.76          0.00
   176.94         12.34       2792.87       3739.60          0.00          0.00          0.00
   176.95         12.34       2792.87       3739.60          0.00          2.33          0.00
   176.96         12.34       2791.54       3737.77          0.00         -3.78          0.00
   176.97         12.34       2791.54       3737.77          0.00         -3.86          0.00
   176.98         12.34       2791.54       3737.82          0.00         -3.82          0.00
   176.99         12.34       2791.54       3737.68          0.00         -3.82          0.00
   177.00         12.35       2793.31       3739.84          0.00         -1.40          0.00
   177.01         12.35       2793.31       3739.57          0.00          0.38          0.41
   177.02         12.35       2791.54       3736.89          0.00         -2.04          0.41
   177.03         12.35       2794.64       3740.95          0.00          2.24          0.41
   177.04         12.35       2794.64       3741.09         -0.00          2.50          0.41
   177.05         12.35       2794.64       3741.31         -0.00          2.81          0.41
   177.06         12.34       2793.31       3739.88         -0.01          1.43          0.41
   177.07         12.34       2794.64       3741.96         -0.01          3.43          0.82
   177.08         12.34       2792.42       3739.17         -0.01          0.46          0.82
   177.09         12.34       2792.42       3739.22         -0.01          0.28          0.82
   177.10         12.34       2791.09       3737.48         -0.01         -1.72          0.82
   177.11         12.34       2792.42       3739.26         -0.00          1.62          0.82
   177.12         12.34       2792.42       3739.26         -0.00         -0.33          0.82
   177.13         12.34       2792.42       3739.31         -0.00         -0.42          0.82
   177.14         12.34       2792.42       3739.17          0.00         -0.59          0.82
   177.15         12.34       2792.42       3738.91          0.00          0.88          0.82
   177.16         12.35       2792.42       3738.65          0.01         -3.58          0.82
   177.17         12.35       2790.65       3735.92          0.01         -6.35          0.82
   177.18         12.35       2790.65       3735.66          0.01         -6.52          0.41
   177.19         12.35       2792.87       3738.58          0.01         -3.47          0.41
   177.20         12.35       2792.87       3738.67          0.01         -1.51          0.41
   177.21         12.35       2794.20       3740.63          0.01          0.62          0.41
