#Written by Robertson Geologging WinLogger V1.5/410
~VERSION INFORMATION
#------------------------------------------------------------------------------
 VERS. 2.0 : CWLS LOG ASCII STANDARD - VERSION 2.0
 WRAP. NO  : ONE LINE PER DEPTH STEP
~WELL INFORMATION
#MNEM.UNIT         DATA                                DESCRIPTION OF MNEMONIC
#------------------------------------------------------------------------------
 STRT.M          0.0100                            :   START DEPTH
 STOP.M        255.2200                            :   STOP DEPTH
 STEP.M          0.0100                            :   STEP VALUE
 NULL.        -999.2500                            :   NULL VALUE
 COMP.    IWS                                      :   COMPANY NAME
 WELL.    Mainsforth                               :   WELL NAME
 FLD.     N/A                                      :   FIELD NAME
 LOC.     N/A                                      :   LOCATION
 PROV.    N/A                                      :   PROVINCE
 SRVC.    N/A                                      :   SERVICE COMPANY NAME
 DATE.    01 Feb 11                                :   DATE
 UWI.     N/A                                      :   UNIQUE WELL IDENTIFIER
~PARAMETER INFORMATION
#MNEMO.UNIT         VALUE                 DESCRIPTION OF MNEMONIC
#------------------------------------------------------------------------------
~OTHER INFORMATION SECTION
#------------------------------------------------------------------------------
 1365
~CURVE INFORMATION
#MNEMO.UNIT         API CODE              CURVE DESCRIPTION
#------------------------------------------------------------------------------
 DEPTH.M                                 :   0     Depth
 CN25.uS/cm                              :   1     Conductivity@25DegC
 TEMP.DegC                               :   2     Temperature
 DELT.DegC                               :   3     Delta T
 DELC.uS/cm                              :   4     Delta C
#------------------------------------------------------------------------------
~A  DEPTH          CN25          TEMP          DELT          DELC
# ...
    34.17       2295.15         11.40          0.01          3.04
    34.18       2298.52         11.40          0.01         10.50
    34.19       2298.46         11.40          0.01          6.47
    34.20       2295.01         11.40          0.01          7.04
    34.21       2298.58         11.40          0.00          7.24
    34.22       2298.71         11.40          0.00         11.49
    34.23       2295.34         11.40         -0.00          4.14
    34.24       2298.80         11.40         -0.00         11.14
    34.25       2298.71         11.40         -0.00          7.02
    34.26       2295.23         11.40         -0.00          3.54
    34.27       2295.17         11.40         -0.00          3.54
    34.28       2299.24         11.40         -0.00          7.57
    34.29       2299.29         11.40         -0.00          7.66
    34.30       2295.29         11.40         -0.00          3.60
    34.31       2298.77         11.40         -0.00          7.02
    34.32       2299.26         11.40          0.00          7.46
    34.33       2295.04         11.40          0.00          3.21
    34.34       2298.27         11.41          0.01          7.10
    34.35       2298.62         11.41          0.01          7.56
    34.36       2294.45         11.41          0.01          3.45
    34.37       2297.79         11.41          0.01          6.73
    34.38       2297.77         11.41          0.01          6.57
    34.39       2297.79         11.41          0.01          6.54
    34.40       2294.34         11.41          0.02          3.06
    34.41       2298.40         11.41          0.01          7.17
    34.42       2298.45         11.41          0.01          7.28
    34.43       2294.53         11.41          0.01          3.34
    34.44       2298.70         11.41          0.01          7.45
    34.45       2299.50         11.40          0.01          7.62
    34.46       2299.12         11.40          0.00          7.18
    34.47       2299.24         11.40          0.00          7.87
    34.48       2299.32         11.40          0.00          7.43
    34.49       2299.35         11.40         -0.00          7.52
    34.50       2295.23         11.40          0.00          3.98
    34.51       2299.24         11.40          0.00          7.90
    34.52       2298.60         11.40          0.00          7.21
    34.53       2299.10         11.40          0.01          3.64
    34.54       2299.10         11.40          0.01          7.13
    34.55       2298.52         11.40          0.00          2.60
    34.56       2298.46         11.40          0.00          6.66
    34.57       2295.01         11.40          0.00         -0.88
    34.58       2298.46         11.40          0.01          5.95
    34.59       2299.01         11.40          0.01          6.44
    34.60       2298.98         11.40          0.01          2.32
    34.61       2298.96         11.40          0.01          5.78
    34.62       2298.87         11.41          0.01          2.32
    34.63       2298.84         11.41          0.01          6.41
    34.64       2298.82         11.41          0.01          6.41
    34.65       2298.73         11.41          0.01          2.90
    34.66       2299.25         11.41          0.01          7.45
    34.67       2298.62         11.41          0.01          2.70
    34.68       2302.65         11.41          0.01         10.77
    34.69       2299.25         11.41          0.01          3.42
    34.70       2298.76         11.41          0.01          2.95
    34.71       2298.84         11.41          0.01          7.15
    34.72       2302.90         11.41          0.00          7.24
    34.73       2298.93         11.40          0.00          6.63
    34.74       2299.50         11.40          0.00          3.73
    34.75       2299.53         11.40          0.00          3.78
    34.76       2303.62         11.40          0.00         11.33
    34.77       2299.62         11.40          0.00          3.89
    34.78       2300.28         11.40          0.00          4.58
    34.79       2299.70         11.40          0.00          3.98
    34.80       2303.70         11.40          0.00          7.95
    34.81       2300.25         11.40          0.00          8.58
    34.82       2299.67         11.40          0.00          4.50
    34.83       2299.76         11.40          0.00          4.52
    34.84       2303.90         11.40         -0.00          8.70
    34.85       2303.46         11.40         -0.00          7.68
    34.86       2299.51         11.40         -0.00          3.74
    34.87       2299.57         11.39         -0.00          3.76
    34.88       2303.03         11.39         -0.00          6.56
    34.89       2302.97         11.40          0.00         10.37
    34.90       2299.43         11.40          0.00          3.32
    34.91       2298.83         11.40          0.00          2.66
    34.92       2302.83         11.40          0.00          6.61
    34.93       2303.35         11.40          0.00          6.61
    34.94       2299.29         11.40          0.00          2.63
    34.95       2299.18         11.40          0.00          2.57
    34.96       2299.67         11.40          0.01          3.12
    34.97       2303.02         11.40          0.01          6.52
    34.98       2298.93         11.40          0.01          2.46
    34.99       2299.53         11.40          0.01          3.12
    35.00       2298.96         11.40          0.00         -1.46
    35.01       2303.13         11.40          0.00          6.14
    35.02       2299.73         11.40          0.00          2.71
    35.03       2299.12         11.40          0.00          2.11
    35.04       2299.15         11.40          0.00          2.08
    35.05       2302.61         11.40          0.00          6.03
    35.06       2302.64         11.40          0.01          6.00
    35.07       2298.66         11.40          0.01          1.94
    35.08       2298.74         11.40          0.00          2.57
    35.09       2302.78         11.40          0.00          6.72
    35.10       2302.75         11.40          0.00          6.75
    35.11       2302.75         11.40          0.00          7.46
    35.12       2298.60         11.40          0.00          3.40
    35.13       2301.98         11.40          0.00          6.77
    35.14       2302.52         11.40          0.00          3.86
    35.15       2302.47         11.40          0.00          3.81
    35.16       2298.98         11.40          0.00          3.84
    35.17       2299.01         11.40          0.00          0.49
    35.18       2302.44         11.40          0.00          3.98
    35.19       2303.02         11.40          0.00          8.01
    35.20       2303.04         11.40          0.00          4.47
    35.21       2299.04         11.40          0.00          0.32
    35.22       2299.59         11.40          0.01          4.25
    35.23       2303.59         11.40          0.01          4.79
    35.24       2304.14         11.40          0.01          5.42
    35.25       2303.56         11.40          0.00          8.33
    35.26       2299.59         11.40          0.00          4.41
    35.27       2303.68         11.40          0.00          4.44
    35.28       2303.10         11.40          0.00          3.81
    35.29       2303.70         11.40          0.00          8.42
    35.30       2303.73         11.40          0.00          4.96
    35.31       2299.67         11.40          0.00          0.41
    35.32       2303.16         11.40         -0.00          8.12
    35.33       2303.24         11.40         -0.01          4.97
    35.34       2303.30         11.40         -0.01          4.67
    35.35       2302.80         11.40         -0.01          8.35
    35.36       2299.43         11.40         -0.02          1.64
    35.37       2303.44         11.40         -0.02          5.67
    35.38       2302.83         11.40         -0.02          5.04
