#Written by Robertson Geologging WinLogger V1.5/410
~VERSION INFORMATION
#------------------------------------------------------------------------------
 VERS. 2.0 : CWLS LOG ASCII STANDARD - VERSION 2.0
 WRAP. NO  : ONE LINE PER DEPTH STEP
~WELL INFORMATION
#MNEM.UNIT         DATA                                DESCRIPTION OF MNEMONIC
#------------------------------------------------------------------------------
 STRT.M          0.0100                            :   START DEPTH
 STOP.M        254.5000                            :   STOP DEPTH
 STEP.M          0.0100                            :   STEP VALUE
 NULL.        -999.2500                            :   NULL VALUE
 COMP.    I.W.S.                                   :   COMPANY NAME
 WELL.    MAINSFORTH SHAFT                         :   WELL NAME
 FLD.     N/A                                      :   FIELD NAME
 LOC.     N/A                                      :   LOCATION
 PROV.    N/A                                      :   PROVINCE
 SRVC.    N/A                                      :   SERVICE COMPANY NAME
 DATE.    02 Dec 11                                :   DATE
 UWI.     N/A                                      :   UNIQUE WELL IDENTIFIER
~PARAMETER INFORMATION
#MNEMO.UNIT         VALUE                 DESCRIPTION OF MNEMONIC
#------------------------------------------------------------------------------
~OTHER INFORMATION SECTION
#------------------------------------------------------------------------------
 1365 LOW
~CURVE INFORMATION
#MNEMO.UNIT         API CODE              CURVE DESCRIPTION
#------------------------------------------------------------------------------
 DEPTH.M                                 :   0     Depth
 COND.uS/cm                              :   1     Absolute Conductivity
 COND.uS/cm                              :   2     Conductivity@25DegC
 TEMP.DegC                               :   3     Temperature
#------------------------------------------------------------------------------
~A  DEPTH          COND          COND          TEMP
# ...
   235.63       3777.52       4847.37         13.96
   235.64       3780.89       4851.80         13.96
   235.65       3777.52       4847.58         13.96
   235.66       3777.52       4847.80         13.96
   235.67       3780.89       4852.40         13.96
   235.68       3777.52       4848.24         13.96
   235.69       3780.89       4852.61         13.96
   235.70       3780.89       4852.56         13.96
   235.71       3777.52       4848.13         13.96
   235.72       3780.89       4852.40         13.96
   235.73       3777.52       4848.02         13.96
   235.74       3780.89       4852.23         13.96
   235.75       3777.52       4847.80         13.96
   235.76       3777.52       4847.75         13.96
   235.77       3780.89       4852.12         13.96
   235.78       3777.52       4847.91         13.96
   235.79       3780.89       4852.29         13.96
   235.80       3777.52       4848.02         13.96
   235.81       3780.05       4851.32         13.96
   235.82       3780.89       4852.40         13.96
   235.83       3777.52       4848.07         13.96
   235.84       3780.89       4852.29         13.96
   235.85       3777.52       4847.80         13.96
   235.86       3780.89       4852.07         13.96
   235.87       3780.89       4852.01         13.96
   235.88       3777.52       4847.58         13.96
   235.89       3780.89       4851.74         13.96
   235.90       3777.52       4847.26         13.97
   235.91       3780.89       4851.42         13.97
   235.92       3777.52       4847.04         13.97
   235.93       3777.52       4846.99         13.97
   235.94       3780.89       4851.31         13.97
   235.95       3777.52       4847.15         13.97
   235.96       3780.89       4851.63         13.97
   235.97       3777.52       4847.37         13.96
   235.98       3777.52       4847.26         13.97
   235.99       3780.89       4851.42         13.97
   236.00       3777.52       4846.93         13.97
   236.01       3780.89       4851.36         13.97
   236.02       3778.36       4848.34         13.97
   236.03       3778.36       4848.45         13.96
   236.04       3780.89       4851.96         13.96
   236.05       3777.52       4847.80         13.96
   236.06       3780.89       4852.18         13.96
   236.07       3777.52       4847.91         13.96
   236.08       3780.89       4852.29         13.96
   236.09       3780.89       4852.50         13.96
   236.10       3778.36       4849.43         13.96
   236.11       3781.73       4853.97         13.96
   236.12       3778.36       4849.81         13.95
   236.13       3777.52       4848.73         13.95
   236.14       3780.89       4853.10         13.95
   236.15       3777.52       4848.73         13.95
   236.16       3780.89       4852.94         13.95
   236.17       3777.52       4848.40         13.96
   236.18       3780.89       4852.50         13.96
   236.19       3778.36       4848.99         13.96
   236.20       3778.36       4848.72         13.96
   236.21       3780.89       4851.96         13.96
   236.22       3777.52       4847.69         13.96
   236.23       3780.89       4851.96         13.96
   236.24       3780.89       4852.01         13.96
   236.25       3777.52       4847.53         13.96
   236.26       3780.89       4851.69         13.96
   236.27       3777.52       4847.26         13.97
   236.28       3780.89       4851.47         13.97
   236.29       3778.36       4848.18         13.97
   236.30       3777.52       4847.15         13.97
   236.31       3780.89       4851.63         13.97
   236.32       3777.52       4847.37         13.96
   236.33       3780.89       4851.69         13.96
   236.34       3777.52       4847.37         13.96
   236.35       3777.52       4847.20         13.97
   236.36       3780.89       4851.58         13.97
   236.37       3778.36       4848.39         13.97
   236.38       3778.36       4848.45         13.96
   236.39       3778.36       4848.61         13.96
   236.40       3777.52       4847.58         13.96
   236.41       3780.89       4851.91         13.96
   236.42       3777.52       4847.48         13.96
   236.43       3778.36       4848.34         13.97
   236.44       3778.36       4848.12         13.97
   236.45       3778.36       4847.96         13.97
   236.46       3781.73       4852.22         13.97
   236.47       3778.36       4847.79         13.97
   236.48       3780.89       4850.98         13.97
   236.49       3780.89       4850.93         13.97
   236.50       3777.52       4846.55         13.97
   236.51       3780.89       4851.04         13.97
   236.52       3778.36       4847.96         13.97
   236.53       3781.73       4852.44         13.97
   236.54       3780.89       4851.52         13.97
   236.55       3777.52       4847.31         13.97
   236.56       3780.89       4851.74         13.96
   236.57       3777.52       4847.58         13.96
   236.58       3780.89       4852.07         13.96
   236.59       3777.52       4847.69         13.96
   236.60       3780.89       4851.85         13.96
   236.61       3780.89       4851.58         13.97
   236.62       3777.52       4846.88         13.97
   236.63       3781.73       4852.01         13.97
   236.64       3778.37       4847.58         13.97
   236.65       3778.37       4847.52         13.97
   236.66       3781.73       4851.84         13.97
   236.67       3778.37       4847.58         13.97
   236.68       3781.73       4851.95         13.97
   236.69       3778.37       4847.69         13.97
   236.70       3781.73       4852.17         13.97
   236.71       3778.37       4848.07         13.97
   236.72       3781.73       4852.71         13.97
   236.73       3781.73       4852.88         13.96
   236.74       3777.52       4847.58         13.96
   236.75       3780.89       4851.80         13.96
   236.76       3780.89       4851.52         13.97
   236.77       3777.52       4847.04         13.97
   236.78       3780.89       4851.14         13.97
   236.79       3777.52       4846.71         13.97
   236.80       3780.89       4851.09         13.97
   236.81       3777.52       4846.88         13.97
   236.82       3780.89       4851.42         13.97
   236.83       3777.52       4847.26         13.97
   236.84       3777.52       4847.42         13.96
   236.85       3780.05       4850.83         13.96
   236.86       3776.68       4846.67         13.96
   236.87       3781.73       4853.37         13.96
   236.88       3781.73       4853.58         13.96
   236.89       3778.37       4849.48         13.96
   236.90       3781.73       4853.86         13.96
   236.91       3778.37       4849.59         13.96
   236.92       3781.73       4853.97         13.96
   236.93       3778.37       4849.59         13.96
   236.94       3781.73       4853.91         13.96
   236.95       3781.73       4853.86         13.96
   236.96       3778.37       4849.48         13.96
   236.97       3781.73       4853.80         13.96
   236.98       3776.68       4847.37         13.96
   236.99       3777.52       4848.56         13.96
   237.00       3780.89       4852.99         13.95
   237.01       3777.52       4848.73         13.95
   237.02       3780.89       4853.05         13.95
   237.03       3777.52       4848.56         13.96
   237.04       3780.89       4852.78         13.96
   237.05       3777.52       4848.29         13.96
   237.06       3777.52       4848.29         13.96
   237.07       3780.89       4852.67         13.96
   237.08       3778.36       4849.48         13.96
   237.09       3781.73       4853.91         13.96
   237.10       3780.89       4852.72         13.96
   237.11       3777.52       4848.18         13.96
   237.12       3780.89       4852.40         13.96
   237.13       3777.52       4847.86         13.96
   237.14       3780.89       4852.23         13.96
   237.15       3777.52       4848.07         13.96
   237.16       3778.36       4849.37         13.96
