#Written by Robertson Geologging WinLogger V1.5/410
~VERSION INFORMATION
#------------------------------------------------------------------------------
 VERS. 2.0 : CWLS LOG ASCII STANDARD - VERSION 2.0
 WRAP. NO  : ONE LINE PER DEPTH STEP
~WELL INFORMATION
#MNEM.UNIT         DATA                                DESCRIPTION OF MNEMONIC
#------------------------------------------------------------------------------
 STRT.M          0.0100                            :   START DEPTH
 STOP.M        254.5000                            :   STOP DEPTH
 STEP.M          0.0100                            :   STEP VALUE
 NULL.        -999.2500                            :   NULL VALUE
 COMP.    I.W.S.                                   :   COMPANY NAME
 WELL.    MAINSFORTH SHAFT                         :   WELL NAME
 FLD.     N/A                                      :   FIELD NAME
 LOC.     N/A                                      :   LOCATION
 PROV.    N/A                                      :   PROVINCE
 SRVC.    N/A                                      :   SERVICE COMPANY NAME
 DATE.    02 Dec 11                                :   DATE
 UWI.     N/A                                      :   UNIQUE WELL IDENTIFIER
~PARAMETER INFORMATION
#MNEMO.UNIT         VALUE                 DESCRIPTION OF MNEMONIC
#------------------------------------------------------------------------------
~OTHER INFORMATION SECTION
#------------------------------------------------------------------------------
 1365 LOW
~CURVE INFORMATION
#MNEMO.UNIT         API CODE              CURVE DESCRIPTION
#------------------------------------------------------------------------------
 DEPTH.M                                 :   0     Depth
 COND.uS/cm                              :   1     Absolute Conductivity
 COND.uS/cm                              :   2     Conductivity@25DegC
 TEMP.DegC                               :   3     Temperature
#------------------------------------------------------------------------------
~A  DEPTH          COND          COND          TEMP
# ...
   184.81       2616.15       3504.81         12.32
   184.82       2616.15       3504.89         12.32
   184.83       2612.79       3500.39         12.32
   184.84       2611.95       3499.35         12.32
   184.85       2611.95       3499.35         12.32
   184.86       2612.79       3500.47         12.32
   184.87       2612.79       3500.60         12.32
   184.88       2615.31       3504.01         12.32
   184.89       2616.15       3505.22         12.32
   184.90       2616.15       3505.30         12.32
   184.91       2612.79       3500.84         12.32
   184.92       2611.95       3499.68         12.32
   184.93       2611.95       3499.63         12.32
   184.94       2612.79       3500.68         12.32
   184.95       2616.15       3505.10         12.32
   184.96       2616.15       3505.10         12.32
   184.97       2615.31       3504.01         12.32
   184.98       2616.15       3505.10         12.32
   184.99       2612.79       3500.56         12.32
   185.00       2611.95       3499.31         12.32
   185.01       2611.95       3499.22         12.32
   185.02       2612.79       3500.27         12.32
   185.03       2616.15       3504.77         12.32
   185.04       2616.15       3504.89         12.32
   185.05       2615.31       3503.81         12.32
   185.06       2612.79       3500.47         12.32
   185.07       2612.79       3500.51         12.32
   185.08       2612.79       3500.56         12.32
   185.09       2611.95       3499.55         12.32
   185.10       2612.79       3500.80         12.32
   185.11       2616.15       3505.47         12.32
   185.12       2616.15       3505.55         12.31
   185.13       2616.15       3505.63         12.31
   185.14       2612.79       3501.17         12.31
   185.15       2612.79       3501.09         12.31
   185.16       2612.79       3501.05         12.31
   185.17       2612.79       3501.01         12.31
   185.18       2616.15       3505.59         12.31
   185.19       2616.15       3505.55         12.31
   185.20       2616.99       3506.55         12.32
   185.21       2616.15       3505.39         12.32
   185.22       2612.79       3500.80         12.32
   185.23       2612.79       3500.72         12.32
   185.24       2612.79       3500.60         12.32
   185.25       2612.79       3500.43         12.32
   185.26       2616.15       3504.77         12.32
   185.27       2616.99       3505.85         12.32
   185.28       2616.15       3504.73         12.32
   185.29       2612.79       3500.15         12.32
   185.30       2612.79       3500.02         12.33
   185.31       2612.79       3499.94         12.33
   185.32       2612.79       3499.86         12.33
   185.33       2616.15       3504.32         12.33
   185.34       2612.79       3499.86         12.33
   185.35       2615.31       3503.32         12.33
   185.36       2615.31       3503.44         12.32
   185.37       2611.95       3499.02         12.32
   185.38       2611.95       3499.06         12.32
   185.39       2611.95       3499.02         12.32
   185.40       2611.95       3499.02         12.32
   185.41       2615.31       3503.69         12.32
   185.42       2615.31       3503.93         12.32
   185.43       2615.31       3504.10         12.32
   185.44       2611.95       3499.68         12.32
   185.45       2615.31       3504.22         12.32
   185.46       2612.79       3500.88         12.32
   185.47       2612.79       3500.84         12.32
   185.48       2612.79       3500.84         12.32
   185.49       2615.31       3504.26         12.32
   185.50       2616.15       3505.47         12.32
   185.51       2616.15       3505.59         12.31
   185.52       2612.79       3501.09         12.31
   185.53       2611.95       3499.88         12.31
   185.54       2611.95       3499.88         12.31
   185.55       2612.79       3500.97         12.32
   185.56       2616.15       3505.47         12.32
   185.57       2615.31       3504.22         12.32
   185.58       2615.31       3504.06         12.32
   185.59       2615.31       3503.93         12.32
   185.60       2612.79       3500.43         12.32
   185.61       2611.95       3499.18         12.32
   185.62       2611.95       3499.06         12.32
   185.63       2615.31       3503.52         12.32
   185.64       2616.15       3504.57         12.32
   185.65       2616.15       3504.44         12.33
   185.66       2615.31       3503.11         12.33
   185.67       2611.95       3498.49         12.33
   185.68       2611.95       3498.57         12.33
   185.69       2612.79       3499.90         12.33
   185.70       2616.15       3504.65         12.32
   185.71       2615.31       3503.64         12.32
   185.72       2615.31       3503.73         12.32
   185.73       2616.15       3504.89         12.32
   185.74       2612.79       3500.39         12.32
   185.75       2611.95       3499.27         12.32
   185.76       2611.95       3499.35         12.32
   185.77       2612.79       3500.56         12.32
   185.78       2616.15       3505.06         12.32
   185.79       2616.15       3505.06         12.32
   185.80       2615.31       3503.89         12.32
   185.81       2612.79       3500.43         12.32
   185.82       2612.79       3500.39         12.32
   185.83       2612.79       3500.31         12.32
   185.84       2615.31       3503.52         12.32
   185.85       2615.31       3503.40         12.33
   185.86       2616.15       3504.48         12.33
   185.87       2616.15       3504.36         12.33
   185.88       2615.31       3503.32         12.33
   185.89       2611.95       3498.90         12.33
   185.90       2612.79       3499.94         12.33
   185.91       2612.79       3499.90         12.33
   185.92       2615.31       3503.19         12.33
   185.93       2615.31       3503.19         12.33
   185.94       2616.15       3504.40         12.33
   185.95       2612.79       3500.02         12.33
   185.96       2612.79       3500.10         12.32
   185.97       2611.95       3498.98         12.32
   185.98       2612.79       3500.10         12.32
   185.99       2616.15       3504.52         12.33
   186.00       2616.15       3504.36         12.33
   186.01       2616.15       3504.24         12.33
   186.02       2616.15       3504.11         12.33
   186.03       2612.79       3499.57         12.33
   186.04       2612.79       3499.53         12.33
   186.05       2612.79       3499.45         12.33
   186.06       2612.79       3499.28         12.33
   186.07       2616.15       3503.62         12.33
   186.08       2616.99       3504.62         12.34
   186.09       2616.15       3503.50         12.34
   186.10       2612.79       3499.12         12.33
   186.11       2612.79       3499.28         12.33
   186.12       2611.95       3498.36         12.33
   186.13       2612.79       3499.57         12.33
   186.14       2616.15       3504.07         12.33
   186.15       2616.15       3504.11         12.33
   186.16       2616.15       3504.15         12.33
   186.17       2616.15       3504.24         12.33
   186.18       2612.79       3499.90         12.33
   186.19       2611.95       3498.86         12.33
   186.20       2612.79       3499.98         12.33
   186.21       2612.79       3499.90         12.33
   186.22       2616.15       3504.28         12.33
   186.23       2616.99       3505.28         12.33
   186.24       2616.15       3504.07         12.33
   186.25       2612.79       3499.57         12.33
   186.26       2612.79       3499.49         12.33
   186.27       2612.79       3499.41         12.33
   186.28       2612.79       3499.41         12.33
   186.29       2616.15       3503.91         12.33
   186.30       2616.15       3503.95         12.33
   186.31       2616.15       3503.99         12.33
   186.32       2616.15       3504.03         12.33
   186.33       2612.79       3499.53         12.33
   186.34       2611.95       3498.45         12.33
