#Written by Robertson Geologging WinLogger V1.5/410
~VERSION INFORMATION
#------------------------------------------------------------------------------
 VERS. 2.0 : CWLS LOG ASCII STANDARD - VERSION 2.0
 WRAP. NO  : ONE LINE PER DEPTH STEP
~WELL INFORMATION
#MNEM.UNIT         DATA                                DESCRIPTION OF MNEMONIC
#------------------------------------------------------------------------------
 STRT.M          0.0600                            :   START DEPTH
 STOP.M        264.8300                            :   STOP DEPTH
 STEP.M          0.0100                            :   STEP VALUE
 NULL.        -999.2500                            :   NULL VALUE
 COMP.    Coal Authority                           :   COMPANY NAME
 WELL.    Mainsforth Shaft                         :   WELL NAME
 FLD.     N/A                                      :   FIELD NAME
 LOC.     N/A                                      :   LOCATION
 PROV.    N/A                                      :   PROVINCE
 SRVC.    N/A                                      :   SERVICE COMPANY NAME
 DATE.    16 Dec 08                                :   DATE
 UWI.     N/A                                      :   UNIQUE WELL IDENTIFIER
~PARAMETER INFORMATION
#MNEMO.UNIT         VALUE                 DESCRIPTION OF MNEMONIC
#------------------------------------------------------------------------------
~OTHER INFORMATION SECTION
#------------------------------------------------------------------------------
 TCDS 1365
 16,12,2008
~CURVE INFORMATION
#MNEMO.UNIT         API CODE              CURVE DESCRIPTION
#------------------------------------------------------------------------------
 DEPTH.M                                 :   0     Depth
 TEMP.DegC                               :   1     Temperature
 COND.uS/cm                              :   2     Absolute Conductivity
 COND.uS/cm                              :   3     Conductivity@25DegC
 DELT.DegC                               :   4     Delta T
 DELC.uS/cm                              :   5     Delta C
 NGAM.CPS                                :   6     Natural Gamma
#------------------------------------------------------------------------------
~A  DEPTH          TEMP          COND          COND          DELT          DELC          NGAM
# ...
   123.04         12.28       2787.55       3738.27          0.01          3.54          0.41
   123.05         12.29       2786.22       3736.31          0.01         -0.97          0.82
   123.06         12.29       2784.45       3733.98          0.01         -1.14          0.82
   123.07         12.28       2783.12       3732.24          0.01         -4.84          0.82
   123.08         12.28       2786.22       3736.49          0.01          0.92          0.82
   123.09         12.28       2786.22       3736.66          0.01          1.01          0.82
   123.10         12.28       2786.22       3736.66          0.01          3.35          0.82
   123.11         12.28       2786.22       3736.80          0.01          1.14          0.41
   123.12         12.28       2786.22       3736.80          0.01         -0.60          0.82
   123.13         12.28       2784.45       3734.51          0.01         -1.19          0.82
   123.14         12.28       2783.12       3732.68          0.01         -4.84          0.82
   123.15         12.28       2784.45       3734.42          0.01         -1.41          0.82
   123.16         12.28       2784.45       3734.51          0.01          1.15          0.82
   123.17         12.28       2787.55       3738.58          0.01          1.28          0.82
   123.18         12.28       2787.55       3738.49          0.01          3.19          0.82
   123.19         12.28       2784.45       3734.24          0.01         -2.57          0.82
   123.20         12.28       2787.55       3738.27          0.01          5.75          0.82
   123.21         12.28       2784.45       3734.07          0.01         -0.74          0.82
   123.22         12.29       2784.45       3733.98          0.01         -2.61          0.41
   123.23         12.28       2784.45       3734.03          0.01         -0.74          0.41
   123.24         12.28       2786.22       3736.40          0.01         -0.06          0.41
   123.25         12.28       2787.55       3738.32          0.00          6.14          0.41
   123.26         12.28       2784.45       3734.38         -0.00          0.68          0.41
   123.27         12.28       2784.45       3734.56         -0.00         -1.38          0.41
   123.28         12.28       2784.45       3734.69         -0.01         -1.25          0.41
   123.29         12.28       2784.45       3734.82         -0.01         -1.12          0.00
   123.30         12.28       2787.55       3739.02         -0.01          7.07          0.00
   123.31         12.28       2785.78       3736.64         -0.00          0.40          0.00
   123.32         12.28       2787.55       3739.06         -0.00          2.82          0.00
   123.33         12.28       2785.78       3736.69         -0.00          0.40          0.00
   123.34         12.28       2785.78       3736.69         -0.00          2.73          0.00
   123.35         12.28       2785.78       3736.64         -0.00          4.51          0.00
   123.36         12.28       2785.78       3736.51         -0.00          0.13          0.00
   123.37         12.28       2787.55       3738.75          0.00          4.03          0.00
   123.38         12.28       2788.88       3740.36          0.00          3.76          0.00
   123.39         12.28       2785.78       3736.20          0.01          3.63          0.00
   123.40         12.28       2787.11       3738.03          0.01          1.12          0.00
   123.41         12.28       2787.11       3738.03          0.01          1.08          0.00
   123.42         12.28       2785.78       3736.25          0.01          1.08          0.00
   123.43         12.28       2784.01       3733.78          0.01         -3.26          0.00
   123.44         12.28       2787.11       3737.77          0.01          2.51          0.00
   123.45         12.28       2785.78       3735.81          0.01         -3.66          0.00
   123.46         12.29       2787.11       3737.55          0.01         -2.00          0.00
   123.47         12.29       2785.78       3735.76          0.01          0.33          0.35
   123.48         12.28       2787.11       3737.59          0.01          2.07          0.35
   123.49         12.28       2785.78       3735.85          0.01          0.33          0.35
   123.50         12.28       2785.78       3735.85          0.01         -3.79          0.35
   123.51         12.29       2785.78       3735.76          0.01          2.75          0.35
   123.52         12.29       2784.45       3733.98          0.01         -1.27          0.35
   123.53         12.29       2785.78       3735.72          0.01         -1.28          0.35
   123.54         12.29       2785.78       3735.72          0.01         -1.23          0.35
   123.55         12.29       2787.55       3738.14          0.01          1.24          0.35
   123.56         12.29       2785.78       3735.72          0.01         -1.14          0.35
   123.57         12.29       2785.78       3735.63          0.01          1.10          0.35
   123.58         12.29       2787.11       3737.24          0.01          0.34          0.35
   123.59         12.29       2785.78       3735.28          0.02         -3.54          0.35
   123.60         12.29       2784.01       3732.86          0.02         -6.05          0.35
   123.61         12.29       2787.11       3737.07          0.02         -0.10          0.35
   123.62         12.29       2785.78       3735.37          0.02         -1.89          0.35
   123.63         12.29       2787.11       3737.11          0.02         -1.89          0.35
   123.64         12.29       2784.01       3732.82          0.02         -4.35          0.00
   123.65         12.29       2788.88       3739.14          0.02          1.97          0.00
   123.66         12.29       2784.01       3732.51          0.02         -2.33          0.00
   123.67         12.29       2785.78       3734.93          0.02          0.09          0.35
   123.68         12.29       2785.78       3735.02          0.02         -2.19          0.35
   123.69         12.29       2784.45       3733.41          0.02         -5.54          0.35
   123.70         12.29       2785.78       3735.33          0.02          0.80          0.35
   123.71         12.29       2785.78       3735.33          0.01         -1.41          0.35
   123.72         12.29       2787.55       3737.57          0.01          3.35          0.35
   123.73         12.29       2785.78       3735.07          0.01         -3.14          0.35
   123.74         12.29       2784.45       3733.20          0.01         -3.19          0.35
   123.75         12.29       2787.55       3737.40          0.01         -0.77          0.35
   123.76         12.29       2784.45       3733.37          0.01         -2.93          0.35
   123.77         12.29       2787.55       3737.57          0.01          1.45          0.35
   123.78         12.29       2787.55       3737.57          0.01          3.32          0.35
   123.79         12.29       2787.55       3737.53          0.01          1.58          0.35
   123.80         12.29       2785.78       3735.11          0.01         -0.75          0.35
   123.81         12.29       2784.45       3733.28          0.01         -5.13          0.35
   123.82         12.29       2787.55       3737.39          0.01          5.39          0.35
   123.83         12.29       2785.78       3735.02          0.01          0.60          0.35
   123.84         12.29       2787.55       3737.35          0.01          0.55          0.00
   123.85         12.29       2785.78       3735.02          0.01          0.72          0.00
   123.86         12.29       2785.78       3735.15          0.01          2.90          0.00
   123.87         12.29       2785.78       3735.28          0.00          1.47          0.00
   123.88         12.29       2785.78       3735.37          0.00         -2.47          0.00
   123.89         12.29       2787.11       3737.24         -0.00         -0.51          0.00
