#Written by Robertson Geologging WinLogger V1.5/410
~VERSION INFORMATION
#------------------------------------------------------------------------------
 VERS. 2.0 : CWLS LOG ASCII STANDARD - VERSION 2.0
 WRAP. NO  : ONE LINE PER DEPTH STEP
~WELL INFORMATION
#MNEM.UNIT         DATA                                DESCRIPTION OF MNEMONIC
#------------------------------------------------------------------------------
 STRT.M          0.0100                            :   START DEPTH
 STOP.M        254.5000                            :   STOP DEPTH
 STEP.M          0.0100                            :   STEP VALUE
 NULL.        -999.2500                            :   NULL VALUE
 COMP.    I.W.S.                                   :   COMPANY NAME
 WELL.    MAINSFORTH SHAFT                         :   WELL NAME
 FLD.     N/A                                      :   FIELD NAME
 LOC.     N/A                                      :   LOCATION
 PROV.    N/A                                      :   PROVINCE
 SRVC.    N/A                                      :   SERVICE COMPANY NAME
 DATE.    02 Dec 11                                :   DATE
 UWI.     N/A                                      :   UNIQUE WELL IDENTIFIER
~PARAMETER INFORMATION
#MNEMO.UNIT         VALUE                 DESCRIPTION OF MNEMONIC
#------------------------------------------------------------------------------
~OTHER INFORMATION SECTION
#------------------------------------------------------------------------------
 1365 LOW
~CURVE INFORMATION
#MNEMO.UNIT         API CODE              CURVE DESCRIPTION
#------------------------------------------------------------------------------
 DEPTH.M                                 :   0     Depth
 COND.uS/cm                              :   1     Absolute Conductivity
 COND.uS/cm                              :   2     Conductivity@25DegC
 TEMP.DegC                               :   3     Temperature
#------------------------------------------------------------------------------
~A  DEPTH          COND          COND          TEMP
# ...
    33.89       1563.59       2169.00         11.04
    33.90       1564.85       2170.67         11.05
    33.91       1563.59       2168.98         11.04
    33.92       1564.85       2170.80         11.04
    33.93       1564.85       2170.88         11.04
    33.94       1563.59       2169.21         11.04
    33.95       1564.85       2170.98         11.04
    33.96       1567.78       2175.06         11.04
    33.97       1561.49       2166.30         11.04
    33.98       1565.69       2172.09         11.04
    33.99       1564.43       2170.35         11.04
    34.00       1565.69       2172.09         11.04
    34.01       1564.43       2170.45         11.04
    34.02       1565.69       2172.28         11.04
    34.03       1564.43       2170.59         11.04
    34.04       1564.43       2170.61         11.04
    34.05       1565.69       2172.30         11.04
    34.06       1568.62       2176.35         11.04
    34.07       1564.43       2170.51         11.04
    34.08       1567.78       2175.11         11.04
    34.09       1563.59       2169.29         11.04
    34.10       1563.59       2169.26         11.04
    34.11       1563.59       2169.24         11.04
    34.12       1563.59       2169.19         11.04
    34.13       1566.53       2173.18         11.04
    34.14       1564.43       2170.16         11.04
    34.15       1568.62       2175.88         11.05
    34.16       1567.36       2174.13         11.05
    34.17       1564.43       2170.01         11.05
    34.18       1564.43       2169.98         11.05
    34.19       1564.43       2170.01         11.05
    34.20       1564.43       2169.90         11.05
    34.21       1564.43       2169.90         11.05
    34.22       1564.43       2169.90         11.05
    34.23       1568.62       2175.72         11.05
    34.24       1564.43       2170.01         11.05
    34.25       1567.78       2174.77         11.04
    34.26       1563.59       2169.11         11.04
    34.27       1563.59       2169.19         11.04
    34.28       1563.59       2169.26         11.04
    34.29       1563.59       2169.37         11.04
    34.30       1563.59       2169.47         11.04
    34.31       1563.59       2169.66         11.03
    34.32       1567.78       2175.61         11.03
    34.33       1567.78       2175.74         11.03
    34.34       1563.59       2169.92         11.03
    34.35       1563.59       2169.82         11.03
    34.36       1563.59       2169.74         11.03
    34.37       1563.59       2169.55         11.03
    34.38       1563.59       2169.47         11.04
    34.39       1563.59       2169.42         11.04
    34.40       1567.78       2175.11         11.04
    34.41       1567.78       2175.03         11.04
    34.42       1567.78       2174.98         11.04
    34.43       1563.59       2169.13         11.04
    34.44       1563.59       2169.08         11.04
    34.45       1563.59       2169.11         11.04
    34.46       1563.59       2169.16         11.04
    34.47       1563.59       2169.19         11.04
    34.48       1567.78       2175.13         11.04
    34.49       1565.69       2172.30         11.04
    34.50       1568.62       2176.43         11.04
    34.51       1564.43       2170.72         11.03
    34.52       1564.43       2170.77         11.03
    34.53       1564.43       2170.77         11.03
    34.54       1564.43       2170.77         11.03
    34.55       1564.43       2170.74         11.03
    34.56       1564.43       2170.77         11.03
    34.57       1568.62       2176.59         11.03
    34.58       1568.62       2176.56         11.03
    34.59       1564.43       2170.72         11.03
    34.60       1567.78       2175.29         11.04
    34.61       1563.59       2169.47         11.04
    34.62       1563.59       2169.50         11.04
    34.63       1563.59       2169.50         11.04
    34.64       1563.59       2169.58         11.03
    34.65       1564.85       2171.30         11.03
    34.66       1563.59       2169.50         11.04
    34.67       1567.78       2175.27         11.04
    34.68       1564.85       2171.11         11.04
    34.69       1563.59       2169.40         11.04
    34.70       1563.59       2169.42         11.04
    34.71       1563.59       2169.45         11.04
    34.72       1563.59       2169.45         11.04
    34.73       1563.59       2169.37         11.04
    34.74       1563.59       2169.29         11.04
    34.75       1567.78       2174.98         11.04
    34.76       1567.78       2174.90         11.04
    34.77       1567.78       2174.82         11.04
    34.78       1563.59       2168.92         11.05
    34.79       1563.59       2168.90         11.05
    34.80       1563.59       2168.82         11.05
    34.81       1563.59       2168.79         11.05
    34.82       1563.59       2168.79         11.05
    34.83       1567.78       2174.66         11.05
    34.84       1565.69       2171.83         11.05
    34.85       1568.62       2175.96         11.04
    34.86       1564.43       2170.24         11.04
    34.87       1564.43       2170.32         11.04
    34.88       1564.43       2170.51         11.04
    34.89       1565.69       2172.38         11.04
    34.90       1564.43       2170.72         11.03
    34.91       1564.43       2170.80         11.03
    34.92       1565.69       2172.49         11.03
    34.93       1568.62       2176.54         11.03
    34.94       1562.33       2167.78         11.04
    34.95       1568.62       2176.48         11.04
    34.96       1564.43       2170.69         11.04
    34.97       1565.69       2172.38         11.04
    34.98       1564.43       2170.61         11.04
    34.99       1565.69       2172.28         11.04
    35.00       1564.43       2170.48         11.04
    35.01       1564.43       2170.45         11.04
    35.02       1565.69       2172.20         11.04
    35.03       1568.62       2176.30         11.04
    35.04       1564.43       2170.45         11.04
    35.05       1567.78       2175.00         11.04
    35.06       1563.59       2169.03         11.04
    35.07       1564.85       2170.59         11.05
    35.08       1563.59       2168.74         11.05
    35.09       1563.59       2168.71         11.05
    35.10       1563.59       2168.74         11.05
    35.11       1567.78       2174.61         11.05
    35.12       1565.69       2171.78         11.05
    35.13       1568.62       2175.90         11.05
    35.14       1564.43       2170.11         11.04
    35.15       1565.69       2171.91         11.04
    35.16       1564.43       2170.22         11.04
    35.17       1564.43       2170.32         11.04
    35.18       1564.43       2170.51         11.04
    35.19       1564.43       2170.67         11.04
    35.20       1565.69       2172.49         11.03
    35.21       1568.62       2176.59         11.03
    35.22       1564.43       2170.77         11.03
    35.23       1567.78       2175.40         11.03
    35.24       1563.59       2169.55         11.03
    35.25       1563.59       2169.55         11.03
    35.26       1563.59       2169.55         11.03
    35.27       1563.59       2169.58         11.03
    35.28       1564.85       2171.33         11.03
    35.29       1563.59       2169.50         11.04
    35.30       1567.78       2175.21         11.04
    35.31       1567.78       2175.06         11.04
    35.32       1563.59       2169.16         11.04
    35.33       1563.59       2169.11         11.04
    35.34       1563.59       2169.08         11.04
    35.35       1563.59       2169.05         11.04
    35.36       1564.85       2170.77         11.04
    35.37       1563.59       2169.03         11.04
    35.38       1567.78       2174.84         11.04
    35.39       1567.78       2174.87         11.04
    35.40       1567.78       2174.98         11.04
    35.41       1564.85       2170.98         11.04
    35.42       1563.59       2169.40         11.04
