#Written by Robertson Geologging WinLogger V1.5/410
~VERSION INFORMATION
#------------------------------------------------------------------------------
 VERS. 2.0 : CWLS LOG ASCII STANDARD - VERSION 2.0
 WRAP. NO  : ONE LINE PER DEPTH STEP
~WELL INFORMATION
#MNEM.UNIT         DATA                                DESCRIPTION OF MNEMONIC
#------------------------------------------------------------------------------
 STRT.M          0.0100                            :   START DEPTH
 STOP.M        254.5000                            :   STOP DEPTH
 STEP.M          0.0100                            :   STEP VALUE
 NULL.        -999.2500                            :   NULL VALUE
 COMP.    I.W.S.                                   :   COMPANY NAME
 WELL.    MAINSFORTH SHAFT                         :   WELL NAME
 FLD.     N/A                                      :   FIELD NAME
 LOC.     N/A                                      :   LOCATION
 PROV.    N/A                                      :   PROVINCE
 SRVC.    N/A                                      :   SERVICE COMPANY NAME
 DATE.    02 Dec 11                                :   DATE
 UWI.     N/A                                      :   UNIQUE WELL IDENTIFIER
~PARAMETER INFORMATION
#MNEMO.UNIT         VALUE                 DESCRIPTION OF MNEMONIC
#------------------------------------------------------------------------------
~OTHER INFORMATION SECTION
#------------------------------------------------------------------------------
 1365 LOW
~CURVE INFORMATION
#MNEMO.UNIT         API CODE              CURVE DESCRIPTION
#------------------------------------------------------------------------------
 DEPTH.M                                 :   0     Depth
 COND.uS/cm                              :   1     Absolute Conductivity
 COND.uS/cm                              :   2     Conductivity@25DegC
 TEMP.DegC                               :   3     Temperature
#------------------------------------------------------------------------------
~A  DEPTH          COND          COND          TEMP
# ...
    50.83       1566.11       2171.41         11.06
    50.84       1564.85       2169.62         11.06
    50.85       1566.11       2171.33         11.06
    50.86       1569.04       2175.40         11.06
    50.87       1570.30       2177.23         11.06
    50.88       1569.04       2175.61         11.06
    50.89       1566.11       2171.68         11.06
    50.90       1564.85       2169.98         11.06
    50.91       1566.11       2171.75         11.06
    50.92       1564.85       2170.06         11.06
    50.93       1566.11       2171.83         11.05
    50.94       1569.04       2175.98         11.05
    50.95       1570.30       2177.78         11.05
    50.96       1569.04       2176.01         11.05
    50.97       1566.11       2171.91         11.05
    50.98       1564.85       2170.17         11.05
    50.99       1566.11       2171.94         11.05
    51.00       1564.85       2170.22         11.05
    51.01       1566.11       2172.10         11.05
    51.02       1569.04       2176.22         11.05
    51.03       1570.30       2177.96         11.05
    51.04       1569.04       2176.27         11.05
    51.05       1566.11       2172.20         11.05
    51.06       1564.85       2170.48         11.05
    51.07       1566.11       2172.31         11.05
    51.08       1564.85       2170.61         11.05
    51.09       1569.04       2176.43         11.05
    51.10       1569.04       2176.38         11.05
    51.11       1569.04       2176.33         11.05
    51.12       1569.04       2176.25         11.05
    51.13       1564.85       2170.38         11.05
    51.14       1564.85       2170.38         11.05
    51.15       1564.85       2170.33         11.05
    51.16       1564.85       2170.30         11.05
    51.17       1569.04       2176.06         11.05
    51.18       1569.04       2176.01         11.05
    51.19       1569.04       2176.01         11.05
    51.20       1566.11       2171.91         11.05
    51.21       1564.85       2170.19         11.05
    51.22       1566.11       2171.96         11.05
    51.23       1564.85       2170.19         11.05
    51.24       1566.11       2171.91         11.05
    51.25       1569.04       2175.98         11.05
    51.26       1569.04       2175.98         11.05
    51.27       1569.04       2175.98         11.05
    51.28       1564.85       2170.17         11.05
    51.29       1564.85       2170.14         11.05
    51.30       1564.85       2170.06         11.06
    51.31       1564.85       2170.04         11.06
    51.32       1569.04       2175.80         11.06
    51.33       1569.04       2175.75         11.06
    51.34       1569.04       2175.77         11.06
    51.35       1569.04       2175.85         11.06
    51.36       1564.85       2170.11         11.05
    51.37       1566.11       2171.94         11.05
    51.38       1564.85       2170.19         11.05
    51.39       1566.11       2171.91         11.05
    51.40       1569.04       2175.96         11.05
    51.41       1570.30       2177.73         11.05
    51.42       1569.04       2176.04         11.05
    51.43       1566.11       2172.04         11.05
    51.44       1564.85       2170.43         11.05
    51.45       1566.11       2172.18         11.05
    51.46       1566.11       2172.15         11.05
    51.47       1566.11       2172.07         11.05
    51.48       1566.11       2171.96         11.05
    51.49       1570.30       2177.78         11.05
    51.50       1570.30       2177.81         11.05
    51.51       1566.11       2172.04         11.05
    51.52       1566.11       2172.12         11.05
    51.53       1566.11       2172.12         11.05
    51.54       1566.11       2172.12         11.05
    51.55       1566.11       2172.10         11.05
    51.56       1566.11       2172.10         11.05
    51.57       1569.04       2176.17         11.05
    51.58       1570.30       2177.89         11.05
    51.59       1569.04       2176.09         11.05
    51.60       1566.11       2171.91         11.05
    51.61       1564.85       2170.11         11.05
    51.62       1566.11       2171.81         11.06
    51.63       1564.85       2169.96         11.06
    51.64       1566.11       2171.62         11.06
    51.65       1566.11       2171.57         11.06
    51.66       1570.30       2177.28         11.06
    51.67       1570.30       2177.23         11.06
    51.68       1566.11       2171.39         11.06
    51.69       1566.11       2171.39         11.06
    51.70       1566.11       2171.49         11.06
    51.71       1566.11       2171.62         11.06
    51.72       1566.11       2171.68         11.06
    51.73       1566.11       2171.70         11.06
    51.74       1570.30       2177.52         11.06
    51.75       1570.30       2177.57         11.06
    51.76       1569.04       2175.88         11.06
    51.77       1566.11       2171.89         11.05
    51.78       1564.85       2170.25         11.05
    51.79       1566.11       2171.99         11.05
    51.80       1564.85       2170.30         11.05
    51.81       1566.11       2172.04         11.05
    51.82       1566.11       2172.04         11.05
    51.83       1570.30       2177.89         11.05
    51.84       1570.30       2177.94         11.05
    51.85       1566.11       2172.18         11.05
    51.86       1566.11       2172.20         11.05
    51.87       1566.11       2172.23         11.05
    51.88       1566.11       2172.25         11.05
    51.89       1566.11       2172.20         11.05
    51.90       1566.11       2172.20         11.05
    51.91       1570.30       2177.94         11.05
    51.92       1570.30       2177.81         11.05
    51.93       1569.04       2176.01         11.05
    51.94       1566.11       2171.86         11.05
    51.95       1566.11       2171.81         11.06
    51.96       1566.11       2171.78         11.06
    51.97       1566.11       2171.70         11.06
    51.98       1566.11       2171.60         11.06
    51.99       1566.11       2171.46         11.06
    52.00       1570.30       2177.20         11.06
    52.01       1569.04       2175.40         11.06
    52.02       1566.11       2171.33         11.06
    52.03       1566.11       2171.41         11.06
    52.04       1566.11       2171.46         11.06
    52.05       1564.85       2169.77         11.06
    52.06       1564.85       2169.77         11.06
    52.07       1569.04       2175.61         11.06
    52.08       1569.04       2175.64         11.06
    52.09       1569.04       2175.69         11.06
    52.10       1569.04       2175.82         11.06
    52.11       1564.85       2170.14         11.05
    52.12       1566.11       2171.99         11.05
    52.13       1564.85       2170.33         11.05
    52.14       1564.85       2170.40         11.05
    52.15       1569.04       2176.19         11.05
    52.16       1570.30       2177.96         11.05
    52.17       1569.04       2176.30         11.05
    52.18       1566.11       2172.20         11.05
    52.19       1564.85       2170.51         11.05
    52.20       1566.11       2172.25         11.05
    52.21       1564.85       2170.43         11.05
    52.22       1566.11       2172.12         11.05
    52.23       1569.04       2176.17         11.05
    52.24       1569.04       2176.17         11.05
    52.25       1569.04       2176.17         11.05
    52.26       1566.11       2172.12         11.05
    52.27       1564.85       2170.35         11.05
    52.28       1564.85       2170.25         11.05
    52.29       1564.85       2170.22         11.05
    52.30       1569.04       2175.96         11.05
    52.31       1569.04       2175.93         11.05
    52.32       1569.04       2175.93         11.05
    52.33       1569.04       2175.88         11.06
    52.34       1564.85       2170.01         11.06
    52.35       1566.11       2171.70         11.06
    52.36       1564.85       2169.93         11.06
