#Written by Robertson Geologging WinLogger V1.5/410
~VERSION INFORMATION
#------------------------------------------------------------------------------
 VERS. 2.0 : CWLS LOG ASCII STANDARD - VERSION 2.0
 WRAP. NO  : ONE LINE PER DEPTH STEP
~WELL INFORMATION
#MNEM.UNIT         DATA                                DESCRIPTION OF MNEMONIC
#------------------------------------------------------------------------------
 STRT.M          0.0600                            :   START DEPTH
 STOP.M        264.8300                            :   STOP DEPTH
 STEP.M          0.0100                            :   STEP VALUE
 NULL.        -999.2500                            :   NULL VALUE
 COMP.    Coal Authority                           :   COMPANY NAME
 WELL.    Mainsforth Shaft                         :   WELL NAME
 FLD.     N/A                                      :   FIELD NAME
 LOC.     N/A                                      :   LOCATION
 PROV.    N/A                                      :   PROVINCE
 SRVC.    N/A                                      :   SERVICE COMPANY NAME
 DATE.    16 Dec 08                                :   DATE
 UWI.     N/A                                      :   UNIQUE WELL IDENTIFIER
~PARAMETER INFORMATION
#MNEMO.UNIT         VALUE                 DESCRIPTION OF MNEMONIC
#------------------------------------------------------------------------------
~OTHER INFORMATION SECTION
#------------------------------------------------------------------------------
 TCDS 1365
 16,12,2008
~CURVE INFORMATION
#MNEMO.UNIT         API CODE              CURVE DESCRIPTION
#------------------------------------------------------------------------------
 DEPTH.M                                 :   0     Depth
 TEMP.DegC                               :   1     Temperature
 COND.uS/cm                              :   2     Absolute Conductivity
 COND.uS/cm                              :   3     Conductivity@25DegC
 DELT.DegC                               :   4     Delta T
 DELC.uS/cm                              :   5     Delta C
 NGAM.CPS                                :   6     Natural Gamma
#------------------------------------------------------------------------------
~A  DEPTH          TEMP          COND          COND          DELT          DELC          NGAM
# ...
   141.10         12.30       2788.44       3737.57         -0.00          0.09          0.00
   141.11         12.30       2788.44       3737.61         -0.00          4.20          0.00
   141.12         12.30       2787.11       3736.01         -0.00         -1.56          0.00
   141.13         12.30       2787.11       3736.18         -0.00          0.44          0.00
   141.14         12.30       2787.11       3736.36         -0.01          0.53          0.00
   141.15         12.30       2788.44       3738.23         -0.01          0.53          0.00
   141.16         12.30       2788.44       3738.14         -0.00          4.46          0.00
   141.17         12.30       2790.21       3740.52         -0.00          2.55          0.00
   141.18         12.30       2788.44       3738.10         -0.00          1.83          0.00
   141.19         12.30       2788.44       3738.06          0.00          1.70          0.00
   141.20         12.30       2788.44       3738.06          0.00         -0.13          0.00
   141.21         12.30       2787.11       3736.27          0.00          2.25          0.00
   141.22         12.30       2790.21       3740.43          0.00         -0.13          0.00
   141.23         12.30       2788.44       3737.92          0.00          1.47          0.00
   141.24         12.30       2790.21       3740.17          0.00          1.89          0.00
   141.25         12.30       2787.11       3735.79          0.01         -2.48          0.00
   141.26         12.30       2787.11       3735.62          0.01          1.63          0.00
   141.27         12.31       2788.88       3737.95          0.01         -0.02          0.00
   141.28         12.31       2787.11       3735.53          0.01         -2.31          0.00
   141.29         12.31       2790.21       3739.68          0.00          0.15          0.00
   141.30         12.31       2790.21       3739.60          0.01          4.22          0.00
   141.31         12.31       2787.11       3735.44          0.00          1.89          0.00
   141.32         12.31       2788.44       3737.18          0.00         -0.48          0.00
   141.33         12.31       2787.11       3735.35          0.00          0.16          0.00
   141.34         12.31       2790.21       3739.55          0.00          0.29          0.00
   141.35         12.31       2788.44       3737.13          0.00          2.15          0.00
   141.36         12.31       2788.44       3737.17          0.00          2.29          0.00
   141.37         12.31       2788.44       3737.17          0.00         -0.13          0.00
   141.38         12.31       2789.77       3738.87          0.00         -0.77          0.00
   141.39         12.31       2788.44       3737.00          0.00         -0.86          0.00
   141.40         12.31       2788.44       3736.95          0.00          3.25          0.00
   141.41         12.31       2785.34       3732.89          0.00         -4.84          0.00
   141.42         12.31       2788.44       3737.09          0.00         -2.38          0.00
   141.43         12.31       2788.44       3737.09         -0.00         -2.29          0.00
   141.44         12.31       2789.77       3738.91         -0.00          3.74          0.00
   141.45         12.31       2788.44       3737.26         -0.00          2.04          0.00
   141.46         12.30       2788.44       3737.44         -0.00         -1.94          0.00
   141.47         12.30       2788.44       3737.61         -0.01         -1.72          0.00
   141.48         12.30       2788.44       3737.75         -0.01          0.83          0.00
   141.49         12.30       2788.44       3737.79         -0.01          3.30          0.00
   141.50         12.30       2789.77       3739.62         -0.01          3.34          0.00
   141.51         12.30       2786.67       3735.55         -0.01         -0.82          0.00
   141.52         12.30       2788.44       3738.01         -0.01          1.47          0.00
   141.53         12.30       2788.44       3738.10         -0.01          1.38          0.00
   141.54         12.30       2788.44       3738.23         -0.01          1.25          0.00
   141.55         12.30       2788.44       3738.23         -0.00         -1.34          0.00
   141.56         12.30       2786.67       3735.77         -0.00          0.35          0.00
   141.57         12.30       2786.67       3735.68         -0.00          0.26          0.00
   141.58         12.30       2789.77       3739.75         -0.00          4.42          0.41
   141.59         12.30       2789.77       3739.79         -0.00          0.40          0.41
   141.60         12.30       2786.67       3735.81         -0.01          0.53          0.41
   141.61         12.30       2786.67       3735.94         -0.01          0.62          0.41
   141.62         12.30       2789.77       3740.10         -0.01          0.62          0.41
   141.63         12.30       2791.10       3741.79         -0.01          4.22          0.41
   141.64         12.30       2788.00       3737.55         -0.01          0.16          0.41
   141.65         12.30       2788.00       3737.50         -0.01          4.44          0.41
   141.66         12.30       2788.00       3737.50         -0.01          2.79          0.41
   141.67         12.30       2789.77       3739.88         -0.01          0.92          0.82
   141.68         12.30       2789.77       3739.84         -0.01          0.75          0.82
   141.69         12.30       2789.77       3739.75         -0.00          2.27          0.82
   141.70         12.30       2786.67       3735.50         -0.00         -2.15          0.82
   141.71         12.30       2789.77       3739.57         -0.00          1.87          0.82
   141.72         12.30       2789.77       3739.57         -0.00          1.91          0.82
   141.73         12.30       2788.44       3737.83         -0.00          0.26          0.82
   141.74         12.30       2788.44       3737.88         -0.00          2.64          0.82
   141.75         12.30       2788.44       3737.88         -0.00          0.17          0.82
   141.76         12.30       2788.44       3737.70          0.00         -0.09          0.82
   141.77         12.30       2788.44       3737.48          0.00         -0.36          0.82
   141.78         12.30       2789.77       3739.18          0.00          1.47          0.82
   141.79         12.30       2786.67       3735.02          0.00         -0.68          0.82
   141.80         12.30       2786.67       3735.20         -0.00         -2.11          0.82
   141.81         12.30       2788.44       3737.70         -0.01          4.68          0.82
   141.82         12.30       2788.44       3737.70         -0.01          0.57          0.82
   141.83         12.30       2788.44       3737.57         -0.00          0.30          0.82
   141.84         12.30       2789.77       3739.18          0.00          5.93          0.41
   141.85         12.31       2786.67       3734.89          0.00         -2.60          0.41
   141.86         12.31       2788.44       3737.17          0.00          3.72          0.41
   141.87         12.31       2788.44       3737.26          0.00         -0.35          0.41
   141.88         12.30       2788.44       3737.44          0.00         -0.22          0.41
   141.89         12.30       2788.44       3737.48          0.00          3.89          0.41
   141.90         12.30       2791.54       3741.64          0.00         10.34          0.41
   141.91         12.31       2790.21       3739.68          0.01          8.25          0.41
   141.92         12.31       2788.44       3737.17          0.01          1.54          0.00
   141.93         12.31       2788.44       3737.09          0.01          5.56          0.00
   141.94         12.31       2787.11       3735.26          0.01          3.78          0.00
   141.95         12.31       2787.11       3735.35          0.01         -0.24          0.00
