#Written by Robertson Geologging WinLogger V1.5/410
~VERSION INFORMATION
#------------------------------------------------------------------------------
 VERS. 2.0 : CWLS LOG ASCII STANDARD - VERSION 2.0
 WRAP. NO  : ONE LINE PER DEPTH STEP
~WELL INFORMATION
#MNEM.UNIT         DATA                                DESCRIPTION OF MNEMONIC
#------------------------------------------------------------------------------
 STRT.M          0.0100                            :   START DEPTH
 STOP.M        255.2200                            :   STOP DEPTH
 STEP.M          0.0100                            :   STEP VALUE
 NULL.        -999.2500                            :   NULL VALUE
 COMP.    IWS                                      :   COMPANY NAME
 WELL.    Mainsforth                               :   WELL NAME
 FLD.     N/A                                      :   FIELD NAME
 LOC.     N/A                                      :   LOCATION
 PROV.    N/A                                      :   PROVINCE
 SRVC.    N/A                                      :   SERVICE COMPANY NAME
 DATE.    01 Feb 11                                :   DATE
 UWI.     N/A                                      :   UNIQUE WELL IDENTIFIER
~PARAMETER INFORMATION
#MNEMO.UNIT         VALUE                 DESCRIPTION OF MNEMONIC
#------------------------------------------------------------------------------
~OTHER INFORMATION SECTION
#------------------------------------------------------------------------------
 1365
~CURVE INFORMATION
#MNEMO.UNIT         API CODE              CURVE DESCRIPTION
#------------------------------------------------------------------------------
 DEPTH.M                                 :   0     Depth
 CN25.uS/cm                              :   1     Conductivity@25DegC
 TEMP.DegC                               :   2     Temperature
 DELT.DegC                               :   3     Delta T
 DELC.uS/cm                              :   4     Delta C
#------------------------------------------------------------------------------
~A  DEPTH          CN25          TEMP          DELT          DELC
# ...
   101.27       3239.47         11.72          0.00          3.73
   101.28       3239.63         11.72          0.00          4.00
   101.29       3239.74         11.72         -0.00          4.31
   101.30       3235.86         11.72         -0.01          0.62
   101.31       3235.40         11.71         -0.01          0.28
   101.32       3235.48         11.71         -0.01          0.44
   101.33       3235.56         11.71         -0.01          0.55
   101.34       3235.64         11.71         -0.01          0.63
   101.35       3235.64         11.71         -0.01          0.63
   101.36       3235.68         11.71         -0.01          0.71
   101.37       3235.68         11.71         -0.01          0.71
   101.38       3235.60         11.71         -0.01          0.59
   101.39       3235.52         11.71         -0.01         -3.52
   101.40       3235.40         11.71         -0.01         -3.68
   101.41       3235.29         11.72         -0.01         -3.91
   101.42       3235.82         11.72         -0.01         -3.46
   101.43       3235.74         11.72         -0.00         -3.57
   101.44       3235.66         11.72         -0.00         -3.77
   101.45       3235.59         11.72         -0.00         -3.92
   101.46       3235.51         11.72          0.00         -4.08
   101.47       3235.47         11.72          0.00         -4.24
   101.48       3235.43         11.72          0.00         -4.31
   101.49       3235.51         11.72          0.00         -4.20
   101.50       3235.59         11.72          0.00         -0.12
   101.51       3235.70         11.72         -0.00          0.04
   101.52       3235.86         11.72         -0.00          0.27
   101.53       3235.94         11.71         -0.00          0.31
   101.54       3236.09         11.71         -0.00          0.35
   101.55       3236.29         11.71         -0.00          0.39
   101.56       3236.40         11.71         -0.00          0.31
   101.57       3236.60         11.71         -0.00          0.35
   101.58       3236.71         11.71         -0.01          1.04
   101.59       3236.75         11.71         -0.01          1.12
   101.60       3236.79         11.71         -0.01          1.12
   101.61       3236.79         11.71         -0.01          1.19
   101.62       3236.75         11.71         -0.01          1.15
   101.63       3236.71         11.71         -0.01          1.08
   101.64       3236.60         11.71         -0.00          1.00
   101.65       3236.44         11.71         -0.00          0.84
   101.66       3236.32         11.71         -0.00          0.84
   101.67       3236.29         11.71         -0.00          1.00
   101.68       3236.21         11.71         -0.01          1.69
   101.69       3236.13         11.71         -0.01          1.15
   101.70       3240.09         11.71         -0.01          5.16
   101.71       3239.94         11.71         -0.01          5.08
   101.72       3239.90         11.72         -0.01          5.04
   101.73       3239.94         11.71         -0.01          5.04
   101.74       3239.94         11.71         -0.00          4.96
   101.75       3239.94         11.71         -0.00          5.50
   101.76       3239.90         11.72         -0.00          5.46
   101.77       3239.74         11.72         -0.00          5.30
   101.78       3239.71         11.72         -0.00          5.26
   101.79       3239.86         11.72         -0.00          4.77
   101.80       3239.45         11.71         -0.00          4.31
   101.81       3235.64         11.71         -0.01         -3.54
   101.82       3235.75         11.71         -0.01         -3.54
   101.83       3235.68         11.71         -0.00         -3.24
   101.84       3235.60         11.71          0.00         -3.47
   101.85       3235.56         11.71          0.00         -3.59
   101.86       3235.64         11.71          0.00         -4.16
   101.87       3235.83         11.71         -0.00         -3.96
   101.88       3235.49         11.71         -0.00         -4.46
   101.89       3235.57         11.71          0.00         -4.58
   101.90       3235.41         11.71          0.00         -4.28
   101.91       3235.83         11.71          0.01         -4.02
   101.92       3235.60         11.71          0.01         -0.28
   101.93       3235.48         11.71          0.01         -0.32
   101.94       3235.48         11.71          0.01         -0.74
   101.95       3235.44         11.71          0.01         -0.62
   101.96       3235.44         11.71          0.01         -0.54
   101.97       3235.40         11.71          0.01         -0.54
   101.98       3234.75         11.72          0.01         -1.19
   101.99       3235.25         11.72          0.01         -0.58
   102.00       3235.13         11.72          0.01         -0.01
   102.01       3234.98         11.72          0.01         -0.62
   102.02       3238.86         11.72          0.01          3.38
   102.03       3238.82         11.72          0.01          3.34
   102.04       3238.78         11.72          0.01          3.26
   102.05       3238.86         11.72          0.01          3.30
   102.06       3238.90         11.72          0.01          3.30
   102.07       3238.86         11.72          0.01          3.34
   102.08       3238.25         11.72          0.01          2.77
   102.09       3238.71         11.72          0.01          3.23
   102.10       3238.63         11.72          0.01          3.15
   102.11       3238.59         11.72          0.01          2.54
   102.12       3238.71         11.72          0.01          2.61
   102.13       3234.70         11.72          0.01         -1.35
   102.14       3234.74         11.72          0.01         -1.23
   102.15       3234.86         11.72          0.00         -1.00
   102.16       3234.29         11.72          0.00         -1.42
   102.17       3234.33         11.72          0.00         -1.30
   102.18       3234.37         11.72          0.00         -5.26
   102.19       3234.98         11.72          0.00         -4.61
   102.20       3235.05         11.72         -0.00         -4.50
   102.21       3235.13         11.72         -0.00         -4.34
   102.22       3235.13         11.72         -0.00         -4.26
   102.23       3235.09         11.72         -0.00         -4.22
   102.24       3235.13         11.72         -0.00         -4.19
   102.25       3235.17         11.72         -0.00         -4.19
   102.26       3235.17         11.72         -0.00         -4.30
   102.27       3235.70         11.72         -0.00         -3.92
   102.28       3235.59         11.72          0.00         -4.16
   102.29       3235.43         11.72          0.00         -0.43
   102.30       3235.28         11.72          0.01         -0.13
   102.31       3235.20         11.72          0.01         -0.28
   102.32       3235.16         11.72          0.01         -0.40
   102.33       3235.31         11.72          0.01         -0.32
   102.34       3235.51         11.72          0.01         -0.13
   102.35       3235.63         11.72          0.01         -0.05
   102.36       3235.70         11.72          0.01          0.03
   102.37       3235.74         11.72          0.00          0.14
   102.38       3235.82         11.72          0.00          0.30
   102.39       3235.90         11.72          0.00          0.49
   102.40       3240.09         11.71         -0.00          4.81
   102.41       3240.21         11.71         -0.00          4.39
   102.42       3240.29         11.71         -0.01          4.55
   102.43       3240.37         11.71         -0.01          4.70
   102.44       3240.25         11.71         -0.01          4.66
   102.45       3240.17         11.71         -0.01          4.66
   102.46       3240.17         11.71         -0.01          4.70
   102.47       3240.17         11.71         -0.01          4.74
   102.48       3240.25         11.71         -0.01          4.74
