#Written by Robertson Geologging WinLogger V1.5/410
~VERSION INFORMATION
#------------------------------------------------------------------------------
 VERS. 2.0 : CWLS LOG ASCII STANDARD - VERSION 2.0
 WRAP. NO  : ONE LINE PER DEPTH STEP
~WELL INFORMATION
#MNEM.UNIT         DATA                                DESCRIPTION OF MNEMONIC
#------------------------------------------------------------------------------
 STRT.M          0.0100                            :   START DEPTH
 STOP.M        255.2200                            :   STOP DEPTH
 STEP.M          0.0100                            :   STEP VALUE
 NULL.        -999.2500                            :   NULL VALUE
 COMP.    IWS                                      :   COMPANY NAME
 WELL.    Mainsforth                               :   WELL NAME
 FLD.     N/A                                      :   FIELD NAME
 LOC.     N/A                                      :   LOCATION
 PROV.    N/A                                      :   PROVINCE
 SRVC.    N/A                                      :   SERVICE COMPANY NAME
 DATE.    01 Feb 11                                :   DATE
 UWI.     N/A                                      :   UNIQUE WELL IDENTIFIER
~PARAMETER INFORMATION
#MNEMO.UNIT         VALUE                 DESCRIPTION OF MNEMONIC
#------------------------------------------------------------------------------
~OTHER INFORMATION SECTION
#------------------------------------------------------------------------------
 1365
~CURVE INFORMATION
#MNEMO.UNIT         API CODE              CURVE DESCRIPTION
#------------------------------------------------------------------------------
 DEPTH.M                                 :   0     Depth
 CN25.uS/cm                              :   1     Conductivity@25DegC
 TEMP.DegC                               :   2     Temperature
 DELT.DegC                               :   3     Delta T
 DELC.uS/cm                              :   4     Delta C
#------------------------------------------------------------------------------
~A  DEPTH          CN25          TEMP          DELT          DELC
# ...
    67.11       3195.41         11.72          0.00         12.58
    67.12       3195.37         11.72         -0.00         12.62
    67.13       3195.33         11.72         -0.00         12.69
    67.14       3195.22         11.72         -0.00          8.69
    67.15       3195.22         11.72         -0.00          8.65
    67.16       3195.30         11.72          0.00          8.58
    67.17       3198.88         11.72         -0.00         12.08
    67.18       3199.03         11.72         -0.00         12.08
    67.19       3199.11         11.72         -0.00         12.08
    67.20       3195.11         11.72         -0.00          8.08
    67.21       3194.99         11.72          0.00         12.50
    67.22       3194.84         11.72          0.00          7.81
    67.23       3194.69         11.72          0.00          7.70
    67.24       3197.96         11.72          0.00         11.05
    67.25       3197.85         11.73          0.01         10.94
    67.26       3197.73         11.73          0.01         10.86
    67.27       3197.66         11.73          0.01         10.86
    67.28       3194.19         11.73          0.01          7.35
    67.29       3194.15         11.73          0.01          7.31
    67.30       3194.26         11.73          0.01          7.43
    67.31       3197.81         11.73          0.01         10.86
    67.32       3197.89         11.72          0.01          6.36
    67.33       3198.08         11.72          0.00          6.59
    67.34       3198.27         11.72          0.00          6.82
    67.35       3194.95         11.72         -0.00          3.55
    67.36       3195.11         11.72         -0.00          3.70
    67.37       3198.54         11.72         -0.00          7.13
    67.38       3198.46         11.72         -0.00          7.05
    67.39       3198.38         11.72         -0.00         11.02
    67.40       3198.35         11.72         -0.00         11.02
    67.41       3198.31         11.72         -0.00         10.94
    67.42       3194.84         11.72          0.00          7.43
    67.43       3198.88         11.72          0.00         11.40
    67.44       3198.88         11.72          0.00         11.24
    67.45       3198.92         11.72          0.00         11.20
    67.46       3199.07         11.72          0.00         11.36
    67.47       3199.11         11.72          0.00         11.40
    67.48       3195.79         11.72         -0.00          8.04
    67.49       3199.26         11.72          0.00         11.44
    67.50       3199.19         11.72          0.00          7.24
    67.51       3199.15         11.72          0.00          7.16
    67.52       3199.07         11.72          0.00          7.16
    67.53       3199.07         11.72          0.00          7.28
    67.54       3199.07         11.72          0.00          7.36
    67.55       3199.07         11.72          0.00          7.43
    67.56       3199.03         11.72          0.00          7.36
    67.57       3198.96         11.72          0.00          7.16
    67.58       3198.92         11.72          0.00          7.09
    67.59       3202.84         11.72          0.01         10.97
    67.60       3199.41         11.72          0.01          7.43
    67.61       3199.49         11.72          0.01          7.43
    67.62       3199.45         11.72          0.01          7.20
    67.63       3199.41         11.72          0.01          6.93
    67.64       3203.38         11.72          0.01         10.78
    67.65       3199.30         11.72          0.02          6.62
    67.66       3199.26         11.72          0.02          6.59
    67.67       3199.30         11.72          0.02          2.66
    67.68       3199.30         11.72          0.01          2.74
    67.69       3202.80         11.72          0.01          6.36
    67.70       3198.92         11.72          0.01          2.62
    67.71       3199.03         11.72          0.00          3.05
    67.72       3199.07         11.72          0.00          3.35
    67.73       3202.54         11.72         -0.00          7.01
    67.74       3202.62         11.72         -0.00          7.21
    67.75       3198.69         11.72         -0.00          3.28
    67.76       3198.88         11.71         -0.01          3.43
    67.77       3199.00         11.71         -0.01          3.43
    67.78       3203.04         11.71         -0.01         11.40
    67.79       3203.04         11.71         -0.00         11.29
    67.80       3199.57         11.71         -0.00          7.74
    67.81       3199.53         11.71         -0.00          7.70
    67.82       3203.50         11.71         -0.00         11.59
    67.83       3203.50         11.71         -0.00         11.55
    67.84       3200.10         11.71         -0.00          8.16
    67.85       3200.10         11.71         -0.00          8.16
    67.86       3204.11         11.71         -0.00         12.24
    67.87       3204.03         11.71         -0.00          8.24
    67.88       3203.92         11.71         -0.00          8.20
    67.89       3199.84         11.72         -0.00          4.16
    67.90       3203.19         11.72         -0.00          7.51
    67.91       3203.11         11.72          0.00          7.39
    67.92       3203.04         11.72          0.00          7.20
    67.93       3202.35         11.72          0.00          6.48
    67.94       3202.31         11.72          0.00          6.44
    67.95       3202.27         11.72          0.01          6.40
    67.96       3202.23         11.72          0.01          6.40
    67.97       3202.16         11.72          0.01          6.32
    67.98       3202.08         11.72          0.01          6.82
    67.99       3202.08         11.72          0.01          6.82
    68.00       3202.04         11.72          0.01          6.78
    68.01       3202.08         11.72          0.01          6.86
    68.02       3202.04         11.72          0.01          6.78
    68.03       3202.08         11.72          0.01          6.86
    68.04       3202.16         11.72          0.01          6.97
    68.05       3202.16         11.72          0.00          7.01
    68.06       3202.27         11.72          0.00          7.20
    68.07       3202.23         11.72          0.00          7.28
    68.08       3202.19         11.72          0.00          3.31
    68.09       3202.16         11.72          0.00          6.71
    68.10       3202.08         11.72          0.00          6.67
    68.11       3206.04         11.72          0.00         10.67
    68.12       3202.57         11.72          0.00          7.24
    68.13       3202.65         11.72         -0.00          7.43
    68.14       3202.65         11.72         -0.00          7.43
    68.15       3202.61         11.72          0.00          7.32
    68.16       3202.57         11.72          0.00          3.69
    68.17       3202.42         11.73          0.01          3.39
    68.18       3205.85         11.73          0.01          6.74
    68.19       3201.93         11.72          0.01          6.82
    68.20       3202.04         11.72          0.00          7.05
    68.21       3205.59         11.72          0.00         10.75
    68.22       3201.66         11.72         -0.00          6.98
    68.23       3201.66         11.72         -0.00          3.70
    68.24       3205.62         11.72         -0.00          7.78
    68.25       3205.62         11.72         -0.01          7.89
    68.26       3202.27         11.72         -0.01          4.62
    68.27       3202.39         11.72         -0.01          8.20
    68.28       3205.97         11.72         -0.01         11.82
    68.29       3202.69         11.72         -0.01          8.43
    68.30       3202.69         11.72         -0.01          4.89
    68.31       3206.62         11.72         -0.01          8.73
    68.32       3203.11         11.72         -0.01          5.04
