#Written by Robertson Geologging WinLogger V1.5/410
~VERSION INFORMATION
#------------------------------------------------------------------------------
 VERS. 2.0 : CWLS LOG ASCII STANDARD - VERSION 2.0
 WRAP. NO  : ONE LINE PER DEPTH STEP
~WELL INFORMATION
#MNEM.UNIT         DATA                                DESCRIPTION OF MNEMONIC
#------------------------------------------------------------------------------
 STRT.M          0.0600                            :   START DEPTH
 STOP.M        264.8300                            :   STOP DEPTH
 STEP.M          0.0100                            :   STEP VALUE
 NULL.        -999.2500                            :   NULL VALUE
 COMP.    Coal Authority                           :   COMPANY NAME
 WELL.    Mainsforth Shaft                         :   WELL NAME
 FLD.     N/A                                      :   FIELD NAME
 LOC.     N/A                                      :   LOCATION
 PROV.    N/A                                      :   PROVINCE
 SRVC.    N/A                                      :   SERVICE COMPANY NAME
 DATE.    16 Dec 08                                :   DATE
 UWI.     N/A                                      :   UNIQUE WELL IDENTIFIER
~PARAMETER INFORMATION
#MNEMO.UNIT         VALUE                 DESCRIPTION OF MNEMONIC
#------------------------------------------------------------------------------
~OTHER INFORMATION SECTION
#------------------------------------------------------------------------------
 TCDS 1365
 16,12,2008
~CURVE INFORMATION
#MNEMO.UNIT         API CODE              CURVE DESCRIPTION
#------------------------------------------------------------------------------
 DEPTH.M                                 :   0     Depth
 TEMP.DegC                               :   1     Temperature
 COND.uS/cm                              :   2     Absolute Conductivity
 COND.uS/cm                              :   3     Conductivity@25DegC
 DELT.DegC                               :   4     Delta T
 DELC.uS/cm                              :   5     Delta C
 NGAM.CPS                                :   6     Natural Gamma
#------------------------------------------------------------------------------
~A  DEPTH          TEMP          COND          COND          DELT          DELC          NGAM
# ...
    87.78         11.31       1688.67       2325.49         -0.00         -0.38          0.71
    87.79         11.31       1690.77       2328.45         -0.00          5.36          0.71
    87.80         11.31       1687.82       2324.50         -0.00         -1.60          0.35
    87.81         11.30       1688.67       2325.69         -0.00         -1.62          0.35
    87.82         11.31       1688.67       2325.66         -0.00         -0.52          0.00
    87.83         11.31       1688.67       2325.63          0.00         -1.27          0.00
    87.84         11.31       1688.67       2325.61          0.00         -0.20          0.00
    87.85         11.30       1688.67       2325.72          0.00         -1.38          0.00
    87.86         11.30       1689.51       2327.02          0.00         -3.12          0.35
    87.87         11.30       1689.09       2326.55          0.00         -0.81          0.35
    87.88         11.30       1689.93       2327.79          0.00          1.43          0.35
    87.89         11.30       1689.09       2326.69          0.01         -0.92          0.35
    87.90         11.30       1686.98       2323.79          0.01         -6.77          0.35
    87.91         11.30       1689.93       2327.79          0.01          0.10          0.35
    87.92         11.30       1689.93       2327.82          0.01          1.32          0.35
    87.93         11.30       1689.09       2326.75          0.01         -0.92          0.35
    87.94         11.29       1689.51       2327.47          0.00          0.44          0.35
    87.95         11.29       1688.67       2326.45         -0.00         -1.68          0.35
    87.96         11.29       1689.51       2327.64         -0.00         -0.38          0.35
    87.97         11.29       1691.61       2330.54         -0.01          6.72          0.35
    87.98         11.29       1689.51       2327.66         -0.01          0.48          0.35
    87.99         11.29       1689.51       2327.66         -0.01          0.65          0.35
    88.00         11.29       1689.51       2327.66         -0.01          0.73          0.35
    88.01         11.29       1689.51       2327.66         -0.01          0.76          0.71
    88.02         11.29       1689.51       2327.64         -0.01          1.92          0.71
    88.03         11.29       1689.51       2327.61         -0.01          0.73          0.71
    88.04         11.29       1690.35       2328.65         -0.01         -1.15          0.71
    88.05         11.30       1686.98       2323.88         -0.01         -3.03          0.71
    88.06         11.30       1690.35       2328.37         -0.00          2.63          0.71
    88.07         11.30       1689.51       2327.13         -0.00          2.46          0.71
    88.08         11.30       1687.40       2324.20         -0.00         -5.16          0.71
    88.09         11.30       1689.51       2327.07          0.00          2.32          0.71
    88.10         11.30       1688.67       2325.94          0.00         -0.06          0.71
    88.11         11.30       1689.51       2327.16         -0.00         -1.71          0.71
    88.12         11.30       1691.61       2330.11         -0.00          4.17          0.71
    88.13         11.30       1689.51       2327.33         -0.00          1.44          0.71
    88.14         11.30       1688.67       2326.22         -0.01          0.34          0.71
    88.15         11.29       1688.67       2326.31         -0.01          0.45          0.71
    88.16         11.29       1691.61       2330.40         -0.01          4.59          0.71
    88.17         11.29       1689.09       2326.94         -0.01          1.14          0.71
    88.18         11.29       1689.09       2326.92         -0.01         -2.89          0.35
    88.19         11.29       1689.09       2326.89         -0.01          0.56          0.35
    88.20         11.29       1689.09       2326.89         -0.01          0.56          0.00
    88.21         11.30       1689.93       2327.99         -0.01         -1.18          0.00
    88.22         11.30       1689.09       2326.72         -0.01          0.53          0.00
    88.23         11.30       1686.98       2323.74         -0.01         -1.23          0.00
    88.24         11.30       1689.51       2327.10         -0.01          0.97          0.00
    88.25         11.30       1689.51       2327.02         -0.01         -1.98          0.00
    88.26         11.30       1689.51       2326.99         -0.00          2.02          0.00
    88.27         11.30       1689.51       2326.91         -0.00          1.85          0.00
    88.28         11.31       1689.51       2326.82         -0.00         -2.29          0.00
    88.29         11.31       1689.51       2326.76          0.00          0.52          0.00
    88.30         11.31       1689.51       2326.74          0.00          1.65          0.00
    88.31         11.31       1689.51       2326.71          0.00         -2.46          0.00
    88.32         11.31       1689.51       2326.68          0.00          0.38          0.00
    88.33         11.31       1689.51       2326.71          0.00          1.43          0.00
    88.34         11.31       1689.51       2326.74          0.01          0.16          0.00
    88.35         11.31       1689.09       2326.16          0.01         -3.41          0.00
    88.36         11.31       1689.93       2327.37          0.01          0.62          0.00
    88.37         11.31       1689.09       2326.24          0.01         -0.42          0.00
    88.38         11.30       1686.98       2323.40          0.00         -6.08          0.00
    88.39         11.30       1689.09       2326.38          0.00         -0.17          0.00
    88.40         11.30       1689.93       2327.62          0.00          2.26          0.00
    88.41         11.30       1689.09       2326.52          0.00         -2.96          0.35
    88.42         11.30       1689.51       2327.19          0.00          0.58          0.35
    88.43         11.30       1689.51       2327.27         -0.00          1.80          0.35
    88.44         11.30       1689.51       2327.33         -0.00          0.78          0.35
    88.45         11.30       1689.51       2327.36         -0.01         -1.98          0.35
    88.46         11.30       1687.40       2324.51         -0.01         -1.84          0.35
    88.47         11.29       1689.51       2327.47         -0.01          2.36          0.35
    88.48         11.29       1690.35       2328.65         -0.01         -0.54          0.35
    88.49         11.29       1689.51       2327.58         -0.01          1.26          0.35
    88.50         11.29       1689.93       2328.16         -0.01          2.99          0.35
    88.51         11.29       1689.09       2326.97         -0.01         -2.19          0.35
    88.52         11.29       1689.93       2328.10         -0.01          1.89          0.35
    88.53         11.30       1689.51       2327.41         -0.01          2.44          0.35
    88.54         11.30       1689.51       2327.38         -0.01          1.34          0.35
    88.55         11.30       1689.51       2327.38         -0.01         -1.56          0.35
    88.56         11.30       1689.51       2327.41         -0.01          1.37          0.35
    88.57         11.29       1691.61       2330.40         -0.01          5.54          0.35
    88.58         11.29       1689.51       2327.52         -0.01         -1.39          0.00
    88.59         11.29       1689.51       2327.55         -0.01          1.51          0.00
    88.60         11.29       1689.51       2327.52         -0.01          2.58          0.00
    88.61         11.29       1689.51       2327.52         -0.01          1.31          0.00
    88.62         11.29       1689.51       2327.52         -0.01          1.20          0.00
    88.63         11.29       1689.51       2327.47         -0.01          2.27          0.00
