#Written by Robertson Geologging WinLogger V1.5/410
~VERSION INFORMATION
#------------------------------------------------------------------------------
 VERS. 2.0 : CWLS LOG ASCII STANDARD - VERSION 2.0
 WRAP. NO  : ONE LINE PER DEPTH STEP
~WELL INFORMATION
#MNEM.UNIT         DATA                                DESCRIPTION OF MNEMONIC
#------------------------------------------------------------------------------
 STRT.M          0.0600                            :   START DEPTH
 STOP.M        264.8300                            :   STOP DEPTH
 STEP.M          0.0100                            :   STEP VALUE
 NULL.        -999.2500                            :   NULL VALUE
 COMP.    Coal Authority                           :   COMPANY NAME
 WELL.    Mainsforth Shaft                         :   WELL NAME
 FLD.     N/A                                      :   FIELD NAME
 LOC.     N/A                                      :   LOCATION
 PROV.    N/A                                      :   PROVINCE
 SRVC.    N/A                                      :   SERVICE COMPANY NAME
 DATE.    16 Dec 08                                :   DATE
 UWI.     N/A                                      :   UNIQUE WELL IDENTIFIER
~PARAMETER INFORMATION
#MNEMO.UNIT         VALUE                 DESCRIPTION OF MNEMONIC
#------------------------------------------------------------------------------
~OTHER INFORMATION SECTION
#------------------------------------------------------------------------------
 TCDS 1365
 16,12,2008
~CURVE INFORMATION
#MNEMO.UNIT         API CODE              CURVE DESCRIPTION
#------------------------------------------------------------------------------
 DEPTH.M                                 :   0     Depth
 TEMP.DegC                               :   1     Temperature
 COND.uS/cm                              :   2     Absolute Conductivity
 COND.uS/cm                              :   3     Conductivity@25DegC
 DELT.DegC                               :   4     Delta T
 DELC.uS/cm                              :   5     Delta C
 NGAM.CPS                                :   6     Natural Gamma
#------------------------------------------------------------------------------
~A  DEPTH          TEMP          COND          COND          DELT          DELC          NGAM
# ...
   264.08         14.49       3369.20       4265.36          0.01         -3.11          3.06
   264.09         14.50       3370.11       4266.41          0.01          0.73          3.00
   264.10         14.50       3372.38       4269.20          0.01          4.67          3.00
   264.11         14.50       3373.29       4270.25          0.01          5.77          3.00
   264.12         14.50       3373.29       4270.16          0.01          1.74          3.00
   264.13         14.50       3369.65       4265.55          0.01         -2.77          3.41
   264.14         14.50       3370.56       4266.70          0.01         -2.58          3.06
   264.15         14.50       3369.65       4265.60          0.01         -2.49          3.06
   264.16         14.50       3369.65       4265.65          0.01         -3.49          2.71
   264.17         14.50       3371.93       4268.48          0.01          0.53          2.29
   264.18         14.50       3372.84       4269.58          0.01          4.56          2.29
   264.19         14.50       3371.93       4268.39          0.00          3.55          2.29
   264.20         14.50       3371.93       4268.48          0.00          3.70          2.29
   264.21         14.50       3368.74       4264.55          0.00         -1.34          1.88
   264.22         14.50       3371.47       4268.05          0.00         -0.76          1.53
   264.23         14.50       3370.56       4266.94          0.00          0.87          1.53
   264.24         14.50       3371.47       4268.05          0.00          1.83          1.53
   264.25         14.50       3370.56       4266.90          0.01          1.64          2.18
   264.26         14.50       3371.47       4268.10          0.01          1.74          1.82
   264.27         14.50       3370.56       4267.04          0.00          1.88          1.82
   264.28         14.49       3371.02       4267.76          0.00          1.49          2.24
   264.29         14.49       3370.11       4266.75          0.00          0.48          1.88
   264.30         14.49       3371.02       4268.04          0.00          1.59          1.88
   264.31         14.49       3370.11       4266.89          0.00          0.44          1.88
   264.32         14.49       3371.02       4268.04          0.00          1.49          2.24
   264.33         14.49       3367.38       4263.53          0.00         -3.02          2.24
   264.34         14.49       3368.29       4264.73          0.00         -1.73          2.24
   264.35         14.49       3370.56       4267.75         -0.00          2.49          2.24
   264.36         14.49       3371.47       4269.04         -0.00          2.73          2.24
   264.37         14.49       3370.56       4267.89         -0.00          1.58          2.94
   264.38         14.49       3371.47       4268.95         -0.00          2.64          2.94
   264.39         14.49       3367.84       4264.20         -0.00         -2.11          2.94
   264.40         14.49       3368.74       4265.21          0.00          0.00          3.35
   264.41         14.49       3368.74       4265.07          0.00         -1.25          3.35
   264.42         14.49       3371.93       4269.05          0.00          2.64          2.65
   264.43         14.49       3371.93       4269.05          0.00         -0.33          3.06
   264.44         14.49       3371.93       4268.95          0.00          2.40          3.06
   264.45         14.49       3371.93       4268.95          0.01          3.41          2.65
   264.46         14.49       3369.65       4266.08          0.01         -0.62          3.06
   264.47         14.49       3368.74       4264.88          0.01         -1.86          2.65
   264.48         14.49       3369.65       4266.03          0.01          0.30          2.65
   264.49         14.49       3369.65       4266.12          0.01         -0.85          2.29
   264.50         14.49       3372.84       4270.25          0.01          4.37          3.00
   264.51         14.49       3372.84       4270.29          0.01          3.22          3.00
   264.52         14.49       3372.84       4270.44          0.01          0.49          3.00
   264.53         14.49       3369.65       4266.36          0.01         -3.54          3.35
   264.54         14.49       3369.65       4266.27          0.01         -0.66          2.65
   264.55         14.49       3369.65       4266.27          0.01          0.53          2.65
   264.56         14.49       3369.65       4266.22          0.00         -0.47          2.65
   264.57         14.49       3371.93       4269.05          0.00          3.56          3.29
   264.58         14.49       3372.84       4270.15          0.00          4.71          3.29
   264.59         14.49       3371.93       4268.95          0.00          2.45          3.29
   264.60         14.49       3371.93       4268.81          0.01         -0.71          2.88
   264.61         14.50       3368.74       4264.59          0.01         -6.18          3.24
   264.62         14.50       3368.74       4264.50          0.01         -6.37          3.24
   264.63         14.50       3368.74       4264.31          0.01         -2.57          2.82
   264.64         14.50       3371.93       4268.34          0.01          1.55          3.18
   264.65         14.50       3371.93       4268.48          0.01          2.89          3.18
   264.66         14.50       3371.93       4268.53          0.01         -1.62          3.53
   264.67         14.50       3371.93       4268.57          0.01         -1.71          2.82
   264.68         14.50       3369.65       4265.55          0.01         -4.97          3.18
   264.69         14.50       3368.74       4264.31          0.02         -5.26          3.18
   264.70         14.50       3369.65       4265.32          0.02         -4.39          2.82
   264.71         14.50       3371.93       4268.15          0.02          1.37          2.82
   264.72         14.50       3372.84       4269.44          0.02         -0.17          2.82
   264.73         14.50       3372.84       4269.44          0.02         -0.03          2.82
   264.74         14.50       3371.93       4268.43          0.01         -0.99          1.76
   264.75         14.50       3369.65       4265.70          0.01         -3.82          2.12
   264.76         14.50       3369.65       4265.74          0.01         -3.77          1.76
   264.77         14.50       3369.65       4265.84          0.01         -3.68          1.76
   264.78         14.50       3369.65       4265.89          0.01         -2.34          1.41
   264.79         14.49       3368.74       4264.97          0.01         -4.21          1.41
   264.80         14.49       3369.65       4266.27          0.00         -2.73          1.41
   264.81         14.49       3369.65       4266.50          0.00         -2.40          2.29
   264.82         14.49       3369.65       4266.69         -0.00         -4.99          2.65
   264.83         14.49       3369.65       4266.69         -0.00         -2.02          2.29
