#Written by Robertson Geologging WinLogger V1.5/410
~VERSION INFORMATION
#------------------------------------------------------------------------------
 VERS. 2.0 : CWLS LOG ASCII STANDARD - VERSION 2.0
 WRAP. NO  : ONE LINE PER DEPTH STEP
~WELL INFORMATION
#MNEM.UNIT         DATA                                DESCRIPTION OF MNEMONIC
#------------------------------------------------------------------------------
 STRT.M          0.0100                            :   START DEPTH
 STOP.M        254.5000                            :   STOP DEPTH
 STEP.M          0.0100                            :   STEP VALUE
 NULL.        -999.2500                            :   NULL VALUE
 COMP.    I.W.S.                                   :   COMPANY NAME
 WELL.    MAINSFORTH SHAFT                         :   WELL NAME
 FLD.     N/A                                      :   FIELD NAME
 LOC.     N/A                                      :   LOCATION
 PROV.    N/A                                      :   PROVINCE
 SRVC.    N/A                                      :   SERVICE COMPANY NAME
 DATE.    02 Dec 11                                :   DATE
 UWI.     N/A                                      :   UNIQUE WELL IDENTIFIER
~PARAMETER INFORMATION
#MNEMO.UNIT         VALUE                 DESCRIPTION OF MNEMONIC
#------------------------------------------------------------------------------
~OTHER INFORMATION SECTION
#------------------------------------------------------------------------------
 1365 LOW
~CURVE INFORMATION
#MNEMO.UNIT         API CODE              CURVE DESCRIPTION
#------------------------------------------------------------------------------
 DEPTH.M                                 :   0     Depth
 COND.uS/cm                              :   1     Absolute Conductivity
 COND.uS/cm                              :   2     Conductivity@25DegC
 TEMP.DegC                               :   3     Temperature
#------------------------------------------------------------------------------
~A  DEPTH          COND          COND          TEMP
# ...
   201.75       3005.68       3975.08         12.81
   201.76       3001.90       3970.08         12.81
   201.77       3005.68       3975.22         12.81
   201.78       3005.68       3975.36         12.80
   201.79       3005.68       3975.49         12.80
   201.80       3005.68       3975.49         12.80
   201.81       3005.26       3974.80         12.80
   201.82       3009.05       3979.62         12.81
   201.83       3009.05       3979.34         12.81
   201.84       3009.05       3979.11         12.81
   201.85       3009.05       3979.02         12.81
   201.86       3009.05       3978.84         12.81
   201.87       3009.05       3978.47         12.82
   201.88       3009.05       3978.01         12.82
   201.89       3009.05       3977.46         12.83
   201.90       3012.83       3981.95         12.83
   201.91       3009.05       3976.54         12.83
   201.92       3013.25       3981.68         12.84
   201.93       3009.47       3976.32         12.84
   201.94       3013.25       3981.04         12.85
   201.95       3009.47       3975.76         12.85
   201.96       3013.25       3980.49         12.85
   201.97       3009.47       3975.31         12.85
   201.98       3013.25       3980.21         12.85
   201.99       3009.47       3975.03         12.85
   202.00       3013.25       3979.89         12.86
   202.01       3009.47       3974.62         12.86
   202.02       3013.25       3979.29         12.86
   202.03       3013.25       3979.06         12.86
   202.04       3013.25       3978.83         12.87
   202.05       3013.25       3978.60         12.87
   202.06       3012.83       3977.82         12.87
   202.07       3012.83       3977.63         12.87
   202.08       3012.83       3977.45         12.87
   202.09       3012.83       3977.31         12.88
   202.10       3012.41       3976.71         12.88
   202.11       3012.41       3976.67         12.88
   202.12       3016.19       3981.71         12.88
   202.13       3011.99       3976.30         12.87
   202.14       3011.99       3976.43         12.87
   202.15       3011.99       3976.52         12.87
   202.16       3011.99       3976.48         12.87
   202.17       3011.99       3976.30         12.87
   202.18       3011.99       3976.07         12.88
   202.19       3015.77       3980.88         12.88
   202.20       3011.99       3975.70         12.88
   202.21       3016.19       3981.11         12.88
   202.22       3012.41       3975.93         12.88
   202.23       3012.41       3975.61         12.89
   202.24       3012.41       3975.29         12.89
   202.25       3012.41       3974.92         12.89
   202.26       3016.19       3979.73         12.89
   202.27       3012.41       3974.74         12.89
   202.28       3016.61       3980.33         12.89
   202.29       3012.83       3975.43         12.89
   202.30       3012.83       3975.34         12.89
   202.31       3016.61       3980.24         12.89
   202.32       3012.41       3974.56         12.90
   202.33       3016.19       3979.41         12.90
   202.34       3012.41       3974.42         12.90
   202.35       3016.61       3979.92         12.90
   202.36       3016.61       3979.87         12.90
   202.37       3012.83       3974.75         12.90
   202.38       3016.61       3979.64         12.90
   202.39       3012.41       3974.10         12.90
   202.40       3016.19       3979.04         12.90
   202.41       3016.19       3979.09         12.90
   202.42       3012.41       3974.01         12.90
   202.43       3016.61       3979.51         12.90
   202.44       3016.61       3979.55         12.90
   202.45       3016.61       3979.60         12.90
   202.46       3016.61       3979.74         12.90
   202.47       3016.61       3979.83         12.90
   202.48       3016.61       3979.97         12.90
   202.49       3016.61       3979.97         12.90
   202.50       3020.81       3985.37         12.90
   202.51       3020.81       3985.33         12.90
   202.52       3020.81       3985.33         12.90
   202.53       3020.39       3984.96         12.90
   202.54       3020.39       3985.05         12.90
   202.55       3020.39       3985.09         12.90
   202.56       3024.18       3990.04         12.90
   202.57       3024.18       3989.86         12.90
   202.58       3024.18       3989.81         12.90
   202.59       3024.18       3989.63         12.90
   202.60       3024.18       3989.53         12.90
   202.61       3024.18       3989.58         12.90
   202.62       3024.18       3989.53         12.90
   202.63       3024.18       3989.40         12.90
   202.64       3028.38       3994.57         12.91
   202.65       3028.38       3994.20         12.91
   202.66       3028.38       3993.88         12.91
   202.67       3024.18       3988.15         12.91
   202.68       3024.18       3988.06         12.92
   202.69       3024.18       3987.88         12.92
   202.70       3027.96       3992.73         12.92
   202.71       3027.96       3992.50         12.92
   202.72       3027.96       3992.18         12.92
   202.73       3027.96       3991.95         12.93
   202.74       3027.96       3991.67         12.93
   202.75       3027.96       3991.44         12.93
   202.76       3024.18       3986.27         12.93
   202.77       3024.18       3985.90         12.94
   202.78       3028.38       3991.08         12.94
   202.79       3028.38       3990.75         12.94
   202.80       3028.38       3990.52         12.94
   202.81       3028.38       3990.43         12.95
   202.82       3028.38       3990.39         12.95
   202.83       3028.38       3990.29         12.95
   202.84       3028.38       3990.16         12.95
   202.85       3028.38       3990.06         12.95
   202.86       3024.60       3985.03         12.95
   202.87       3028.38       3990.11         12.95
   202.88       3028.38       3990.25         12.95
   202.89       3028.38       3990.34         12.95
   202.90       3028.38       3990.43         12.95
   202.91       3028.38       3990.39         12.95
   202.92       3028.38       3990.29         12.95
   202.93       3028.38       3990.25         12.95
   202.94       3028.38       3990.34         12.95
   202.95       3028.38       3990.43         12.95
   202.96       3028.38       3990.48         12.95
   202.97       3032.16       3995.46         12.95
   202.98       3032.16       3995.28         12.95
   202.99       3028.38       3990.25         12.95
   203.00       3028.38       3990.20         12.95
   203.01       3028.38       3990.11         12.95
   203.02       3028.38       3990.11         12.95
   203.03       3028.38       3989.97         12.95
   203.04       3024.60       3984.80         12.95
   203.05       3024.60       3984.53         12.95
   203.06       3024.60       3984.25         12.96
   203.07       3024.60       3984.25         12.96
   203.08       3024.60       3984.30         12.96
   203.09       3024.60       3984.44         12.96
   203.10       3028.38       3989.51         12.95
   203.11       3028.38       3989.51         12.95
   203.12       3028.38       3989.47         12.95
   203.13       3032.59       3995.01         12.95
   203.14       3032.59       3995.05         12.95
   203.15       3036.37       4000.03         12.95
   203.16       3036.37       4000.22         12.95
   203.17       3036.37       4000.36         12.95
   203.18       3036.37       4000.31         12.95
   203.19       3036.37       4000.27         12.95
   203.20       3036.37       4000.08         12.95
   203.21       3039.73       4004.28         12.96
   203.22       3039.73       4004.05         12.96
   203.23       3039.73       4003.87         12.96
   203.24       3035.53       3998.14         12.96
   203.25       3035.53       3997.87         12.96
   203.26       3035.53       3997.64         12.97
   203.27       3038.89       4001.74         12.97
   203.28       3038.89       4001.38         12.97
