#Written by Robertson Geologging WinLogger V1.5/410
~VERSION INFORMATION
#------------------------------------------------------------------------------
 VERS. 2.0 : CWLS LOG ASCII STANDARD - VERSION 2.0
 WRAP. NO  : ONE LINE PER DEPTH STEP
~WELL INFORMATION
#MNEM.UNIT         DATA                                DESCRIPTION OF MNEMONIC
#------------------------------------------------------------------------------
 STRT.M          0.0100                            :   START DEPTH
 STOP.M        255.2200                            :   STOP DEPTH
 STEP.M          0.0100                            :   STEP VALUE
 NULL.        -999.2500                            :   NULL VALUE
 COMP.    IWS                                      :   COMPANY NAME
 WELL.    Mainsforth                               :   WELL NAME
 FLD.     N/A                                      :   FIELD NAME
 LOC.     N/A                                      :   LOCATION
 PROV.    N/A                                      :   PROVINCE
 SRVC.    N/A                                      :   SERVICE COMPANY NAME
 DATE.    01 Feb 11                                :   DATE
 UWI.     N/A                                      :   UNIQUE WELL IDENTIFIER
~PARAMETER INFORMATION
#MNEMO.UNIT         VALUE                 DESCRIPTION OF MNEMONIC
#------------------------------------------------------------------------------
~OTHER INFORMATION SECTION
#------------------------------------------------------------------------------
 1365
~CURVE INFORMATION
#MNEMO.UNIT         API CODE              CURVE DESCRIPTION
#------------------------------------------------------------------------------
 DEPTH.M                                 :   0     Depth
 CN25.uS/cm                              :   1     Conductivity@25DegC
 TEMP.DegC                               :   2     Temperature
 DELT.DegC                               :   3     Delta T
 DELC.uS/cm                              :   4     Delta C
#------------------------------------------------------------------------------
~A  DEPTH          CN25          TEMP          DELT          DELC
# ...
   169.59       3812.90         12.75         -0.00          4.81
   169.60       3811.27         12.75         -0.00          3.09
   169.61       3812.34         12.75         -0.00          0.65
   169.62       3812.39         12.75          0.00          4.45
   169.63       3810.76         12.75          0.00          2.74
   169.64       3811.83         12.75          0.00         -0.13
   169.65       3807.98         12.75          0.00         -0.65
   169.66       3810.34         12.75         -0.00          1.85
   169.67       3810.29         12.75         -0.00         -2.00
   169.68       3811.96         12.75         -0.00          0.91
   169.69       3812.05         12.75         -0.01          3.36
   169.70       3810.89         12.75         -0.01         -1.65
   169.71       3812.61         12.75         -0.01          0.11
   169.72       3811.58         12.75         -0.01          2.51
   169.73       3815.39         12.75         -0.01          2.52
   169.74       3813.08         12.75         -0.01          0.33
   169.75       3811.87         12.75         -0.01          3.07
   169.76       3815.64         12.75         -0.01          3.50
   169.77       3813.32         12.75         -0.01          1.09
   169.78       3815.64         12.75         -0.01          7.21
   169.79       3811.74         12.75         -0.00          2.11
   169.80       3811.74         12.75         -0.00         -0.20
   169.81       3815.12         12.75         -0.00          7.04
   169.82       3811.23         12.75         -0.00          3.01
   169.83       3812.39         12.75         -0.00          2.87
   169.84       3810.85         12.75         -0.00          2.83
   169.85       3810.89         12.75          0.00          2.69
   169.86       3812.05         12.75          0.00          3.67
   169.87       3810.43         12.75          0.00          2.00
   169.88       3810.43         12.75          0.00          2.00
   169.89       3812.05         12.75          0.00         -0.22
   169.90       3810.94         12.75          0.00         -1.20
   169.91       3810.85         12.75          0.00          2.14
   169.92       3812.39         12.75          0.00         -0.04
   169.93       3812.34         12.75         -0.00          0.09
   169.94       3814.52         12.75         -0.00          3.61
   169.95       3812.30         12.75         -0.01         -0.02
   169.96       3812.30         12.75         -0.01          0.20
   169.97       3812.25         12.75         -0.01          0.42
   169.98       3812.21         12.75         -0.01          0.47
   169.99       3812.16         12.75         -0.01          0.47
   170.00       3812.07         12.75         -0.01          4.18
   170.01       3813.10         12.75         -0.01          5.07
   170.02       3811.94         12.75         -0.00          0.40
   170.03       3811.94         12.75         -0.00          4.03
   170.04       3811.90         12.75          0.00          3.81
   170.05       3809.58         12.76          0.00         -2.07
   170.06       3811.63         12.76          0.01          3.65
   170.07       3811.54         12.76          0.01          3.34
   170.08       3811.45         12.76          0.01         -0.73
   170.09       3811.32         12.76          0.01          2.52
   170.10       3811.27         12.76          0.01          2.47
   170.11       3811.23         12.76          0.01         -1.38
   170.12       3811.36         12.76          0.01         -1.29
   170.13       3811.54         12.76          0.01          1.07
   170.14       3811.76         12.76          0.01         -0.89
   170.15       3811.81         12.76          0.01         -0.76
   170.16       3811.81         12.76          0.01          1.51
   170.17       3811.94         12.75          0.00          1.78
   170.18       3811.99         12.75          0.00         -1.89
   170.19       3816.10         12.75         -0.00          7.28
   170.20       3813.12         12.75         -0.00         -0.62
   170.21       3813.39         12.75         -0.01         -0.36
   170.22       3813.61         12.74         -0.01          3.63
   170.23       3812.54         12.74         -0.01          2.52
   170.24       3817.46         12.74         -0.01          5.26
   170.25       3813.43         12.74         -0.01          3.50
   170.26       3813.48         12.74         -0.01          3.58
   170.27       3815.84         12.74         -0.01          2.14
   170.28       3813.65         12.74         -0.01         -0.13
   170.29       3813.70         12.74         -0.01          3.67
   170.30       3813.61         12.74         -0.01          0.16
   170.31       3813.34         12.75         -0.00          3.61
   170.32       3816.88         12.75          0.00          7.15
   170.33       3812.54         12.75          0.00          2.85
   170.34       3813.34         12.76          0.01          1.43
   170.35       3809.23         12.76          0.01         -0.33
   170.36       3812.99         12.76          0.01         -0.47
   170.37       3811.83         12.76          0.01         -1.62
   170.38       3813.37         12.76          0.01          5.01
   170.39       3813.28         12.76          0.01          1.11
   170.40       3813.32         12.76          0.01          1.29
   170.41       3813.37         12.76          0.01          3.65
   170.42       3814.61         12.76          0.01          2.72
   170.43       3810.89         12.76          0.01         -1.09
   170.44       3813.34         12.76          0.00          1.36
   170.45       3813.48         12.76          0.00         -0.22
   170.46       3813.52         12.75          0.00          0.71
   170.47       3813.52         12.75          0.00          4.52
   170.48       3814.63         12.75          0.01          1.69
   170.49       3810.74         12.75          0.01         -2.34
   170.50       3812.92         12.76          0.01          3.74
   170.51       3812.83         12.76          0.01         -0.24
   170.52       3812.61         12.76          0.01          0.56
   170.53       3812.39         12.76          0.01         -1.34
   170.54       3812.21         12.76          0.01         -1.38
   170.55       3811.99         12.76          0.02         -1.65
   170.56       3811.76         12.77          0.02         -0.11
   170.57       3811.76         12.77          0.02         -1.09
   170.58       3810.09         12.77          0.02         -2.80
   170.59       3810.09         12.77          0.02         -1.18
   170.60       3814.17         12.77          0.01          1.83
   170.61       3810.96         12.76          0.01         -1.42
   170.62       3814.90         12.76          0.01          4.14
   170.63       3811.18         12.76          0.01         -0.64
   170.64       3813.59         12.76          0.01          5.61
   170.65       3813.77         12.76          0.01          3.43
   170.66       3811.94         12.75          0.01          1.65
   170.67       3814.48         12.75          0.00          2.52
   170.68       3814.57         12.75          0.00          2.52
   170.69       3812.39         12.75          0.00          1.49
   170.70       3814.43         12.75          0.00          1.83
   170.71       3810.23         12.75          0.01         -1.36
   170.72       3815.01         12.76          0.01         -0.38
   170.73       3809.83         12.76          0.01         -3.25
   170.74       3813.59         12.76          0.01          1.71
   170.75       3811.27         12.76          0.01         -4.36
   170.76       3813.45         12.76          0.01          0.13
   170.77       3813.37         12.76          0.01         -2.27
   170.78       3809.98         12.76          0.01         -1.76
   170.79       3813.83         12.76          0.01          2.09
   170.80       3813.83         12.76          0.01         -1.29
