#Written by Robertson Geologging WinLogger V1.5/410
~VERSION INFORMATION
#------------------------------------------------------------------------------
 VERS. 2.0 : CWLS LOG ASCII STANDARD - VERSION 2.0
 WRAP. NO  : ONE LINE PER DEPTH STEP
~WELL INFORMATION
#MNEM.UNIT         DATA                                DESCRIPTION OF MNEMONIC
#------------------------------------------------------------------------------
 STRT.M          0.0100                            :   START DEPTH
 STOP.M        255.2200                            :   STOP DEPTH
 STEP.M          0.0100                            :   STEP VALUE
 NULL.        -999.2500                            :   NULL VALUE
 COMP.    IWS                                      :   COMPANY NAME
 WELL.    Mainsforth                               :   WELL NAME
 FLD.     N/A                                      :   FIELD NAME
 LOC.     N/A                                      :   LOCATION
 PROV.    N/A                                      :   PROVINCE
 SRVC.    N/A                                      :   SERVICE COMPANY NAME
 DATE.    01 Feb 11                                :   DATE
 UWI.     N/A                                      :   UNIQUE WELL IDENTIFIER
~PARAMETER INFORMATION
#MNEMO.UNIT         VALUE                 DESCRIPTION OF MNEMONIC
#------------------------------------------------------------------------------
~OTHER INFORMATION SECTION
#------------------------------------------------------------------------------
 1365
~CURVE INFORMATION
#MNEMO.UNIT         API CODE              CURVE DESCRIPTION
#------------------------------------------------------------------------------
 DEPTH.M                                 :   0     Depth
 CN25.uS/cm                              :   1     Conductivity@25DegC
 TEMP.DegC                               :   2     Temperature
 DELT.DegC                               :   3     Delta T
 DELC.uS/cm                              :   4     Delta C
#------------------------------------------------------------------------------
~A  DEPTH          CN25          TEMP          DELT          DELC
# ...
    51.25       2319.80         11.44          0.01         -0.91
    51.26       2315.74         11.44          0.01         -1.57
    51.27       2316.29         11.44          0.01         -1.05
    51.28       2319.17         11.44          0.01          1.77
    51.29       2319.14         11.44          0.01          1.11
    51.30       2316.26         11.44          0.01         -1.77
    51.31       2315.68         11.44          0.01         -1.80
    51.32       2315.77         11.44          0.01         -2.32
    51.33       2320.43         11.44          0.01          2.29
    51.34       2320.46         11.44          0.01         -0.65
    51.35       2315.97         11.44          0.01         -1.11
    51.36       2316.57         11.44          0.01         -0.48
    51.37       2316.60         11.43          0.01         -0.37
    51.38       2320.65         11.43          0.00          3.78
    51.39       2317.81         11.43          0.00         -3.13
    51.40       2317.31         11.43          0.00         -3.05
    51.41       2317.37         11.43          0.00          0.98
    51.42       2318.03         11.43          0.00          1.04
    51.43       2322.06         11.43          0.00          2.22
    51.44       2317.43         11.43          0.00         -2.33
    51.45       2317.45         11.43         -0.00          0.72
    51.46       2318.00         11.43         -0.00          1.90
    51.47       2318.00         11.43         -0.00          1.98
    51.48       2320.88         11.43         -0.00          1.38
    51.49       2316.82         11.43         -0.00         -2.77
    51.50       2316.82         11.43         -0.00          1.29
    51.51       2317.37         11.43         -0.00          1.24
    51.52       2321.40         11.43         -0.00          2.47
    51.53       2321.31         11.43         -0.00          2.44
    51.54       2316.65         11.43         -0.00          1.21
    51.55       2317.20         11.43          0.00          1.70
    51.56       2317.12         11.44          0.00          1.50
    51.57       2321.15         11.44          0.00          1.99
    51.58       2321.09         11.44          0.01          1.82
    51.59       2317.58         11.44          0.01          1.77
    51.60       2317.50         11.44          0.01          1.71
    51.61       2317.41         11.44          0.01         -2.40
    51.62       2320.20         11.44          0.01          1.05
    51.63       2316.09         11.44          0.01         -0.21
    51.64       2316.15         11.44          0.01         -0.21
    51.65       2316.23         11.44          0.01         -3.55
    51.66       2320.35         11.44          0.01          0.56
    51.67       2319.94         11.44          0.01          0.73
    51.68       2315.97         11.44          0.01         -0.37
    51.69       2316.08         11.43          0.00         -0.28
    51.70       2319.64         11.43          0.00         -0.25
    51.71       2319.79         11.43          0.00         -0.20
    51.72       2319.90         11.43          0.00          4.46
    51.73       2316.47         11.43          0.00          0.32
    51.74       2316.53         11.43          0.00         -3.74
    51.75       2319.35         11.43          0.01         -0.37
    51.76       2319.87         11.43          0.01          2.95
    51.77       2315.24         11.43          0.01         -1.08
    51.78       2315.73         11.43          0.01         -5.17
    51.79       2319.73         11.43          0.01         -0.54
    51.80       2319.07         11.43          0.01         -1.08
    51.81       2316.08         11.43          0.01         -1.08
    51.82       2318.87         11.44          0.01         -1.05
    51.83       2318.82         11.44          0.01         -1.63
    51.84       2318.87         11.44          0.01         -0.97
    51.85       2318.93         11.43          0.00          3.14
    51.86       2316.16         11.43          0.00         -0.17
    51.87       2319.07         11.43          0.00         -0.06
    51.88       2319.62         11.43          0.00          0.00
    51.89       2319.59         11.43          0.00          4.03
    51.90       2314.93         11.43          0.00         -0.72
    51.91       2319.59         11.43          0.00         -0.17
    51.92       2319.07         11.43          0.00         -0.80
    51.93       2316.28         11.43          0.00         -0.22
    51.94       2315.70         11.43          0.00         -0.74
    51.95       2320.25         11.43          0.00          3.28
    51.96       2320.22         11.43          0.00          0.43
    51.97       2319.50         11.43          0.00         -0.23
    51.98       2316.60         11.43          0.00         -0.25
    51.99       2319.50         11.43          0.00          3.17
    52.00       2319.50         11.43          0.00         -0.86
    52.01       2320.16         11.43          0.00         -0.72
    52.02       2315.59         11.43          0.00         -1.21
    52.03       2320.28         11.43         -0.00          4.23
    52.04       2319.76         11.43         -0.01          3.30
    52.05       2320.36         11.43         -0.01         -0.10
    52.06       2316.44         11.43         -0.01         -3.38
    52.07       2319.32         11.43         -0.01          2.40
    52.08       2319.95         11.43         -0.01          2.92
    52.09       2320.04         11.43         -0.01          0.07
    52.10       2316.58         11.43         -0.01         -4.04
    52.11       2316.56         11.43         -0.01         -0.15
    52.12       2319.43         11.43         -0.01          3.24
    52.13       2319.95         11.43         -0.00          3.74
    52.14       2315.84         11.43         -0.00         -5.07
    52.15       2316.39         11.43          0.00         -4.06
    52.16       2319.27         11.43          0.00          2.79
    52.17       2319.21         11.43          0.00          2.13
    52.18       2315.78         11.43          0.00         -4.17
    52.19       2315.84         11.43         -0.00         -4.00
    52.20       2319.81         11.43         -0.00          2.99
    52.21       2320.39         11.43         -0.00          4.25
    52.22       2319.87         11.43         -0.01          3.90
    52.23       2316.94         11.43         -0.01         -3.47
    52.24       2316.94         11.43         -0.01         -2.86
    52.25       2319.84         11.43         -0.01          4.10
    52.26       2319.81         11.43         -0.01          3.52
    52.27       2316.96         11.43         -0.01         -2.20
    52.28       2317.02         11.43         -0.01         -2.12
    52.29       2320.47         11.43         -0.01          4.21
    52.30       2320.45         11.43         -0.01          4.76
    52.31       2316.44         11.43         -0.01          0.67
    52.32       2315.87         11.43         -0.01         -4.56
    52.33       2320.45         11.43         -0.01         -0.01
    52.34       2320.39         11.43         -0.01          4.42
    52.35       2319.79         11.43         -0.01          3.22
    52.36       2316.85         11.43         -0.00          0.25
    52.37       2316.82         11.43         -0.00         -3.83
    52.38       2320.85         11.43         -0.00          3.05
    52.39       2320.22         11.43         -0.00          2.91
    52.40       2317.29         11.43          0.00         -0.08
    52.41       2317.26         11.43          0.00         -0.77
    52.42       2320.16         11.43          0.00         -1.90
    52.43       2320.74         11.43          0.00          3.31
    52.44       2316.79         11.43          0.00         -0.66
    52.45       2316.33         11.43         -0.00         -1.67
    52.46       2320.96         11.43         -0.00          2.96
