#Written by Robertson Geologging WinLogger V1.5/410
~VERSION INFORMATION
#------------------------------------------------------------------------------
 VERS. 2.0 : CWLS LOG ASCII STANDARD - VERSION 2.0
 WRAP. NO  : ONE LINE PER DEPTH STEP
~WELL INFORMATION
#MNEM.UNIT         DATA                                DESCRIPTION OF MNEMONIC
#------------------------------------------------------------------------------
 STRT.M          0.0100                            :   START DEPTH
 STOP.M        255.2200                            :   STOP DEPTH
 STEP.M          0.0100                            :   STEP VALUE
 NULL.        -999.2500                            :   NULL VALUE
 COMP.    IWS                                      :   COMPANY NAME
 WELL.    Mainsforth                               :   WELL NAME
 FLD.     N/A                                      :   FIELD NAME
 LOC.     N/A                                      :   LOCATION
 PROV.    N/A                                      :   PROVINCE
 SRVC.    N/A                                      :   SERVICE COMPANY NAME
 DATE.    01 Feb 11                                :   DATE
 UWI.     N/A                                      :   UNIQUE WELL IDENTIFIER
~PARAMETER INFORMATION
#MNEMO.UNIT         VALUE                 DESCRIPTION OF MNEMONIC
#------------------------------------------------------------------------------
~OTHER INFORMATION SECTION
#------------------------------------------------------------------------------
 1365
~CURVE INFORMATION
#MNEMO.UNIT         API CODE              CURVE DESCRIPTION
#------------------------------------------------------------------------------
 DEPTH.M                                 :   0     Depth
 CN25.uS/cm                              :   1     Conductivity@25DegC
 TEMP.DegC                               :   2     Temperature
 DELT.DegC                               :   3     Delta T
 DELC.uS/cm                              :   4     Delta C
#------------------------------------------------------------------------------
~A  DEPTH          CN25          TEMP          DELT          DELC
# ...
   186.67       3831.22         12.81          0.01          4.75
   186.68       3833.17         12.81          0.01          6.80
   186.69       3834.79         12.81          0.01          8.42
   186.70       3833.04         12.81          0.01          4.58
   186.71       3834.71         12.81          0.01         10.27
   186.72       3834.75         12.81          0.01         10.53
   186.73       3833.04         12.81          0.00          8.96
   186.74       3834.71         12.81          0.00          6.78
   186.75       3832.99         12.81          0.00          1.18
   186.76       3830.90         12.81          0.00          0.62
   186.77       3829.37         12.81          0.00         -2.67
   186.78       3833.35         12.81          0.00          2.89
   186.79       3829.55         12.81          0.00         -2.67
   186.80       3829.46         12.81          0.00         -1.05
   186.81       3833.26         12.81          0.01          2.80
   186.82       3829.33         12.81          0.00         -2.71
   186.83       3831.42         12.81          0.01          1.13
   186.84       3832.99         12.81          0.01         -1.09
   186.85       3831.24         12.82          0.01          1.00
   186.86       3831.10         12.82          0.01          0.68
   186.87       3831.10         12.82          0.01         -1.16
   186.88       3831.15         12.82          0.01          0.42
   186.89       3833.46         12.82          0.01          2.73
   186.90       3835.31         12.81          0.01          4.71
   186.91       3833.68         12.81          0.01          3.31
   186.92       3831.55         12.81          0.00         -0.40
   186.93       3833.73         12.81          0.00          3.62
   186.94       3829.88         12.81          0.00         -4.07
   186.95       3829.84         12.81          0.00          1.87
   186.96       3833.77         12.81          0.00         -0.36
   186.97       3831.73         12.81          0.00          3.67
   186.98       3833.91         12.81          0.00          3.71
   186.99       3833.95         12.81          0.00          3.89
   187.00       3831.68         12.81          0.00         -0.04
   187.01       3829.88         12.81          0.00         -0.27
   187.02       3831.55         12.81          0.00         -0.49
   187.03       3829.93         12.81          0.01         -0.54
   187.04       3831.77         12.81          0.01         -2.85
   187.05       3835.80         12.81          0.01          7.16
   187.06       3834.22         12.81          0.00         -0.49
   187.07       3831.91         12.81          0.01         -0.63
   187.08       3833.82         12.81          0.01         -0.76
   187.09       3831.46         12.81          0.01          0.77
   187.10       3831.33         12.81          0.01         -1.03
   187.11       3833.50         12.82          0.01          2.82
   187.12       3831.28         12.82          0.01         -1.07
   187.13       3833.42         12.82          0.01          2.73
   187.14       3834.99         12.82          0.01          2.46
   187.15       3833.15         12.82          0.02          0.53
   187.16       3829.12         12.82          0.02         -3.68
   187.17       3830.75         12.82          0.02         -2.10
   187.18       3829.17         12.82          0.02         -3.50
   187.19       3831.06         12.82          0.02         -1.61
   187.20       3833.55         12.81          0.01         -0.74
   187.21       3831.51         12.81          0.01         -1.16
   187.22       3831.59         12.81          0.01         -2.83
   187.23       3835.57         12.81          0.01          2.86
   187.24       3831.82         12.81          0.01         -2.43
   187.25       3831.91         12.81          0.00         -0.49
   187.26       3832.13         12.81          0.00          2.13
   187.27       3833.89         12.81         -0.00          0.18
   187.28       3832.18         12.81         -0.00          2.45
   187.29       3833.75         12.81         -0.00          3.98
   187.30       3835.80         12.81          0.00          2.18
   187.31       3829.46         12.81          0.00         -0.31
   187.32       3835.53         12.81          0.00          1.91
   187.33       3833.35         12.81          0.00         -0.27
   187.34       3831.64         12.81          0.00         -2.07
   187.35       3833.35         12.81          0.00         -0.36
   187.36       3831.59         12.81          0.01         -3.92
   187.37       3833.22         12.81          0.01         -0.71
   187.38       3833.44         12.81          0.01         -0.54
   187.39       3833.71         12.81          0.00         -0.36
   187.40       3834.02         12.80         -0.00          0.09
   187.41       3830.49         12.80         -0.01          0.58
   187.42       3834.51         12.80         -0.01          0.89
   187.43       3832.38         12.80         -0.01          1.03
   187.44       3830.71         12.80         -0.01          1.03
   187.45       3832.42         12.80         -0.01         -1.24
   187.46       3834.60         12.80         -0.01          4.61
   187.47       3836.27         12.80         -0.01          6.27
   187.48       3832.33         12.80         -0.01         -1.55
   187.49       3834.24         12.80         -0.00          0.40
   187.50       3835.69         12.80         -0.00          2.03
   187.51       3833.80         12.81         -0.00          0.09
   187.52       3835.24         12.81          0.00          1.49
   187.53       3833.53         12.81          0.00         -0.27
   187.54       3833.49         12.81          0.00          1.35
   187.55       3835.15         12.81          0.00          1.44
   187.56       3833.49         12.81          0.00          2.04
   187.57       3831.26         12.81          0.00         -2.31
   187.58       3829.64         12.81          0.00         -3.93
   187.59       3833.53         12.81         -0.00          3.94
   187.60       3833.62         12.81         -0.00          4.07
   187.61       3829.86         12.81         -0.00         -1.58
   187.62       3833.84         12.81         -0.00          3.98
   187.63       3833.93         12.81          0.00          2.22
   187.64       3834.02         12.80         -0.00          0.18
   187.65       3833.98         12.81         -0.00         -1.31
   187.66       3832.22         12.81         -0.00          1.00
   187.67       3833.75         12.81         -0.01          0.58
   187.68       3831.95         12.81         -0.00         -2.84
   187.69       3833.57         12.81         -0.01          0.54
   187.70       3835.66         12.81         -0.00          0.96
   187.71       3829.59         12.81         -0.00         -5.16
   187.72       3835.71         12.81         -0.00          2.67
   187.73       3833.44         12.81         -0.00         -1.26
   187.74       3833.49         12.81         -0.00          0.49
   187.75       3833.49         12.81         -0.00          2.58
   187.76       3833.53         12.81         -0.00          4.16
   187.77       3833.57         12.81         -0.00          0.22
   187.78       3833.66         12.81         -0.00          4.11
   187.79       3833.71         12.81         -0.00          4.25
   187.80       3833.71         12.81         -0.00          0.45
   187.81       3831.57         12.81         -0.01          2.25
   187.82       3833.80         12.81         -0.01          2.38
   187.83       3831.53         12.81         -0.01         -1.46
   187.84       3829.86         12.81         -0.01         -1.37
   187.85       3829.82         12.81         -0.01         -1.29
   187.86       3833.62         12.81         -0.01          2.52
   187.87       3833.75         12.81         -0.01          2.61
   187.88       3833.89         12.81         -0.01          0.43
