#Written by Robertson Geologging WinLogger V1.5/410
~VERSION INFORMATION
#------------------------------------------------------------------------------
 VERS. 2.0 : CWLS LOG ASCII STANDARD - VERSION 2.0
 WRAP. NO  : ONE LINE PER DEPTH STEP
~WELL INFORMATION
#MNEM.UNIT         DATA                                DESCRIPTION OF MNEMONIC
#------------------------------------------------------------------------------
 STRT.M          0.0100                            :   START DEPTH
 STOP.M        254.5000                            :   STOP DEPTH
 STEP.M          0.0100                            :   STEP VALUE
 NULL.        -999.2500                            :   NULL VALUE
 COMP.    I.W.S.                                   :   COMPANY NAME
 WELL.    MAINSFORTH SHAFT                         :   WELL NAME
 FLD.     N/A                                      :   FIELD NAME
 LOC.     N/A                                      :   LOCATION
 PROV.    N/A                                      :   PROVINCE
 SRVC.    N/A                                      :   SERVICE COMPANY NAME
 DATE.    02 Dec 11                                :   DATE
 UWI.     N/A                                      :   UNIQUE WELL IDENTIFIER
~PARAMETER INFORMATION
#MNEMO.UNIT         VALUE                 DESCRIPTION OF MNEMONIC
#------------------------------------------------------------------------------
~OTHER INFORMATION SECTION
#------------------------------------------------------------------------------
 1365 LOW
~CURVE INFORMATION
#MNEMO.UNIT         API CODE              CURVE DESCRIPTION
#------------------------------------------------------------------------------
 DEPTH.M                                 :   0     Depth
 COND.uS/cm                              :   1     Absolute Conductivity
 COND.uS/cm                              :   2     Conductivity@25DegC
 TEMP.DegC                               :   3     Temperature
#------------------------------------------------------------------------------
~A  DEPTH          COND          COND          TEMP
# ...
   150.93       2606.91       3493.25         12.31
   150.94       2603.55       3488.87         12.31
   150.95       2606.91       3493.45         12.31
   150.96       2606.91       3493.54         12.31
   150.97       2603.55       3489.03         12.31
   150.98       2606.91       3493.66         12.31
   150.99       2606.91       3493.66         12.31
   151.00       2606.91       3493.66         12.31
   151.01       2603.55       3489.11         12.31
   151.02       2606.91       3493.50         12.31
   151.03       2606.91       3493.58         12.31
   151.04       2606.91       3493.50         12.31
   151.05       2610.27       3497.88         12.31
   151.06       2603.55       3488.87         12.31
   151.07       2606.91       3493.21         12.31
   151.08       2610.27       3497.67         12.31
   151.09       2603.55       3488.71         12.31
   151.10       2610.27       3497.75         12.31
   151.11       2606.91       3493.33         12.31
   151.12       2606.91       3493.37         12.31
   151.13       2610.27       3497.84         12.31
   151.14       2603.55       3488.67         12.31
   151.15       2610.27       3497.63         12.31
   151.16       2606.91       3493.17         12.31
   151.17       2606.91       3493.21         12.31
   151.18       2610.27       3497.84         12.31
   151.19       2606.91       3493.37         12.31
   151.20       2611.11       3499.04         12.31
   151.21       2607.75       3494.50         12.31
   151.22       2604.39       3490.04         12.31
   151.23       2611.11       3499.04         12.31
   151.24       2607.75       3494.62         12.31
   151.25       2611.95       3500.33         12.31
   151.26       2608.59       3495.83         12.31
   151.27       2605.23       3491.37         12.31
   151.28       2611.95       3500.29         12.31
   151.29       2608.59       3495.75         12.31
   151.30       2609.43       3496.95         12.31
   151.31       2608.59       3495.79         12.31
   151.32       2605.23       3491.45         12.31
   151.33       2611.95       3500.50         12.31
   151.34       2608.59       3495.99         12.31
   151.35       2609.43       3497.08         12.31
   151.36       2608.59       3495.91         12.31
   151.37       2605.23       3491.49         12.31
   151.38       2611.95       3500.58         12.31
   151.39       2608.59       3496.20         12.31
   151.40       2609.43       3497.36         12.31
   151.41       2608.59       3496.12         12.31
   151.42       2605.23       3491.49         12.31
   151.43       2611.95       3500.25         12.31
   151.44       2608.59       3495.58         12.31
   151.45       2609.43       3496.63         12.31
   151.46       2608.59       3495.42         12.31
   151.47       2609.43       3496.50         12.31
   151.48       2612.79       3500.84         12.32
   151.49       2609.43       3496.22         12.32
   151.50       2610.27       3497.26         12.32
   151.51       2609.43       3496.05         12.32
   151.52       2609.43       3496.05         12.32
   151.53       2613.63       3501.68         12.32
   151.54       2610.27       3497.22         12.32
   151.55       2611.11       3498.30         12.32
   151.56       2610.27       3497.14         12.32
   151.57       2611.11       3498.34         12.32
   151.58       2610.27       3497.22         12.32
   151.59       2610.27       3497.30         12.32
   151.60       2611.11       3498.43         12.32
   151.61       2610.27       3497.22         12.32
   151.62       2611.11       3498.39         12.32
   151.63       2611.11       3498.51         12.32
   151.64       2610.27       3497.55         12.32
   151.65       2611.11       3498.75         12.31
   151.66       2610.27       3497.71         12.31
   151.67       2611.11       3498.92         12.31
   151.68       2610.27       3497.67         12.31
   151.69       2610.27       3497.75         12.31
   151.70       2611.11       3498.92         12.31
   151.71       2610.27       3497.87         12.31
   151.72       2611.11       3499.16         12.31
   151.73       2610.27       3498.04         12.31
   151.74       2610.27       3498.00         12.31
   151.75       2611.11       3499.00         12.31
   151.76       2610.27       3497.79         12.31
   151.77       2611.11       3498.92         12.31
   151.78       2610.27       3497.75         12.31
   151.79       2610.27       3497.83         12.31
   151.80       2611.11       3499.00         12.31
   151.81       2610.27       3497.87         12.31
   151.82       2610.27       3497.92         12.31
   151.83       2610.27       3497.83         12.31
   151.84       2610.27       3497.75         12.31
   151.85       2611.11       3498.75         12.31
   151.86       2610.27       3497.47         12.32
   151.87       2611.11       3498.51         12.32
   151.88       2610.27       3497.22         12.32
   151.89       2610.27       3497.10         12.32
   151.90       2611.11       3498.22         12.32
   151.91       2610.27       3497.01         12.32
   151.92       2611.11       3498.10         12.32
   151.93       2611.11       3498.10         12.32
   151.94       2610.27       3497.01         12.32
   151.95       2611.11       3498.22         12.32
   151.96       2610.27       3497.14         12.32
   151.97       2610.27       3497.22         12.32
   151.98       2610.27       3497.30         12.32
   151.99       2610.27       3497.38         12.32
   152.00       2611.11       3498.71         12.32
   152.01       2610.27       3497.67         12.31
   152.02       2610.27       3497.71         12.31
   152.03       2610.27       3497.79         12.31
   152.04       2610.27       3497.71         12.31
   152.05       2611.11       3498.71         12.32
   152.06       2610.27       3497.42         12.32
   152.07       2610.27       3497.26         12.32
   152.08       2611.11       3498.34         12.32
   152.09       2610.27       3497.14         12.32
   152.10       2611.11       3498.30         12.32
   152.11       2610.27       3497.10         12.32
   152.12       2610.27       3497.10         12.32
   152.13       2611.11       3498.26         12.32
   152.14       2610.27       3497.01         12.32
   152.15       2611.11       3498.14         12.32
   152.16       2610.27       3497.01         12.32
   152.17       2610.27       3497.10         12.32
   152.18       2611.11       3498.47         12.32
   152.19       2610.27       3497.51         12.32
   152.20       2611.11       3498.80         12.31
   152.21       2610.27       3497.75         12.31
   152.22       2610.27       3497.83         12.31
   152.23       2611.11       3499.04         12.31
   152.24       2610.27       3497.87         12.31
   152.25       2611.11       3499.08         12.31
   152.26       2610.27       3497.92         12.31
   152.27       2610.27       3497.87         12.31
   152.28       2611.11       3499.00         12.31
   152.29       2610.27       3497.75         12.31
   152.30       2611.11       3498.80         12.31
   152.31       2610.27       3497.55         12.32
   152.32       2610.27       3497.38         12.32
   152.33       2611.11       3498.39         12.32
   152.34       2610.27       3497.10         12.32
   152.35       2611.11       3498.14         12.32
   152.36       2610.27       3497.06         12.32
   152.37       2610.27       3497.18         12.32
   152.38       2611.11       3498.51         12.32
   152.39       2610.27       3497.55         12.32
   152.40       2610.27       3497.67         12.31
   152.41       2610.27       3497.71         12.31
   152.42       2610.27       3497.75         12.31
   152.43       2610.27       3497.83         12.31
   152.44       2610.27       3497.83         12.31
   152.45       2610.27       3497.71         12.31
   152.46       2609.43       3496.46         12.32
