#Written by Robertson Geologging WinLogger V1.5/410
~VERSION INFORMATION
#------------------------------------------------------------------------------
 VERS. 2.0 : CWLS LOG ASCII STANDARD - VERSION 2.0
 WRAP. NO  : ONE LINE PER DEPTH STEP
~WELL INFORMATION
#MNEM.UNIT         DATA                                DESCRIPTION OF MNEMONIC
#------------------------------------------------------------------------------
 STRT.M          0.0600                            :   START DEPTH
 STOP.M        264.8300                            :   STOP DEPTH
 STEP.M          0.0100                            :   STEP VALUE
 NULL.        -999.2500                            :   NULL VALUE
 COMP.    Coal Authority                           :   COMPANY NAME
 WELL.    Mainsforth Shaft                         :   WELL NAME
 FLD.     N/A                                      :   FIELD NAME
 LOC.     N/A                                      :   LOCATION
 PROV.    N/A                                      :   PROVINCE
 SRVC.    N/A                                      :   SERVICE COMPANY NAME
 DATE.    16 Dec 08                                :   DATE
 UWI.     N/A                                      :   UNIQUE WELL IDENTIFIER
~PARAMETER INFORMATION
#MNEMO.UNIT         VALUE                 DESCRIPTION OF MNEMONIC
#------------------------------------------------------------------------------
~OTHER INFORMATION SECTION
#------------------------------------------------------------------------------
 TCDS 1365
 16,12,2008
~CURVE INFORMATION
#MNEMO.UNIT         API CODE              CURVE DESCRIPTION
#------------------------------------------------------------------------------
 DEPTH.M                                 :   0     Depth
 TEMP.DegC                               :   1     Temperature
 COND.uS/cm                              :   2     Absolute Conductivity
 COND.uS/cm                              :   3     Conductivity@25DegC
 DELT.DegC                               :   4     Delta T
 DELC.uS/cm                              :   5     Delta C
 NGAM.CPS                                :   6     Natural Gamma
#------------------------------------------------------------------------------
~A  DEPTH          TEMP          COND          COND          DELT          DELC          NGAM
# ...
   246.88         13.99       3793.36       4864.43         -0.01          0.55          0.41
   246.89         13.99       3793.36       4864.49         -0.01         -3.54          0.41
   246.90         13.99       3796.60       4868.80         -0.01          2.55          0.41
   246.91         13.99       3795.21       4867.03         -0.01          3.09          0.41
   246.92         13.99       3793.36       4864.60         -0.01          0.72          0.41
   246.93         13.99       3795.21       4866.92         -0.01          0.56          0.41
   246.94         13.99       3796.60       4868.48         -0.01          4.43          0.41
   246.95         13.99       3795.21       4866.64         -0.01          2.49          0.41
   246.96         13.99       3795.21       4866.53         -0.00          2.27          0.41
   246.97         13.99       3795.21       4866.53         -0.00          2.16          0.82
   246.98         13.99       3793.82       4864.75         -0.00         -1.56          0.82
   246.99         13.99       3795.21       4866.48          0.00          1.78          0.82
   247.00         13.99       3797.06       4868.85          0.00          6.25          0.41
   247.01         13.99       3793.82       4864.53          0.01         -2.44          0.41
   247.02         13.99       3795.21       4866.37          0.01         -0.66          0.41
   247.03         13.99       3797.06       4868.74          0.01         -0.23          0.41
   247.04         13.99       3793.82       4864.64          0.01         -0.23          0.41
   247.05         13.99       3795.67       4867.13          0.01          2.31          0.41
   247.06         13.99       3797.06       4868.96          0.00         -0.01          0.41
   247.07         13.99       3793.82       4864.97          0.00         -3.83          0.41
   247.08         13.99       3793.82       4865.03          0.00          0.59          0.41
   247.09         13.99       3797.06       4869.18         -0.00          4.91          0.41
   247.10         13.99       3797.06       4869.29         -0.00          0.98          0.41
   247.11         13.99       3793.82       4865.19         -0.01         -2.90          0.41
   247.12         13.99       3795.21       4867.13         -0.01          3.30          0.41
   247.13         13.99       3793.82       4865.47         -0.01          1.53          0.41
   247.14         13.99       3791.97       4863.15         -0.01         -3.11          0.00
   247.15         13.99       3795.21       4867.24         -0.01         -0.79          0.00
   247.16         13.99       3793.36       4864.76         -0.01         -1.66          0.00
   247.17         13.99       3791.97       4862.98         -0.01         -1.01          0.00
   247.18         13.99       3793.36       4864.71         -0.00         -1.77          0.00
   247.19         13.99       3795.21       4867.08         -0.00          0.44          0.00
   247.20         13.99       3793.36       4864.71         -0.00         -1.99          0.00
   247.21         13.99       3791.97       4862.76         -0.00         -3.99          0.00
   247.22         13.99       3793.36       4864.49         -0.00         -2.32          0.00
   247.23         13.99       3795.21       4866.75          0.00         -0.05          0.00
   247.24         13.99       3796.60       4868.59         -0.00         -0.38          0.00
   247.25         13.99       3795.21       4866.92         -0.00          0.49          0.00
   247.26         13.99       3793.36       4864.65         -0.01          0.12          0.00
   247.27         13.99       3795.21       4867.19         -0.01          0.93          0.00
   247.28         13.99       3796.60       4868.91         -0.01          0.28          0.00
   247.29         13.99       3795.21       4867.08         -0.01          2.60          0.00
   247.30         13.99       3793.36       4864.60         -0.01         -1.55          0.00
   247.31         13.99       3795.21       4867.03         -0.01          2.82          0.00
   247.32         13.99       3796.60       4868.91         -0.01          4.76          0.00
   247.33         13.99       3795.21       4867.19         -0.01          4.76          0.00
   247.34         13.99       3793.36       4864.98         -0.01          0.72          0.00
   247.35         13.99       3795.21       4867.24         -0.01          2.82          0.00
   247.36         13.99       3795.21       4867.19         -0.01          2.60          0.00
   247.37         13.99       3795.21       4867.08         -0.01          2.49          0.00
   247.38         13.99       3795.21       4866.97         -0.01          2.44          0.00
   247.39         13.99       3795.21       4866.97         -0.00          2.38          0.00
   247.40         13.99       3795.21       4866.97         -0.01          0.66          0.00
   247.41         13.99       3793.82       4865.36         -0.01          0.71          0.00
   247.42         13.99       3791.97       4863.09         -0.01         -3.44          0.00
   247.43         13.99       3793.82       4865.52         -0.01         -0.85          0.00
   247.44         13.99       3795.21       4867.41         -0.01          1.15          0.00
   247.45         13.99       3793.82       4865.57         -0.01         -0.57          0.00
   247.46         13.99       3793.82       4865.57         -0.01         -0.47          0.00
   247.47         13.99       3795.21       4867.30         -0.01          1.20          0.00
   247.48         13.99       3793.82       4865.63         -0.01         -0.57          0.00
   247.49         13.99       3791.97       4863.31         -0.01         -1.22          0.00
   247.50         13.98       3793.82       4865.79         -0.01          3.52          0.00
   247.51         13.98       3793.82       4865.90         -0.01          1.10          0.00
   247.52         13.98       3795.21       4867.68         -0.01          1.04          0.00
   247.53         13.98       3797.06       4870.17         -0.01          5.14          0.00
   247.54         13.98       3795.21       4867.90         -0.01          4.98          0.00
   247.55         13.98       3793.82       4866.07         -0.00         -1.34          0.00
   247.56         13.98       3795.21       4867.79         -0.00          0.05          0.00
   247.57         13.98       3795.21       4867.68          0.00          3.88          0.00
   247.58         13.99       3795.21       4867.52          0.00          3.66          0.00
   247.59         13.99       3795.21       4867.30          0.00         -0.60          0.00
   247.60         13.99       3797.06       4869.45          0.01         -0.17          0.00
   247.61         13.99       3795.21       4866.92          0.01         -0.88          0.00
   247.62         13.99       3795.21       4866.64          0.01          1.22          0.00
   247.63         13.99       3795.21       4866.42          0.01         -1.37          0.00
   247.64         14.00       3795.21       4866.15          0.01         -3.20          0.00
   247.65         14.00       3793.82       4864.10          0.01         -3.31          0.00
   247.66         14.00       3795.21       4865.82          0.01          1.11          0.00
   247.67         14.00       3797.06       4868.19          0.01          5.60          0.00
   247.68         14.00       3793.82       4864.10          0.01         -0.17          0.00
   247.69         14.00       3793.82       4864.26          0.00         -2.27          0.00
   247.70         14.00       3793.82       4864.26          0.00          0.05          0.00
   247.71         14.00       3795.21       4866.10          0.01          3.50          0.00
   247.72         14.00       3793.82       4864.32          0.01         -0.22          0.00
   247.73         14.00       3795.21       4866.15          0.01         -0.82          0.00
