#Written by Robertson Geologging WinLogger V1.5/410
~VERSION INFORMATION
#------------------------------------------------------------------------------
 VERS. 2.0 : CWLS LOG ASCII STANDARD - VERSION 2.0
 WRAP. NO  : ONE LINE PER DEPTH STEP
~WELL INFORMATION
#MNEM.UNIT         DATA                                DESCRIPTION OF MNEMONIC
#------------------------------------------------------------------------------
 STRT.M          0.0100                            :   START DEPTH
 STOP.M        254.5000                            :   STOP DEPTH
 STEP.M          0.0100                            :   STEP VALUE
 NULL.        -999.2500                            :   NULL VALUE
 COMP.    I.W.S.                                   :   COMPANY NAME
 WELL.    MAINSFORTH SHAFT                         :   WELL NAME
 FLD.     N/A                                      :   FIELD NAME
 LOC.     N/A                                      :   LOCATION
 PROV.    N/A                                      :   PROVINCE
 SRVC.    N/A                                      :   SERVICE COMPANY NAME
 DATE.    02 Dec 11                                :   DATE
 UWI.     N/A                                      :   UNIQUE WELL IDENTIFIER
~PARAMETER INFORMATION
#MNEMO.UNIT         VALUE                 DESCRIPTION OF MNEMONIC
#------------------------------------------------------------------------------
~OTHER INFORMATION SECTION
#------------------------------------------------------------------------------
 1365 LOW
~CURVE INFORMATION
#MNEMO.UNIT         API CODE              CURVE DESCRIPTION
#------------------------------------------------------------------------------
 DEPTH.M                                 :   0     Depth
 COND.uS/cm                              :   1     Absolute Conductivity
 COND.uS/cm                              :   2     Conductivity@25DegC
 TEMP.DegC                               :   3     Temperature
#------------------------------------------------------------------------------
~A  DEPTH          COND          COND          TEMP
# ...
    16.95       1557.30       2163.63         10.99
    16.96       1557.30       2163.63         10.99
    16.97       1556.04       2161.91         10.99
    16.98       1557.30       2163.61         10.99
    16.99       1556.04       2161.94         10.99
    17.00       1556.04       2161.91         10.99
    17.01       1559.40       2166.49         10.99
    17.02       1559.40       2166.55         10.99
    17.03       1560.65       2168.24         10.99
    17.04       1559.40       2166.55         10.99
    17.05       1559.40       2166.63         10.99
    17.06       1556.04       2162.02         10.99
    17.07       1560.24       2167.84         10.99
    17.08       1560.24       2167.74         10.99
    17.09       1556.88       2162.97         10.99
    17.10       1556.88       2162.82         10.99
    17.11       1556.88       2162.84         10.99
    17.12       1556.88       2162.97         10.99
    17.13       1556.88       2163.13         10.99
    17.14       1555.62       2161.54         10.98
    17.15       1556.88       2163.26         10.98
    17.16       1556.88       2163.10         10.99
    17.17       1558.98       2165.89         10.99
    17.18       1556.04       2161.73         10.99
    17.19       1556.04       2161.68         10.99
    17.20       1559.40       2166.44         10.99
    17.21       1559.40       2166.42         10.99
    17.22       1559.40       2166.42         10.99
    17.23       1559.40       2166.42         10.99
    17.24       1559.40       2166.31         10.99
    17.25       1559.40       2166.34         10.99
    17.26       1559.40       2166.36         10.99
    17.27       1559.40       2166.49         10.99
    17.28       1559.40       2166.63         10.99
    17.29       1556.04       2162.02         10.99
    17.30       1560.24       2167.90         10.99
    17.31       1558.98       2166.12         10.99
    17.32       1556.88       2163.29         10.98
    17.33       1556.88       2163.34         10.98
    17.34       1556.88       2163.37         10.98
    17.35       1556.88       2163.37         10.98
    17.36       1556.88       2163.24         10.99
    17.37       1556.88       2163.13         10.99
    17.38       1556.88       2163.10         10.99
    17.39       1556.88       2163.10         10.99
    17.40       1560.24       2167.87         10.99
    17.41       1556.04       2162.12         10.98
    17.42       1556.04       2162.04         10.99
    17.43       1559.40       2166.60         10.99
    17.44       1559.40       2166.42         10.99
    17.45       1558.14       2164.62         10.99
    17.46       1559.40       2166.44         10.99
    17.47       1559.40       2166.60         10.99
    17.48       1558.14       2165.06         10.98
    17.49       1559.40       2166.89         10.98
    17.50       1559.40       2166.94         10.98
    17.51       1559.40       2167.02         10.98
    17.52       1559.40       2167.07         10.98
    17.53       1559.40       2167.28         10.98
    17.54       1559.40       2167.55         10.97
    17.55       1559.40       2167.76         10.97
    17.56       1559.40       2167.89         10.97
    17.57       1556.04       2163.15         10.97
    17.58       1560.24       2168.77         10.97
    17.59       1560.24       2168.63         10.97
    17.60       1556.88       2163.89         10.97
    17.61       1556.88       2163.84         10.97
    17.62       1559.82       2167.79         10.98
    17.63       1557.72       2164.69         10.98
    17.64       1557.72       2164.48         10.98
    17.65       1560.66       2168.37         10.99
    17.66       1558.56       2165.38         10.99
    17.67       1558.56       2165.23         10.99
    17.68       1560.66       2168.08         10.99
    17.69       1557.72       2164.03         10.99
    17.70       1557.72       2163.98         10.99
    17.71       1559.82       2166.79         10.99
    17.72       1561.07       2168.46         11.00
    17.73       1556.88       2162.53         11.00
    17.74       1560.24       2167.13         11.00
    17.75       1560.24       2167.16         11.00
    17.76       1556.04       2161.31         11.00
    17.77       1558.14       2164.22         11.00
    17.78       1559.40       2165.99         11.00
    17.79       1559.40       2165.99         11.00
    17.80       1559.40       2165.99         11.00
    17.81       1559.40       2165.97         11.00
    17.82       1559.40       2166.07         11.00
    17.83       1559.40       2166.13         11.00
    17.84       1559.40       2166.18         10.99
    17.85       1558.14       2164.54         10.99
    17.86       1559.40       2166.28         10.99
    17.87       1559.40       2166.28         10.99
    17.88       1559.40       2166.23         10.99
    17.89       1559.40       2166.18         10.99
    17.90       1559.40       2166.23         10.99
    17.91       1556.04       2161.65         10.99
    17.92       1560.24       2167.61         10.99
    17.93       1560.24       2167.71         10.99
    17.94       1556.88       2163.03         10.99
    17.95       1556.88       2163.00         10.99
    17.96       1561.07       2168.80         10.99
    17.97       1557.72       2164.06         10.99
    17.98       1557.72       2164.06         10.99
    17.99       1558.98       2165.81         10.99
    18.00       1557.72       2163.93         10.99
    18.01       1557.72       2163.77         11.00
    18.02       1561.07       2168.22         11.00
    18.03       1556.88       2162.13         11.00
    18.04       1556.88       2161.87         11.01
    18.05       1560.24       2166.40         11.01
    18.06       1560.24       2166.29         11.01
    18.07       1556.04       2160.34         11.01
    18.08       1559.40       2165.00         11.01
    18.09       1559.40       2164.94         11.01
    18.10       1558.14       2163.14         11.02
    18.11       1559.40       2165.02         11.01
    18.12       1559.40       2165.13         11.01
    18.13       1559.40       2165.39         11.01
    18.14       1559.40       2165.63         11.00
    18.15       1559.40       2165.86         11.00
    18.16       1559.40       2166.07         11.00
    18.17       1559.40       2166.18         10.99
    18.18       1559.40       2166.34         10.99
    18.19       1559.40       2166.44         10.99
    18.20       1559.40       2166.49         10.99
    18.21       1559.40       2166.57         10.99
    18.22       1559.40       2166.65         10.99
    18.23       1559.40       2166.68         10.99
    18.24       1558.14       2164.90         10.99
    18.25       1556.04       2161.97         10.99
    18.26       1560.24       2167.66         10.99
    18.27       1558.98       2165.86         10.99
    18.28       1556.88       2162.92         10.99
    18.29       1561.07       2168.67         10.99
    18.30       1559.82       2166.87         10.99
    18.31       1557.72       2163.85         10.99
    18.32       1557.72       2163.77         11.00
    18.33       1557.72       2163.61         11.00
    18.34       1557.72       2163.53         11.00
    18.35       1557.72       2163.48         11.00
    18.36       1561.07       2168.09         11.00
    18.37       1556.88       2162.32         11.00
    18.38       1556.88       2162.26         11.00
    18.39       1560.24       2166.84         11.00
    18.40       1556.04       2161.02         11.00
    18.41       1557.30       2162.72         11.00
    18.42       1559.40       2165.73         11.00
    18.43       1559.40       2165.78         11.00
    18.44       1559.40       2165.81         11.00
    18.45       1559.40       2165.81         11.00
    18.46       1560.65       2167.43         11.00
    18.47       1559.40       2165.60         11.00
    18.48       1559.40       2165.52         11.01
