#Written by Robertson Geologging WinLogger V1.5/410
~VERSION INFORMATION
#------------------------------------------------------------------------------
 VERS. 2.0 : CWLS LOG ASCII STANDARD - VERSION 2.0
 WRAP. NO  : ONE LINE PER DEPTH STEP
~WELL INFORMATION
#MNEM.UNIT         DATA                                DESCRIPTION OF MNEMONIC
#------------------------------------------------------------------------------
 STRT.M          0.0100                            :   START DEPTH
 STOP.M        255.2200                            :   STOP DEPTH
 STEP.M          0.0100                            :   STEP VALUE
 NULL.        -999.2500                            :   NULL VALUE
 COMP.    IWS                                      :   COMPANY NAME
 WELL.    Mainsforth                               :   WELL NAME
 FLD.     N/A                                      :   FIELD NAME
 LOC.     N/A                                      :   LOCATION
 PROV.    N/A                                      :   PROVINCE
 SRVC.    N/A                                      :   SERVICE COMPANY NAME
 DATE.    01 Feb 11                                :   DATE
 UWI.     N/A                                      :   UNIQUE WELL IDENTIFIER
~PARAMETER INFORMATION
#MNEMO.UNIT         VALUE                 DESCRIPTION OF MNEMONIC
#------------------------------------------------------------------------------
~OTHER INFORMATION SECTION
#------------------------------------------------------------------------------
 1365
~CURVE INFORMATION
#MNEMO.UNIT         API CODE              CURVE DESCRIPTION
#------------------------------------------------------------------------------
 DEPTH.M                                 :   0     Depth
 CN25.uS/cm                              :   1     Conductivity@25DegC
 TEMP.DegC                               :   2     Temperature
 DELT.DegC                               :   3     Delta T
 DELC.uS/cm                              :   4     Delta C
#------------------------------------------------------------------------------
~A  DEPTH          CN25          TEMP          DELT          DELC
# ...
   202.53       3931.08         12.93          0.00         11.69
   202.54       3927.71         12.93          0.00          7.35
   202.55       3927.62         12.94          0.01          8.32
   202.56       3927.53         12.94          0.01          4.21
   202.57       3927.48         12.94          0.01          6.29
   202.58       3926.42         12.94          0.01          2.37
   202.59       3927.66         12.94          0.01          6.38
   202.60       3930.66         12.93          0.00         10.58
   202.61       3927.94         12.93          0.01          6.61
   202.62       3926.83         12.93          0.01          5.37
   202.63       3926.87         12.93          0.01          5.32
   202.64       3927.34         12.93          0.01          4.45
   202.65       3926.27         12.93          0.01          4.63
   202.66       3927.43         12.93          0.01          4.90
   202.67       3930.20         12.93          0.00         11.78
   202.68       3927.52         12.93         -0.00          6.14
   202.69       3927.57         12.93         -0.00          9.00
   202.70       3927.47         12.93          0.00          6.09
   202.71       3927.38         12.93          0.00          4.71
   202.72       3926.23         12.93          0.00          4.58
   202.73       3927.43         12.93          0.00          4.62
   202.74       3931.40         12.93          0.00          9.56
   202.75       3928.26         12.93          0.00          6.47
   202.76       3928.35         12.93          0.00          5.31
   202.77       3931.63         12.93          0.00          9.52
   202.78       3928.81         12.93          0.01          5.55
   202.79       3927.70         12.93          0.01          5.32
   202.80       3932.18         12.93          0.01          9.84
   202.81       3931.30         12.93          0.00         11.96
   202.82       3928.62         12.93          0.00          6.60
   202.83       3933.15         12.92         -0.00         10.20
   202.84       3932.08         12.92         -0.00          9.28
   202.85       3929.18         12.93         -0.00          6.51
   202.86       3931.81         12.93         -0.00          9.32
   202.87       3932.69         12.93         -0.00         11.36
   202.88       3929.23         12.93         -0.00          6.83
   202.89       3932.00         12.93         -0.00          9.51
   202.90       3933.15         12.93         -0.00         10.62
   202.91       3932.64         12.93         -0.00         10.06
   202.92       3933.71         12.93          0.00          8.22
   202.93       3936.48         12.93          0.00         13.76
   202.94       3933.15         12.93          0.00         11.54
   202.95       3934.17         12.93          0.00         12.56
   202.96       3936.94         12.93          0.00         15.29
   202.97       3934.17         12.93          0.00         12.42
   202.98       3936.98         12.93          0.00         11.27
   202.99       3937.08         12.93          0.00         11.32
   203.00       3937.12         12.93          0.00         11.36
   203.01       3937.12         12.93          0.00         11.32
   203.02       3937.58         12.93          0.00         11.69
   203.03       3936.34         12.93          0.01         14.18
   203.04       3936.85         12.93          0.01         14.65
   203.05       3935.65         12.93          0.01          9.48
   203.06       3939.02         12.93          0.01         12.71
   203.07       3939.11         12.93          0.01         12.76
   203.08       3939.11         12.93          0.01         12.62
   203.09       3939.11         12.93          0.01         16.55
   203.10       3942.30         12.93          0.01         19.78
   203.11       3938.14         12.94          0.01         12.85
   203.12       3941.06         12.94          0.02         14.70
   203.13       3940.78         12.94          0.02         15.49
   203.14       3944.43         12.94          0.02         18.08
   203.15       3940.92         12.95          0.02         15.72
   203.16       3944.71         12.95          0.03         22.28
   203.17       3944.43         12.95          0.03         19.33
   203.18       3944.11         12.95          0.03         19.01
   203.19       3943.79         12.96          0.03         18.73
   203.20       3943.47         12.96          0.04         18.36
   203.21       3943.29         12.96          0.04         14.77
   203.22       3947.12         12.96          0.04         22.47
   203.23       3943.80         12.96          0.04         19.11
   203.24       3943.33         12.96          0.04         18.69
   203.25       3943.93         12.96          0.04         19.38
   203.26       3946.70         12.96          0.04         18.32
   203.27       3946.75         12.96          0.03         18.59
   203.28       3946.75         12.96          0.03         22.61
   203.29       3942.96         12.96          0.03         17.90
   203.30       3946.38         12.96          0.03         18.68
   203.31       3946.47         12.96          0.03         18.90
   203.32       3945.96         12.96          0.02         21.95
   203.33       3946.47         12.96          0.02         21.58
   203.34       3949.28         12.96          0.02         21.85
   203.35       3946.33         12.96          0.02         19.08
   203.36       3945.73         12.96          0.02         18.48
   203.37       3945.55         12.96          0.02         22.13
   203.38       3945.92         12.96          0.02         18.99
   203.39       3949.79         12.96          0.03         22.78
   203.40       3954.13         12.96          0.03         27.02
   203.41       3953.53         12.96          0.03         30.16
   203.42       3954.04         12.96          0.03         26.15
   203.43       3958.42         12.96          0.03         31.41
   203.44       3958.38         12.96          0.04         31.14
   203.45       3962.76         12.96          0.04         35.48
   203.46       3965.53         12.96          0.04         37.18
   203.47       3969.86         12.97          0.04         42.81
   203.48       3974.34         12.97          0.03         46.45
   203.49       3974.25         12.97          0.03         47.00
   203.50       3974.06         12.97          0.03         45.75
   203.51       3977.80         12.97          0.03         50.60
   203.52       3982.09         12.97          0.04         51.01
   203.53       3985.83         12.97          0.04         58.12
   203.54       3985.64         12.97          0.04         58.02
   203.55       3992.60         12.98          0.04         65.08
   203.56       3992.28         12.98          0.04         64.80
   203.57       3996.52         12.98          0.04         70.10
   203.58       4000.16         12.98          0.05         72.50
   203.59       3999.93         12.98          0.05         69.27
   203.60       4007.49         12.99          0.05         79.56
   203.61       4007.31         12.99          0.06         80.48
   203.62       4010.99         12.99          0.06         84.12
   203.63       4014.03         12.99          0.06         86.70
   203.64       4017.63         13.00          0.06         91.35
   203.65       4020.71         13.00          0.07         93.28
   203.66       4021.17         13.00          0.07         90.97
   203.67       4024.35         13.00          0.07         96.83
   203.68       4027.94         13.00          0.07        100.38
   203.69       4030.38         13.01          0.07        102.91
   203.70       4033.78         13.01          0.08        106.40
   203.71       4036.13         13.01          0.08        109.90
   203.72       4039.62         13.02          0.09        112.20
   203.73       4043.03         13.02          0.09        111.63
   203.74       4045.92         13.03          0.10        117.67
