#Written by Robertson Geologging WinLogger V1.5/410
~VERSION INFORMATION
#------------------------------------------------------------------------------
 VERS. 2.0 : CWLS LOG ASCII STANDARD - VERSION 2.0
 WRAP. NO  : ONE LINE PER DEPTH STEP
~WELL INFORMATION
#MNEM.UNIT         DATA                                DESCRIPTION OF MNEMONIC
#------------------------------------------------------------------------------
 STRT.M          0.0100                            :   START DEPTH
 STOP.M        255.2200                            :   STOP DEPTH
 STEP.M          0.0100                            :   STEP VALUE
 NULL.        -999.2500                            :   NULL VALUE
 COMP.    IWS                                      :   COMPANY NAME
 WELL.    Mainsforth                               :   WELL NAME
 FLD.     N/A                                      :   FIELD NAME
 LOC.     N/A                                      :   LOCATION
 PROV.    N/A                                      :   PROVINCE
 SRVC.    N/A                                      :   SERVICE COMPANY NAME
 DATE.    01 Feb 11                                :   DATE
 UWI.     N/A                                      :   UNIQUE WELL IDENTIFIER
~PARAMETER INFORMATION
#MNEMO.UNIT         VALUE                 DESCRIPTION OF MNEMONIC
#------------------------------------------------------------------------------
~OTHER INFORMATION SECTION
#------------------------------------------------------------------------------
 1365
~CURVE INFORMATION
#MNEMO.UNIT         API CODE              CURVE DESCRIPTION
#------------------------------------------------------------------------------
 DEPTH.M                                 :   0     Depth
 CN25.uS/cm                              :   1     Conductivity@25DegC
 TEMP.DegC                               :   2     Temperature
 DELT.DegC                               :   3     Delta T
 DELC.uS/cm                              :   4     Delta C
#------------------------------------------------------------------------------
~A  DEPTH          CN25          TEMP          DELT          DELC
# ...
    84.19       3232.26         11.72          0.00         -0.27
    84.20       3231.69         11.72          0.00         -0.19
    84.21       3232.18         11.72          0.00          0.42
    84.22       3232.15         11.73          0.00          0.42
    84.23       3232.07         11.73          0.00          0.42
    84.24       3232.07         11.73          0.00          0.46
    84.25       3232.11         11.73          0.00          0.57
    84.26       3232.11         11.73          0.00          0.46
    84.27       3232.11         11.73          0.00          0.34
    84.28       3231.54         11.73          0.00         -0.35
    84.29       3232.11         11.73          0.01         -0.01
    84.30       3231.50         11.73          0.01         -0.70
    84.31       3232.11         11.73          0.01         -0.74
    84.32       3231.50         11.73          0.01         -1.39
    84.33       3231.99         11.73          0.01         -0.93
    84.34       3231.42         11.73          0.01         -1.50
    84.35       3231.91         11.73          0.01         -0.85
    84.36       3231.30         11.73          0.01         -1.39
    84.37       3231.95         11.73          0.01         -0.58
    84.38       3231.46         11.73          0.00         -0.96
    84.39       3232.07         11.73          0.00         -0.31
    84.40       3231.61         11.72          0.00         -1.22
    84.41       3232.30         11.72         -0.00          0.23
    84.42       3231.81         11.72         -0.01          3.90
    84.43       3232.53         11.72         -0.01          1.35
    84.44       3232.04         11.72         -0.01          4.97
    84.45       3232.69         11.72         -0.01          5.01
    84.46       3232.16         11.72         -0.01          4.85
    84.47       3232.73         11.72         -0.01          4.66
    84.48       3232.12         11.72         -0.01          3.90
    84.49       3232.61         11.72         -0.00          4.31
    84.50       3232.00         11.72         -0.00          3.66
    84.51       3232.57         11.72         -0.00          4.77
    84.52       3228.61         11.72         -0.00          0.08
    84.53       3228.61         11.72          0.00         -4.00
    84.54       3228.65         11.72         -0.00         -0.46
    84.55       3228.65         11.72         -0.00         -4.38
    84.56       3228.61         11.72         -0.00         -3.73
    84.57       3228.65         11.72         -0.00         -3.61
    84.58       3228.61         11.72         -0.00         -3.69
    84.59       3229.18         11.72         -0.00         -2.51
    84.60       3228.61         11.72         -0.00         -3.65
    84.61       3229.18         11.72         -0.00         -2.47
    84.62       3228.57         11.72         -0.00         -3.58
    84.63       3232.49         11.72         -0.00          0.96
    84.64       3232.46         11.72         -0.00          1.57
    84.65       3232.30         11.72         -0.00          0.77
    84.66       3232.91         11.72         -0.00          1.87
    84.67       3232.38         11.72         -0.00          1.30
    84.68       3233.03         11.72         -0.00          1.30
    84.69       3232.61         11.72         -0.00          1.49
    84.70       3232.69         11.72         -0.00          0.96
    84.71       3233.38         11.72         -0.01          2.18
    84.72       3232.88         11.72         -0.01          1.69
    84.73       3233.49         11.72         -0.01          2.22
    84.74       3232.96         11.72         -0.01          1.69
    84.75       3233.53         11.72         -0.01          2.22
    84.76       3232.96         11.72         -0.00          1.57
    84.77       3232.96         11.72         -0.00          1.57
    84.78       3232.88         11.72         -0.00          0.88
    84.79       3232.16         11.72         -0.00          0.69
    84.80       3232.57         11.72          0.00          1.10
    84.81       3231.92         11.72          0.00          0.95
    84.82       3231.88         11.72          0.00          0.22
    84.83       3231.92         11.72          0.00          0.22
    84.84       3231.39         11.72          0.00         -0.39
    84.85       3231.96         11.72          0.00          0.14
    84.86       3231.39         11.72          0.01         -0.47
    84.87       3231.47         11.72          0.00         -0.43
    84.88       3231.55         11.72          0.00         -0.43
    84.89       3231.74         11.72          0.00         -0.23
    84.90       3231.97         11.71         -0.00          0.08
    84.91       3232.13         11.71         -0.00          0.35
    84.92       3232.13         11.71         -0.01         -0.11
    84.93       3232.05         11.71         -0.01          0.50
    84.94       3231.86         11.72         -0.00          0.27
    84.95       3231.66         11.72         -0.00          0.04
    84.96       3231.58         11.72          0.00         -0.12
    84.97       3231.51         11.72          0.00         -0.84
    84.98       3232.00         11.72          0.00          0.22
    84.99       3231.24         11.72          0.01         -0.54
    85.00       3234.47         11.72          0.01          2.69
    85.01       3230.92         11.73          0.01         -0.81
    85.02       3233.67         11.73          0.01          1.28
    85.03       3230.31         11.73          0.01         -1.46
    85.04       3233.21         11.73          0.01          0.98
    85.05       3233.29         11.73          0.01          1.25
    85.06       3234.02         11.72          0.00          2.25
    85.07       3233.48         11.72         -0.00          1.95
    85.08       3234.13         11.72         -0.01          2.75
    85.09       3233.56         11.72         -0.01          2.18
    85.10       3233.56         11.72         -0.01          2.18
    85.11       3230.62         11.72         -0.00         -0.79
    85.12       3233.94         11.72         -0.00          2.48
    85.13       3231.04         11.72         -0.00         -0.42
    85.14       3234.35         11.73         -0.00          2.90
    85.15       3231.46         11.73          0.00         -0.04
    85.16       3231.42         11.73          0.00         -0.73
    85.17       3230.81         11.73          0.00         -0.80
    85.18       3231.42         11.73          0.00         -0.84
    85.19       3230.89         11.73          0.00         -0.80
    85.20       3231.61         11.72          0.00         -0.57
    85.21       3231.81         11.72         -0.00         -0.34
    85.22       3232.04         11.72         -0.01         -0.03
    85.23       3232.16         11.72         -0.01          0.09
    85.24       3231.62         11.72         -0.01         -0.48
    85.25       3232.19         11.72         -0.01          0.09
    85.26       3231.58         11.72         -0.01         -0.52
    85.27       3232.19         11.72         -0.01          0.66
    85.28       3232.23         11.72         -0.01          0.13
    85.29       3232.31         11.72         -0.01          0.81
    85.30       3232.92         11.72         -0.01          0.82
    85.31       3232.27         11.72         -0.01          0.78
    85.32       3232.77         11.72         -0.01          0.78
    85.33       3232.12         11.72         -0.01          0.70
    85.34       3232.69         11.72         -0.01          0.78
    85.35       3232.81         11.72         -0.01          1.50
    85.36       3232.92         11.72         -0.01          0.97
    85.37       3233.00         11.72         -0.01          1.54
    85.38       3233.04         11.72         -0.01          0.97
    85.39       3233.04         11.72         -0.01          1.43
    85.40       3233.00         11.72         -0.01          0.70
