#Written by Robertson Geologging WinLogger V1.5/410
~VERSION INFORMATION
#------------------------------------------------------------------------------
 VERS. 2.0 : CWLS LOG ASCII STANDARD - VERSION 2.0
 WRAP. NO  : ONE LINE PER DEPTH STEP
~WELL INFORMATION
#MNEM.UNIT         DATA                                DESCRIPTION OF MNEMONIC
#------------------------------------------------------------------------------
 STRT.M          0.0100                            :   START DEPTH
 STOP.M        255.2200                            :   STOP DEPTH
 STEP.M          0.0100                            :   STEP VALUE
 NULL.        -999.2500                            :   NULL VALUE
 COMP.    IWS                                      :   COMPANY NAME
 WELL.    Mainsforth                               :   WELL NAME
 FLD.     N/A                                      :   FIELD NAME
 LOC.     N/A                                      :   LOCATION
 PROV.    N/A                                      :   PROVINCE
 SRVC.    N/A                                      :   SERVICE COMPANY NAME
 DATE.    01 Feb 11                                :   DATE
 UWI.     N/A                                      :   UNIQUE WELL IDENTIFIER
~PARAMETER INFORMATION
#MNEMO.UNIT         VALUE                 DESCRIPTION OF MNEMONIC
#------------------------------------------------------------------------------
~OTHER INFORMATION SECTION
#------------------------------------------------------------------------------
 1365
~CURVE INFORMATION
#MNEMO.UNIT         API CODE              CURVE DESCRIPTION
#------------------------------------------------------------------------------
 DEPTH.M                                 :   0     Depth
 CN25.uS/cm                              :   1     Conductivity@25DegC
 TEMP.DegC                               :   2     Temperature
 DELT.DegC                               :   3     Delta T
 DELC.uS/cm                              :   4     Delta C
#------------------------------------------------------------------------------
~A  DEPTH          CN25          TEMP          DELT          DELC
# ...
   152.51       3650.07         12.51         -0.00          2.33
   152.52       3650.02         12.51         -0.00          2.33
   152.53       3647.70         12.51          0.00         -2.24
   152.54       3650.37         12.51          0.00          0.39
   152.55       3650.20         12.51          0.00          3.02
   152.56       3649.90         12.52          0.01          0.56
   152.57       3647.31         12.52          0.01         -2.02
   152.58       3647.01         12.52          0.01         -2.15
   152.59       3649.00         12.52          0.01         -1.03
   152.60       3648.95         12.53          0.01         -0.86
   152.61       3646.76         12.52          0.01         -1.76
   152.62       3646.71         12.53          0.01         -1.85
   152.63       3646.80         12.52          0.01         -2.88
   152.64       3650.24         12.52          0.00          0.65
   152.65       3646.41         12.52          0.00         -3.10
   152.66       3646.63         12.52          0.00         -1.68
   152.67       3646.84         12.52         -0.00         -1.51
   152.68       3649.29         12.52         -0.00         -0.26
   152.69       3650.63         12.51         -0.00          0.86
   152.70       3650.89         12.51         -0.00          1.94
   152.71       3647.05         12.51         -0.00         -2.11
   152.72       3649.25         12.51          0.00         -1.21
   152.73       3650.24         12.51          0.00         -0.13
   152.74       3650.03         12.51          0.00          0.82
   152.75       3648.78         12.52          0.00         -0.43
   152.76       3648.78         12.52          0.00          1.98
   152.77       3649.85         12.52          0.00          3.19
   152.78       3649.85         12.52         -0.00          2.33
   152.79       3649.81         12.52         -0.00          3.70
   152.80       3648.65         12.52         -0.00          2.67
   152.81       3649.72         12.52         -0.01          2.80
   152.82       3649.72         12.52         -0.01          2.84
   152.83       3649.72         12.52         -0.01          2.75
   152.84       3648.73         12.52         -0.01          1.72
   152.85       3650.03         12.51         -0.01          2.97
   152.86       3650.07         12.51         -0.01          1.89
   152.87       3650.07         12.51         -0.01         -0.43
   152.88       3648.91         12.51         -0.01         -1.73
   152.89       3649.94         12.52         -0.00          2.41
   152.90       3649.85         12.52          0.00         -1.72
   152.91       3649.77         12.52          0.00         -1.77
   152.92       3648.61         12.52          0.00          0.47
   152.93       3649.77         12.52         -0.00          1.81
   152.94       3649.85         12.52         -0.00          3.19
   152.95       3649.94         12.52         -0.00          2.15
   152.96       3649.94         12.52         -0.00          2.15
   152.97       3649.90         12.52         -0.00          3.23
   152.98       3649.85         12.52         -0.00          3.14
   152.99       3647.61         12.52         -0.00         -0.17
   153.00       3650.46         12.52         -0.01          0.56
   153.01       3650.59         12.51         -0.01          3.44
   153.02       3648.43         12.51         -0.01          1.20
   153.03       3648.39         12.51         -0.01         -1.17
   153.04       3647.23         12.51         -0.00         -3.58
   153.05       3648.30         12.51         -0.00         -2.50
   153.06       3648.22         12.52         -0.00         -1.47
   153.07       3647.14         12.52         -0.00         -2.54
   153.08       3648.35         12.51         -0.00         -2.46
   153.09       3648.39         12.51         -0.00         -2.46
   153.10       3651.79         12.51         -0.00          4.31
   153.11       3647.91         12.51         -0.00          0.39
   153.12       3647.83         12.51         -0.00          1.38
   153.13       3650.03         12.51         -0.00          2.41
   153.14       3651.19         12.51         -0.00          3.53
   153.15       3651.19         12.51         -0.00          4.61
   153.16       3650.15         12.51         -0.00          2.37
   153.17       3651.40         12.51         -0.00          3.57
   153.18       3651.45         12.51         -0.00          3.62
   153.19       3650.37         12.51         -0.00          2.41
   153.20       3650.54         12.51         -0.00          2.54
   153.21       3650.63         12.51         -0.00          0.30
   153.22       3650.50         12.51         -0.00          0.13
   153.23       3650.41         12.51         -0.00         -0.99
   153.24       3651.36         12.51         -0.00          1.25
   153.25       3650.07         12.51         -0.00          0.13
   153.26       3649.90         12.52         -0.00          0.13
   153.27       3650.80         12.52          0.00          1.12
   153.28       3649.34         12.52          0.00         -0.26
   153.29       3648.95         12.53          0.01         -0.60
   153.30       3648.78         12.53          0.01          0.43
   153.31       3646.33         12.53          0.01         -1.93
   153.32       3649.04         12.53          0.01         -0.21
   153.33       3649.21         12.53          0.01          0.00
   153.34       3647.15         12.53          0.00         -1.03
   153.35       3646.20         12.52          0.01         -2.19
   153.36       3646.33         12.52          0.01         -2.41
   153.37       3650.42         12.52          0.01          0.31
   153.38       3647.23         12.52          0.01         -1.85
   153.39       3647.49         12.52          0.01         -1.72
   153.40       3647.83         12.51          0.00         -1.46
   153.41       3648.00         12.51          0.00         -1.33
   153.42       3651.36         12.51          0.00          0.86
   153.43       3647.40         12.51          0.00         -2.07
   153.44       3647.31         12.51          0.01         -2.28
   153.45       3649.47         12.51          0.01         -0.30
   153.46       3653.34         12.51          0.01          3.49
   153.47       3651.06         12.52          0.01          3.54
   153.48       3647.01         12.52          0.01         -3.18
   153.49       3649.08         12.52          0.01         -1.03
   153.50       3648.99         12.52          0.01         -1.07
   153.51       3652.87         12.52          0.01          2.85
   153.52       3652.87         12.52          0.01          5.17
   153.53       3649.60         12.52          0.01         -0.77
   153.54       3649.64         12.52          0.01         -0.56
   153.55       3649.73         12.52          0.00         -0.17
   153.56       3653.73         12.52         -0.00          6.42
   153.57       3649.94         12.52         -0.01          2.93
   153.58       3650.11         12.51         -0.01          1.11
   153.59       3650.20         12.51         -0.01          1.24
   153.60       3654.20         12.51         -0.01          7.45
   153.61       3654.25         12.51         -0.01          7.53
   153.62       3648.09         12.51         -0.01          1.29
   153.63       3648.04         12.51         -0.01         -2.20
   153.64       3650.33         12.51         -0.01          3.91
   153.65       3654.20         12.51         -0.01          7.58
   153.66       3651.79         12.51         -0.00          4.95
   153.67       3647.74         12.51         -0.00         -1.55
   153.68       3647.57         12.52          0.00         -3.06
   153.69       3653.60         12.52          0.01          2.72
   153.70       3651.36         12.52          0.01          4.31
   153.71       3647.40         12.52          0.01         -1.85
   153.72       3647.19         12.52          0.01         -3.05
