#Written by Robertson Geologging WinLogger V1.5/410
~VERSION INFORMATION
#------------------------------------------------------------------------------
 VERS. 2.0 : CWLS LOG ASCII STANDARD - VERSION 2.0
 WRAP. NO  : ONE LINE PER DEPTH STEP
~WELL INFORMATION
#MNEM.UNIT         DATA                                DESCRIPTION OF MNEMONIC
#------------------------------------------------------------------------------
 STRT.M          0.0600                            :   START DEPTH
 STOP.M        264.8300                            :   STOP DEPTH
 STEP.M          0.0100                            :   STEP VALUE
 NULL.        -999.2500                            :   NULL VALUE
 COMP.    Coal Authority                           :   COMPANY NAME
 WELL.    Mainsforth Shaft                         :   WELL NAME
 FLD.     N/A                                      :   FIELD NAME
 LOC.     N/A                                      :   LOCATION
 PROV.    N/A                                      :   PROVINCE
 SRVC.    N/A                                      :   SERVICE COMPANY NAME
 DATE.    16 Dec 08                                :   DATE
 UWI.     N/A                                      :   UNIQUE WELL IDENTIFIER
~PARAMETER INFORMATION
#MNEMO.UNIT         VALUE                 DESCRIPTION OF MNEMONIC
#------------------------------------------------------------------------------
~OTHER INFORMATION SECTION
#------------------------------------------------------------------------------
 TCDS 1365
 16,12,2008
~CURVE INFORMATION
#MNEMO.UNIT         API CODE              CURVE DESCRIPTION
#------------------------------------------------------------------------------
 DEPTH.M                                 :   0     Depth
 TEMP.DegC                               :   1     Temperature
 COND.uS/cm                              :   2     Absolute Conductivity
 COND.uS/cm                              :   3     Conductivity@25DegC
 DELT.DegC                               :   4     Delta T
 DELC.uS/cm                              :   5     Delta C
 NGAM.CPS                                :   6     Natural Gamma
#------------------------------------------------------------------------------
~A  DEPTH          TEMP          COND          COND          DELT          DELC          NGAM
# ...
    70.58         11.29       1688.24       2326.15         -0.01          0.53          0.35
    70.59         11.29       1688.24       2326.01         -0.01          1.00          0.35
    70.60         11.29       1690.77       2329.29         -0.00          3.15          0.35
    70.61         11.30       1687.82       2325.09         -0.00          0.17          0.35
    70.62         11.30       1687.82       2325.04         -0.00          0.17          0.35
    70.63         11.30       1687.82       2324.98         -0.00         -1.07          0.35
    70.64         11.30       1687.82       2324.95         -0.00          0.06          0.35
    70.65         11.30       1687.82       2324.95         -0.00         -1.13          0.35
    70.66         11.30       1687.82       2324.98         -0.00         -0.55          0.35
    70.67         11.30       1690.77       2329.07          0.00          3.42          0.35
    70.68         11.30       1688.67       2326.25          0.00         -0.63          0.35
    70.69         11.29       1687.82       2325.21          0.00         -4.69          0.35
    70.70         11.29       1688.67       2326.48          0.00         -0.61          0.35
    70.71         11.29       1688.24       2325.98         -0.00          0.03          0.00
    70.72         11.29       1689.09       2327.23         -0.00         -2.84          0.00
    70.73         11.29       1689.09       2327.23         -0.00          0.03          0.00
    70.74         11.29       1689.09       2327.17          0.00          1.07          0.00
    70.75         11.29       1689.09       2327.11          0.00         -0.14          0.00
    70.76         11.29       1689.93       2328.16          0.00         -1.97          0.00
    70.77         11.29       1689.09       2326.94          0.01          0.82          0.00
    70.78         11.29       1689.09       2326.94          0.00         -0.25          0.00
    70.79         11.29       1689.09       2326.94          0.00         -3.18          0.00
    70.80         11.29       1689.09       2326.94          0.00         -0.31          0.00
    70.81         11.29       1689.09       2326.94          0.00          0.85          0.00
    70.82         11.29       1689.09       2326.92          0.01         -0.39          0.00
    70.83         11.29       1689.09       2326.89          0.01         -0.39          0.00
    70.84         11.30       1689.09       2326.86          0.01         -0.37          0.00
    70.85         11.29       1689.09       2326.94          0.00         -1.36          0.00
    70.86         11.29       1689.09       2327.03          0.00         -0.14          0.00
    70.87         11.29       1689.09       2327.14          0.00         -0.08          0.00
    70.88         11.29       1689.09       2327.23          0.00         -1.22          0.00
    70.89         11.29       1689.09       2327.20          0.00         -0.20          0.00
    70.90         11.29       1689.09       2327.08          0.00          2.62          0.00
    70.91         11.29       1689.09       2327.00          0.01         -0.34          0.00
    70.92         11.29       1689.09       2326.94          0.01         -1.58          0.00
    70.93         11.29       1689.09       2326.89          0.01         -0.45          0.00
    70.94         11.30       1686.56       2323.36          0.01         -1.14          0.35
    70.95         11.30       1686.56       2323.30          0.01         -1.25          0.35
    70.96         11.30       1686.56       2323.13          0.01         -4.29          0.35
    70.97         11.30       1686.56       2322.96          0.01         -5.56          0.35
    70.98         11.31       1686.56       2322.74          0.02         -1.61          0.35
    70.99         11.31       1686.56       2322.54          0.02         -5.18          0.35
    71.00         11.31       1686.56       2322.43          0.02         -5.18          0.35
    71.01         11.31       1686.56       2322.43          0.02         -5.21          0.35
    71.02         11.31       1686.56       2322.46          0.02         -1.12          0.35
    71.03         11.31       1686.56       2322.46          0.02         -4.60          0.35
    71.04         11.31       1686.56       2322.49          0.02         -5.76          0.35
    71.05         11.31       1688.24       2324.86          0.02         -2.20          0.35
    71.06         11.31       1689.09       2326.10          0.01         -0.93          0.35
    71.07         11.31       1691.19       2329.05          0.01          2.03          0.35
    71.08         11.30       1688.24       2325.11          0.01         -1.89          0.35
    71.09         11.30       1688.24       2325.17          0.01         -1.84          0.35
    71.10         11.30       1691.19       2329.31          0.01          5.76          0.35
    71.11         11.30       1689.09       2326.52          0.01         -1.11          0.00
    71.12         11.30       1688.24       2325.36          0.01         -2.27          0.00
    71.13         11.30       1688.24       2325.42          0.01         -2.25          0.00
    71.14         11.30       1690.77       2328.87          0.01          4.71          0.00
    71.15         11.30       1688.67       2325.97          0.01          1.84          0.00
    71.16         11.30       1688.67       2326.00          0.01         -2.16          0.00
    71.17         11.30       1688.67       2326.03          0.01         -2.19          0.00
    71.18         11.30       1688.67       2326.08          0.01          1.87          0.00
    71.19         11.30       1689.51       2327.21          0.01          0.05          0.00
    71.20         11.30       1688.67       2326.14          0.01         -2.24          0.00
    71.21         11.30       1686.56       2323.24          0.01         -5.09          0.00
    71.22         11.30       1688.67       2326.11          0.01          1.84          0.00
    71.23         11.30       1689.51       2327.33          0.01         -0.37          0.00
    71.24         11.30       1689.51       2327.24          0.01         -0.37          0.00
    71.25         11.30       1686.98       2323.79          0.00         -3.76          0.00
    71.26         11.30       1689.09       2326.69          0.00         -0.81          0.00
    71.27         11.30       1689.93       2327.79          0.00          0.33          0.00
    71.28         11.30       1689.09       2326.63          0.00         -0.75          0.00
    71.29         11.30       1686.98       2323.74          0.00         -3.65          0.00
    71.30         11.30       1689.09       2326.69          0.00          2.21          0.00
    71.31         11.30       1689.93       2327.82          0.00          0.44          0.00
    71.32         11.30       1689.09       2326.66          0.00         -0.81          0.00
    71.33         11.30       1689.51       2327.24          0.00         -0.17          0.00
    71.34         11.30       1688.67       2326.06          0.00          2.07          0.00
    71.35         11.30       1689.51       2327.30          0.00         -0.80          0.00
    71.36         11.30       1689.51       2327.24          0.01          0.24          0.00
    71.37         11.30       1689.51       2327.21          0.01          0.07          0.00
    71.38         11.30       1689.51       2327.21          0.01          0.05          0.00
    71.39         11.30       1689.51       2327.21          0.01          0.02          0.00
    71.40         11.30       1688.67       2326.14          0.01         -1.03          0.00
    71.41         11.30       1689.09       2326.75          0.01         -0.36          0.00
    71.42         11.30       1689.09       2326.83          0.00         -0.25          0.00
    71.43         11.30       1689.09       2326.86          0.00          1.02          0.00
