#Written by Robertson Geologging WinLogger V1.5/410
~VERSION INFORMATION
#------------------------------------------------------------------------------
 VERS. 2.0 : CWLS LOG ASCII STANDARD - VERSION 2.0
 WRAP. NO  : ONE LINE PER DEPTH STEP
~WELL INFORMATION
#MNEM.UNIT         DATA                                DESCRIPTION OF MNEMONIC
#------------------------------------------------------------------------------
 STRT.M          0.0600                            :   START DEPTH
 STOP.M        264.8300                            :   STOP DEPTH
 STEP.M          0.0100                            :   STEP VALUE
 NULL.        -999.2500                            :   NULL VALUE
 COMP.    Coal Authority                           :   COMPANY NAME
 WELL.    Mainsforth Shaft                         :   WELL NAME
 FLD.     N/A                                      :   FIELD NAME
 LOC.     N/A                                      :   LOCATION
 PROV.    N/A                                      :   PROVINCE
 SRVC.    N/A                                      :   SERVICE COMPANY NAME
 DATE.    16 Dec 08                                :   DATE
 UWI.     N/A                                      :   UNIQUE WELL IDENTIFIER
~PARAMETER INFORMATION
#MNEMO.UNIT         VALUE                 DESCRIPTION OF MNEMONIC
#------------------------------------------------------------------------------
~OTHER INFORMATION SECTION
#------------------------------------------------------------------------------
 TCDS 1365
 16,12,2008
~CURVE INFORMATION
#MNEMO.UNIT         API CODE              CURVE DESCRIPTION
#------------------------------------------------------------------------------
 DEPTH.M                                 :   0     Depth
 TEMP.DegC                               :   1     Temperature
 COND.uS/cm                              :   2     Absolute Conductivity
 COND.uS/cm                              :   3     Conductivity@25DegC
 DELT.DegC                               :   4     Delta T
 DELC.uS/cm                              :   5     Delta C
 NGAM.CPS                                :   6     Natural Gamma
#------------------------------------------------------------------------------
~A  DEPTH          TEMP          COND          COND          DELT          DELC          NGAM
# ...
   211.62         12.38       2798.19       3743.06          0.00         -1.95          0.41
   211.63         12.38       2798.19       3743.11          0.00         -1.95          0.41
   211.64         12.38       2799.52       3744.93          0.00          1.56          0.00
   211.65         12.38       2798.19       3743.20          0.00          2.02          0.00
   211.66         12.38       2798.19       3743.20          0.00          1.89          0.00
   211.67         12.38       2796.41       3740.91          0.01         -2.94          0.00
   211.68         12.38       2798.19       3743.24          0.01         -0.79          0.00
   211.69         12.38       2798.19       3743.15          0.01         -1.01          0.00
   211.70         12.38       2798.19       3743.20          0.01         -1.01          0.00
   211.71         12.38       2798.19       3743.06          0.01         -1.14          0.00
   211.72         12.38       2796.86       3741.24          0.01         -2.88          0.00
   211.73         12.38       2795.08       3738.91          0.01         -5.03          0.35
   211.74         12.38       2796.86       3741.20          0.01         -2.57          0.35
   211.75         12.38       2796.86       3741.20          0.01         -4.08          0.35
   211.76         12.38       2798.19       3743.06          0.00         -0.13          0.35
   211.77         12.38       2796.86       3741.15          0.00         -1.78          0.76
   211.78         12.38       2796.86       3741.07         -0.00          0.73          0.76
   211.79         12.38       2796.86       3741.02         -0.00          0.73          0.76
   211.80         12.38       2796.86       3740.89          0.00         -3.56          0.76
   211.81         12.38       2796.86       3740.98          0.00         -3.56          0.76
   211.82         12.38       2796.86       3741.07          0.00         -3.60          0.76
   211.83         12.38       2798.19       3742.85          0.00          2.29          0.76
   211.84         12.38       2798.19       3742.89          0.00          2.20          0.76
   211.85         12.38       2798.19       3742.85          0.00         -0.31          0.76
   211.86         12.38       2798.19       3742.85          0.00         -0.35          0.76
   211.87         12.38       2798.19       3742.93          0.00         -2.17          0.76
   211.88         12.38       2798.19       3743.15          0.00         -0.31          0.76
   211.89         12.37       2798.19       3743.46          0.00         -0.13          0.76
   211.90         12.37       2796.41       3741.39         -0.00         -2.29          0.41
   211.91         12.37       2798.19       3743.99         -0.00          0.26          0.41
   211.92         12.37       2799.52       3745.81         -0.00          2.13          0.41
   211.93         12.37       2799.52       3745.85         -0.00          2.26          0.41
   211.94         12.37       2798.19       3744.08         -0.00          0.40          0.00
   211.95         12.37       2798.19       3744.08         -0.00          0.35          0.00
   211.96         12.37       2796.41       3741.79         -0.00          0.40          0.00
   211.97         12.37       2798.19       3744.12         -0.00          0.22          0.00
   211.98         12.37       2798.19       3743.99         -0.00          0.13          0.00
   211.99         12.37       2799.52       3745.63         -0.00          0.04          0.00
   212.00         12.37       2798.19       3743.59          0.00         -0.18          0.00
   212.01         12.37       2798.19       3743.42          0.00         -0.18          0.00
   212.02         12.38       2796.41       3741.00          0.00         -2.55          0.00
   212.03         12.38       2796.41       3740.91          0.00         -2.51          0.00
   212.04         12.38       2798.19       3743.37          0.00          1.73          0.00
   212.05         12.37       2799.52       3745.28         -0.00          1.87          0.00
   212.06         12.37       2799.52       3745.33         -0.00          1.95          0.00
   212.07         12.37       2798.19       3743.64         -0.00         -2.20          0.41
   212.08         12.37       2796.41       3741.31         -0.00         -2.11          0.41
   212.09         12.37       2796.41       3741.31         -0.00         -0.33          0.41
   212.10         12.37       2796.41       3741.31         -0.00         -0.29          0.41
   212.11         12.37       2799.52       3745.55         -0.00         -0.15          0.41
   212.12         12.37       2799.52       3745.55         -0.00         -0.15          0.41
   212.13         12.37       2799.52       3745.46         -0.00          2.22          0.41
   212.14         12.37       2798.19       3743.68         -0.00          2.17          0.41
   212.15         12.37       2796.41       3741.22         -0.00         -1.98          0.41
   212.16         12.37       2798.19       3743.46         -0.00          0.35          0.41
   212.17         12.37       2798.19       3743.46         -0.01         -1.80          0.82
   212.18         12.37       2799.52       3745.33         -0.01          2.61          0.82
   212.19         12.37       2798.19       3743.64         -0.01          0.92          0.82
   212.20         12.37       2798.19       3743.77         -0.01         -0.72          0.82
   212.21         12.37       2796.86       3742.12         -0.01         -0.77          0.82
   212.22         12.37       2795.08       3739.70         -0.01         -0.99          0.82
   212.23         12.37       2796.86       3742.12         -0.01          1.30          0.82
   212.24         12.37       2796.86       3742.12         -0.01          1.17          0.41
   212.25         12.37       2796.86       3742.12         -0.00         -3.12          0.41
   212.26         12.37       2796.86       3742.17         -0.00         -3.16          0.41
   212.27         12.37       2791.98       3735.69         -0.00         -9.64          0.41
   212.28         12.37       2793.76       3738.06         -0.00         -3.25          0.41
   212.29         12.37       2793.76       3737.97         -0.00         -3.38          0.82
   212.30         12.37       2793.76       3737.93         -0.00         -3.51          0.82
   212.31         12.37       2793.76       3737.93          0.00         -6.02          0.82
   212.32         12.37       2795.09       3739.75          0.00         -5.97          0.82
   212.33         12.37       2796.86       3742.26         -0.00         -3.42          0.82
   212.34         12.37       2795.09       3739.97         -0.00         -5.66          0.41
   212.35         12.37       2795.09       3740.06         -0.00         -3.80          0.41
   212.36         12.37       2796.42       3741.79         -0.00          0.27          0.41
   212.37         12.37       2795.09       3739.93         -0.00         -1.64          0.41
   212.38         12.37       2798.19       3744.03          0.00          2.37          0.41
   212.39         12.37       2796.41       3741.53          0.00         -4.42          0.41
   212.40         12.37       2796.41       3741.44          0.00         -4.55          0.41
   212.41         12.37       2797.74       3743.17          0.00         -2.73          0.41
   212.42         12.37       2799.52       3745.46          0.00          3.84          0.41
   212.43         12.37       2799.52       3745.46          0.00          4.15          0.41
   212.44         12.37       2797.74       3743.09         -0.00         -0.33          0.41
   212.45         12.37       2797.74       3743.00         -0.00         -0.20          0.41
   212.46         12.37       2797.74       3743.00         -0.01         -1.71          0.00
   212.47         12.37       2796.41       3741.35         -0.01         -1.32          0.00
