#Written by Robertson Geologging WinLogger V1.5/410
~VERSION INFORMATION
#------------------------------------------------------------------------------
 VERS. 2.0 : CWLS LOG ASCII STANDARD - VERSION 2.0
 WRAP. NO  : ONE LINE PER DEPTH STEP
~WELL INFORMATION
#MNEM.UNIT         DATA                                DESCRIPTION OF MNEMONIC
#------------------------------------------------------------------------------
 STRT.M          0.0100                            :   START DEPTH
 STOP.M        254.5000                            :   STOP DEPTH
 STEP.M          0.0100                            :   STEP VALUE
 NULL.        -999.2500                            :   NULL VALUE
 COMP.    I.W.S.                                   :   COMPANY NAME
 WELL.    MAINSFORTH SHAFT                         :   WELL NAME
 FLD.     N/A                                      :   FIELD NAME
 LOC.     N/A                                      :   LOCATION
 PROV.    N/A                                      :   PROVINCE
 SRVC.    N/A                                      :   SERVICE COMPANY NAME
 DATE.    02 Dec 11                                :   DATE
 UWI.     N/A                                      :   UNIQUE WELL IDENTIFIER
~PARAMETER INFORMATION
#MNEMO.UNIT         VALUE                 DESCRIPTION OF MNEMONIC
#------------------------------------------------------------------------------
~OTHER INFORMATION SECTION
#------------------------------------------------------------------------------
 1365 LOW
~CURVE INFORMATION
#MNEMO.UNIT         API CODE              CURVE DESCRIPTION
#------------------------------------------------------------------------------
 DEPTH.M                                 :   0     Depth
 COND.uS/cm                              :   1     Absolute Conductivity
 COND.uS/cm                              :   2     Conductivity@25DegC
 TEMP.DegC                               :   3     Temperature
#------------------------------------------------------------------------------
~A  DEPTH          COND          COND          TEMP
# ...
   252.57       4009.06       5091.60         14.37
   252.58       4009.06       5091.54         14.37
   252.59       4009.06       5091.77         14.37
   252.60       4009.06       5092.00         14.37
   252.61       4009.91       5093.07         14.37
   252.62       4009.06       5092.00         14.37
   252.63       4009.06       5091.88         14.37
   252.64       4009.06       5091.83         14.37
   252.65       4009.06       5091.83         14.37
   252.66       4009.06       5091.77         14.37
   252.67       4009.06       5091.83         14.37
   252.68       4009.06       5092.00         14.37
   252.69       4009.06       5092.28         14.36
   252.70       4009.06       5092.45         14.36
   252.71       4009.06       5092.51         14.36
   252.72       4008.22       5091.61         14.36
   252.73       4008.22       5091.83         14.36
   252.74       4011.59       5096.45         14.36
   252.75       4008.22       5092.34         14.36
   252.76       4008.22       5092.34         14.36
   252.77       4008.22       5092.11         14.36
   252.78       4008.22       5091.66         14.36
   252.79       4011.59       5095.49         14.36
   252.80       4009.06       5091.77         14.37
   252.81       4009.06       5091.54         14.37
   252.82       4009.06       5091.49         14.37
   252.83       4009.06       5091.54         14.37
   252.84       4009.06       5091.60         14.37
   252.85       4009.06       5091.43         14.37
   252.86       4009.06       5091.26         14.37
   252.87       4009.06       5091.21         14.37
   252.88       4009.06       5091.26         14.37
   252.89       4009.06       5091.54         14.37
   252.90       4006.54       5088.68         14.37
   252.91       4009.06       5092.17         14.37
   252.92       4009.06       5092.28         14.36
   252.93       4009.06       5092.34         14.36
   252.94       4009.06       5092.28         14.36
   252.95       4009.06       5092.11         14.37
   252.96       4009.06       5092.05         14.37
   252.97       4009.06       5092.00         14.37
   252.98       4009.06       5091.94         14.37
   252.99       4010.75       5094.08         14.37
   253.00       4010.75       5094.08         14.37
   253.01       4009.91       5092.95         14.37
   253.02       4009.91       5092.95         14.37
   253.03       4009.91       5092.78         14.37
   253.04       4006.54       5088.22         14.37
   253.05       4009.91       5092.33         14.37
   253.06       4010.75       5093.29         14.37
   253.07       4007.38       5089.07         14.37
   253.08       4010.75       5093.51         14.37
   253.09       4010.75       5093.63         14.37
   253.10       4009.06       5091.49         14.37
   253.11       4009.06       5091.49         14.37
   253.12       4009.06       5091.54         14.37
   253.13       4009.06       5091.66         14.37
   253.14       4009.91       5093.07         14.37
   253.15       4009.91       5093.41         14.36
   253.16       4009.91       5093.69         14.36
   253.17       4009.06       5092.68         14.36
   253.18       4009.06       5092.51         14.36
   253.19       4009.06       5092.22         14.36
   253.20       4009.91       5093.07         14.37
   253.21       4006.54       5088.79         14.37
   253.22       4009.91       5093.07         14.37
   253.23       4009.91       5093.01         14.37
   253.24       4006.54       5088.51         14.37
   253.25       4009.06       5091.49         14.37
   253.26       4009.91       5092.39         14.37
   253.27       4006.54       5088.05         14.37
   253.28       4009.91       5092.44         14.37
   253.29       4009.91       5092.61         14.37
   253.30       4009.91       5092.78         14.37
   253.31       4009.06       5091.77         14.37
   253.32       4009.06       5091.83         14.37
   253.33       4010.75       5093.91         14.37
   253.34       4010.75       5093.97         14.37
   253.35       4010.75       5094.02         14.37
   253.36       4010.75       5094.08         14.37
   253.37       4009.91       5093.18         14.37
   253.38       4009.91       5093.12         14.37
   253.39       4009.91       5093.18         14.37
   253.40       4009.91       5093.07         14.37
   253.41       4009.91       5092.84         14.37
   253.42       4010.75       5093.74         14.37
   253.43       4010.75       5093.51         14.37
   253.44       4009.06       5091.32         14.37
   253.45       4009.06       5091.32         14.37
   253.46       4005.70       5087.04         14.37
   253.47       4005.70       5086.93         14.37
   253.48       4005.70       5086.59         14.38
   253.49       4009.06       5090.53         14.38
   253.50       4006.54       5086.98         14.38
   253.51       4006.54       5086.87         14.38
   253.52       4006.54       5086.98         14.38
   253.53       4005.70       5085.97         14.38
   253.54       4005.70       5085.97         14.38
   253.55       4005.70       5085.80         14.38
   253.56       4005.70       5085.46         14.38
   253.57       4009.06       5089.57         14.39
   253.58       4010.75       5091.59         14.39
   253.59       4010.75       5091.71         14.39
   253.60       4007.38       5087.71         14.38
   253.61       4009.91       5091.14         14.38
   253.62       4009.91       5091.37         14.38
   253.63       4009.91       5091.60         14.38
   253.64       4009.91       5091.88         14.38
   253.65       4009.91       5092.16         14.37
   253.66       4009.91       5092.61         14.37
   253.67       4009.91       5092.84         14.37
   253.68       4013.27       5097.23         14.37
   253.69       4008.22       5090.93         14.37
   253.70       4009.06       5091.88         14.37
   253.71       4012.43       5096.11         14.37
   253.72       4009.06       5091.83         14.37
   253.73       4009.06       5091.71         14.37
   253.74       4009.06       5091.54         14.37
   253.75       4009.06       5091.32         14.37
   253.76       4009.06       5090.98         14.37
   253.77       4009.06       5090.64         14.38
   253.78       4009.06       5090.47         14.38
   253.79       4009.06       5090.30         14.38
   253.80       4009.91       5091.37         14.38
   253.81       4009.06       5090.41         14.38
   253.82       4009.06       5090.41         14.38
   253.83       4009.06       5090.47         14.38
   253.84       4009.06       5090.58         14.38
   253.85       4009.06       5090.87         14.38
   253.86       4009.06       5091.21         14.37
   253.87       4012.43       5095.94         14.37
   253.88       4009.06       5091.94         14.37
   253.89       4009.06       5092.00         14.37
   253.90       4009.06       5092.11         14.37
   253.91       4008.22       5090.98         14.37
   253.92       4009.06       5092.00         14.37
   253.93       4009.06       5091.94         14.37
   253.94       4009.06       5091.88         14.37
   253.95       4012.43       5096.11         14.37
   253.96       4009.06       5091.60         14.37
   253.97       4009.06       5091.43         14.37
   253.98       4009.06       5091.21         14.37
   253.99       4009.06       5091.04         14.37
   254.00       4009.06       5091.15         14.37
   254.01       4009.06       5091.15         14.37
   254.02       4009.06       5091.21         14.37
   254.03       4011.59       5094.41         14.37
   254.04       4008.22       5090.08         14.37
   254.05       4009.06       5091.15         14.37
   254.06       4009.06       5091.15         14.37
   254.07       4009.06       5091.26         14.37
   254.08       4009.06       5091.43         14.37
   254.09       4009.06       5091.54         14.37
   254.10       4009.06       5091.49         14.37
