#Written by Robertson Geologging WinLogger V1.5/410
~VERSION INFORMATION
#------------------------------------------------------------------------------
 VERS. 2.0 : CWLS LOG ASCII STANDARD - VERSION 2.0
 WRAP. NO  : ONE LINE PER DEPTH STEP
~WELL INFORMATION
#MNEM.UNIT         DATA                                DESCRIPTION OF MNEMONIC
#------------------------------------------------------------------------------
 STRT.M          0.0100                            :   START DEPTH
 STOP.M        255.2200                            :   STOP DEPTH
 STEP.M          0.0100                            :   STEP VALUE
 NULL.        -999.2500                            :   NULL VALUE
 COMP.    IWS                                      :   COMPANY NAME
 WELL.    Mainsforth                               :   WELL NAME
 FLD.     N/A                                      :   FIELD NAME
 LOC.     N/A                                      :   LOCATION
 PROV.    N/A                                      :   PROVINCE
 SRVC.    N/A                                      :   SERVICE COMPANY NAME
 DATE.    01 Feb 11                                :   DATE
 UWI.     N/A                                      :   UNIQUE WELL IDENTIFIER
~PARAMETER INFORMATION
#MNEMO.UNIT         VALUE                 DESCRIPTION OF MNEMONIC
#------------------------------------------------------------------------------
~OTHER INFORMATION SECTION
#------------------------------------------------------------------------------
 1365
~CURVE INFORMATION
#MNEMO.UNIT         API CODE              CURVE DESCRIPTION
#------------------------------------------------------------------------------
 DEPTH.M                                 :   0     Depth
 CN25.uS/cm                              :   1     Conductivity@25DegC
 TEMP.DegC                               :   2     Temperature
 DELT.DegC                               :   3     Delta T
 DELC.uS/cm                              :   4     Delta C
#------------------------------------------------------------------------------
~A  DEPTH          CN25          TEMP          DELT          DELC
# ...
   118.35       3396.72         11.97          0.24        121.89
   118.36       3396.19         11.97          0.24        124.91
   118.37       3399.60         11.98          0.25        128.48
   118.38       3399.03         11.98          0.25        124.19
   118.39       3402.40         11.99          0.25        123.91
   118.40       3401.79         12.00          0.26        123.57
   118.41       3401.22         12.00          0.26        123.16
   118.42       3400.57         12.01          0.27        122.55
   118.43       3404.02         12.02          0.27        121.96
   118.44       3403.57         12.02          0.28        121.51
   118.45       3403.25         12.02          0.28        121.23
   118.46       3403.17         12.02          0.28        117.27
   118.47       3407.14         12.02          0.28        117.97
   118.48       3407.18         12.02          0.28        114.20
   118.49       3407.18         12.02          0.27        114.44
   118.50       3407.18         12.02          0.27        114.64
   118.51       3407.22         12.02          0.27        114.84
   118.52       3407.22         12.02          0.27        108.71
   118.53       3411.27         12.02          0.26        112.96
   118.54       3407.34         12.02          0.26        109.23
   118.55       3411.39         12.02          0.26        109.60
   118.56       3411.39         12.02          0.25        105.88
   118.57       3411.19         12.02          0.25        105.83
   118.58       3410.91         12.03          0.25        101.79
   118.59       3410.54         12.03          0.26        101.66
   118.60       3413.62         12.03          0.26        100.98
   118.61       3410.58         12.04          0.26         94.19
   118.62       3413.66         12.04          0.26         93.55
   118.63       3413.29         12.04          0.26         93.42
   118.64       3408.92         12.05          0.26         85.33
   118.65       3412.44         12.05          0.26         89.17
   118.66       3412.03         12.06          0.26         88.96
   118.67       3411.79         12.06          0.26         85.08
   118.68       3411.63         12.06          0.26         85.48
   118.69       3411.55         12.06          0.25         85.91
   118.70       3411.55         12.06          0.25         82.44
   118.71       3412.11         12.06          0.24         85.04
   118.72       3412.11         12.06          0.24         85.31
   118.73       3412.76         12.06          0.24         86.28
   118.74       3412.88         12.06          0.23         85.09
   118.75       3417.01         12.06          0.22         89.70
   118.76       3413.13         12.06          0.22         86.29
   118.77       3413.17         12.06          0.21         84.49
   118.78       3413.69         12.06          0.21         85.33
   118.79       3417.54         12.06          0.21         89.38
   118.80       3413.45         12.06          0.21         81.38
   118.81       3413.37         12.06          0.21         85.37
   118.82       3413.33         12.06          0.21         83.86
   118.83       3416.16         12.06          0.20         86.85
   118.84       3416.20         12.06          0.20         84.77
   118.85       3413.37         12.06          0.20         86.12
   118.86       3413.37         12.06          0.20         82.30
   118.87       3417.37         12.06          0.20         86.46
   118.88       3417.54         12.06          0.19         85.12
   118.89       3417.01         12.06          0.19         88.70
   118.90       3413.08         12.06          0.19         80.82
   118.91       3417.66         12.06          0.19         89.58
   118.92       3417.50         12.06          0.19         87.34
   118.93       3417.37         12.06          0.19         83.39
   118.94       3417.17         12.06          0.19         83.47
   118.95       3413.04         12.06          0.18         77.87
   118.96       3415.83         12.06          0.18         80.90
   118.97       3415.75         12.07          0.18         81.06
   118.98       3415.75         12.07          0.18         77.27
   118.99       3415.59         12.07          0.18         77.23
   119.00       3416.12         12.07          0.18         69.91
   119.01       3416.20         12.07          0.18         70.11
   119.02       3415.67         12.07          0.17         65.64
   119.03       3415.88         12.06          0.17         62.47
   119.04       3415.96         12.06          0.17         62.59
   119.05       3416.08         12.06          0.17         62.79
   119.06       3420.65         12.06          0.17         63.50
   119.07       3416.60         12.06          0.17         55.55
   119.08       3416.60         12.06          0.17         55.63
   119.09       3416.48         12.06          0.17         51.65
   119.10       3416.28         12.07          0.17         51.64
   119.11       3415.63         12.07          0.16         51.28
   119.12       3419.48         12.07          0.16         55.48
   119.13       3419.43         12.07          0.16         55.84
   119.14       3420.08         12.07          0.15         54.54
   119.15       3416.24         12.07          0.15         50.97
   119.16       3416.36         12.07          0.14         47.36
   119.17       3415.92         12.06          0.14         51.13
   119.18       3420.00         12.06          0.14         51.52
   119.19       3420.00         12.06          0.13         51.80
   119.20       3420.00         12.06          0.13         52.09
   119.21       3420.13         12.06          0.13         48.51
   119.22       3420.09         12.06          0.12         48.75
   119.23       3420.13         12.06          0.12         48.95
   119.24       3420.04         12.06          0.12         45.01
   119.25       3419.27         12.06          0.12         44.40
   119.26       3420.20         12.07          0.12         41.56
   119.27       3419.96         12.07          0.12         41.55
   119.28       3419.84         12.07          0.12         37.70
   119.29       3419.80         12.07          0.12         33.88
   119.30       3419.88         12.07          0.12         30.10
   119.31       3419.92         12.07          0.11         30.27
   119.32       3420.00         12.07          0.11         30.55
   119.33       3420.04         12.07          0.11         26.86
   119.34       3419.96         12.07          0.10         23.24
   119.35       3420.04         12.07          0.10         23.85
   119.36       3420.04         12.07          0.09         20.44
   119.37       3422.87         12.07          0.09         23.84
   119.38       3422.87         12.07          0.08         20.48
   119.39       3422.23         12.07          0.07         20.44
   119.40       3422.14         12.07          0.07         20.92
   119.41       3422.06         12.07          0.06         21.49
   119.42       3422.06         12.07          0.06         18.04
   119.43       3422.02         12.07          0.05         18.45
   119.44       3419.27         12.07          0.05         16.02
   119.45       3419.31         12.07          0.05         16.14
   119.46       3419.31         12.07          0.05         12.17
   119.47       3423.89         12.07          0.05         16.71
   119.48       3423.89         12.07          0.05         16.71
   119.49       3419.96         12.07          0.05         12.78
   119.50       3420.57         12.07          0.05         13.35
   119.51       3421.13         12.07          0.05         13.91
   119.52       3421.09         12.07          0.05          9.82
   119.53       3421.17         12.07          0.05         13.83
   119.54       3421.34         12.07          0.05          9.94
   119.55       3424.33         12.06          0.04         12.94
   119.56       3424.62         12.06          0.04         13.43
