#Written by Robertson Geologging WinLogger V1.5/410
~VERSION INFORMATION
#------------------------------------------------------------------------------
 VERS. 2.0 : CWLS LOG ASCII STANDARD - VERSION 2.0
 WRAP. NO  : ONE LINE PER DEPTH STEP
~WELL INFORMATION
#MNEM.UNIT         DATA                                DESCRIPTION OF MNEMONIC
#------------------------------------------------------------------------------
 STRT.M          0.0600                            :   START DEPTH
 STOP.M        264.8300                            :   STOP DEPTH
 STEP.M          0.0100                            :   STEP VALUE
 NULL.        -999.2500                            :   NULL VALUE
 COMP.    Coal Authority                           :   COMPANY NAME
 WELL.    Mainsforth Shaft                         :   WELL NAME
 FLD.     N/A                                      :   FIELD NAME
 LOC.     N/A                                      :   LOCATION
 PROV.    N/A                                      :   PROVINCE
 SRVC.    N/A                                      :   SERVICE COMPANY NAME
 DATE.    16 Dec 08                                :   DATE
 UWI.     N/A                                      :   UNIQUE WELL IDENTIFIER
~PARAMETER INFORMATION
#MNEMO.UNIT         VALUE                 DESCRIPTION OF MNEMONIC
#------------------------------------------------------------------------------
~OTHER INFORMATION SECTION
#------------------------------------------------------------------------------
 TCDS 1365
 16,12,2008
~CURVE INFORMATION
#MNEMO.UNIT         API CODE              CURVE DESCRIPTION
#------------------------------------------------------------------------------
 DEPTH.M                                 :   0     Depth
 TEMP.DegC                               :   1     Temperature
 COND.uS/cm                              :   2     Absolute Conductivity
 COND.uS/cm                              :   3     Conductivity@25DegC
 DELT.DegC                               :   4     Delta T
 DELC.uS/cm                              :   5     Delta C
 NGAM.CPS                                :   6     Natural Gamma
#------------------------------------------------------------------------------
~A  DEPTH          TEMP          COND          COND          DELT          DELC          NGAM
     0.06          0.00          0.00          0.00          0.00          0.00          0.00
     0.07          0.00          0.00          0.00          0.00          0.00          0.00
     0.08          0.00          0.00          0.00          0.00          0.00          0.00
     0.09          0.00          0.00          0.00          0.00          0.00          0.00
     0.10          0.00          0.00          0.00          0.00          0.00          0.00
     0.11          0.00          0.00          0.00          0.00          0.00          0.00
     0.12          0.00          0.00          0.00          0.00          0.00          0.00
     0.13          0.00          0.00          0.00          0.00          0.00          0.00
     0.14          0.00          0.00          0.00          0.00          0.00          0.00
     0.15          0.00          0.00          0.00          0.00          0.00          0.00
     0.16          0.00          0.00          0.00          0.00          0.00          0.00
     0.17          0.00          0.00          0.00          0.00          0.00          0.00
     0.18          0.00          0.00          0.00          0.00          0.00          0.00
     0.19          0.00          0.00          0.00          0.00          0.00          0.00
     0.20          0.00          0.00          0.00          0.00          0.00          0.00
     0.21          0.00          0.00          0.00          0.00          0.00          0.00
     0.22          0.00          0.00          0.00          0.00          0.00          0.00
     0.23          0.00          0.00          0.00          0.00          0.00          0.00
     0.24          0.00          0.00          0.00          0.00          0.00          0.00
     0.25          0.00          0.00          0.00          0.00          0.00          0.00
     0.26          0.00          0.00          0.00          0.00          0.00          0.00
     0.27          0.00          0.00          0.00          0.00          0.00          0.00
     0.28          0.00          0.00          0.00          0.00          0.00          0.00
     0.29          0.00          0.00          0.00          0.00          0.00          0.00
     0.30          0.00          0.00          0.00          0.00          0.00          0.00
     0.31          0.00          0.00          0.00          0.00          0.00          0.00
     0.32          0.00          0.00          0.00          0.00          0.00          0.00
     0.33          0.00          0.00          0.00          0.00          0.00          0.00
     0.34          0.00          0.00          0.00          0.00          0.00          0.00
     0.35          0.00          0.00          0.00          0.00          0.00          0.00
     0.36          0.00          0.00          0.00          0.00          0.00          0.00
     0.37          0.00          0.00          0.00          0.00          0.00          0.00
     0.38          0.00          0.00          0.00          0.00          0.00          0.00
     0.39          0.00          0.00          0.00          0.00          0.00          0.00
     0.40          0.00          0.00          0.00          0.00          0.00          0.00
     0.41          0.00          0.00          0.00          0.00          0.00          0.00
     0.42          0.00          0.00          0.00          0.00          0.00          0.00
     0.43          0.00          0.00          0.00          0.00          0.00          0.00
     0.44          0.00          0.00          0.00          0.00          0.00          0.00
     0.45          0.00          0.00          0.00          0.00          0.00          0.00
     0.46          0.00          0.00          0.00          0.00          0.00          0.00
     0.47          0.00          0.00          0.00          0.00          0.00          0.00
     0.48          0.00          0.00          0.00          0.00          0.00          0.00
     0.49          0.00          0.00          0.00          0.00          0.00          0.00
     0.50          0.00          0.00          0.00          0.00          0.00          0.00
     0.51          0.00          0.00          0.00          0.00          0.00          0.00
     0.52          0.00          0.00          0.00          0.00          0.00          0.00
     0.53          0.00          0.00          0.00          0.00          0.00          0.00
     0.54          0.00          0.00          0.00          0.00          0.00          0.00
     0.55          0.00          0.00          0.00          0.00          0.00          0.00
     0.56          0.00          0.00          0.00          0.00          0.00          0.00
     0.57          0.00          0.00          0.00          0.00          0.00          0.00
     0.58          0.00          0.00          0.00          0.00          0.00          0.00
     0.59          0.00          0.00          0.00          0.00          0.00          0.00
     0.60          0.00          0.00          0.00          0.00          0.00          0.00
     0.61          0.00          0.00          0.00          0.00          0.00          0.00
     0.62          0.00          0.00          0.00          0.00          0.00          0.00
     0.63          0.00          0.00          0.00          0.00          0.00          0.00
     0.64          0.00          0.00          0.00          0.00          0.00          0.00
     0.65          0.00          0.00          0.00          0.00          0.00          0.00
     0.66          0.00          0.00          0.00          0.00          0.00          0.00
     0.67          0.00          0.00          0.00          0.00          0.00          0.00
     0.68          0.00          0.00          0.00          0.00          0.00          0.00
     0.69          0.00          0.00          0.00          0.00          0.00          0.00
     0.70          0.00          0.00          0.00          0.00          0.00          0.00
     0.71          0.00          0.00          0.00          0.00          0.00          0.00
     0.72          0.00          0.00          0.00          0.00          0.00          0.00
     0.73          0.00          0.00          0.00          0.00          0.00          0.00
     0.74          0.00          0.00          0.00          0.00          0.00          0.00
     0.75          0.00          0.00          0.00          0.00          0.00          0.00
     0.76          0.00          0.00          0.00          0.00          0.00          0.00
     0.77          0.00          0.00          0.00          0.00          0.00          0.00
     0.78          0.00          0.00          0.00          0.00          0.00          0.00
     0.79          0.00          0.00          0.00          0.00          0.00          0.00
     0.80          0.00          0.00          0.00          0.00          0.00          0.00
     0.81          0.00          0.00          0.00          0.00          0.00          0.00
     0.82          0.00          0.00          0.00          0.00          0.00          0.00
     0.83          0.00          0.00          0.00          0.00          0.00          0.00
     0.84          0.00          0.00          0.00          0.00          0.00          0.00
     0.85          0.00          0.00          0.00          0.00          0.00          0.00
     0.86          0.00          0.00          0.00          0.00          0.00          0.00
     0.87          0.00          0.00          0.00          0.00          0.00          0.00
     0.88          0.00          0.00          0.00          0.00          0.00          0.00
     0.89          0.00          0.00          0.00          0.00          0.00          0.00
     0.90          0.00          0.00          0.00          0.00          0.00          0.00
     0.91          0.00          0.00          0.00          0.00          0.00          0.00
