#Written by Robertson Geologging WinLogger V1.5/410
~VERSION INFORMATION
#------------------------------------------------------------------------------
 VERS. 2.0 : CWLS LOG ASCII STANDARD - VERSION 2.0
 WRAP. NO  : ONE LINE PER DEPTH STEP
~WELL INFORMATION
#MNEM.UNIT         DATA                                DESCRIPTION OF MNEMONIC
#------------------------------------------------------------------------------
 STRT.M          0.0600                            :   START DEPTH
 STOP.M        264.8300                            :   STOP DEPTH
 STEP.M          0.0100                            :   STEP VALUE
 NULL.        -999.2500                            :   NULL VALUE
 COMP.    Coal Authority                           :   COMPANY NAME
 WELL.    Mainsforth Shaft                         :   WELL NAME
 FLD.     N/A                                      :   FIELD NAME
 LOC.     N/A                                      :   LOCATION
 PROV.    N/A                                      :   PROVINCE
 SRVC.    N/A                                      :   SERVICE COMPANY NAME
 DATE.    16 Dec 08                                :   DATE
 UWI.     N/A                                      :   UNIQUE WELL IDENTIFIER
~PARAMETER INFORMATION
#MNEMO.UNIT         VALUE                 DESCRIPTION OF MNEMONIC
#------------------------------------------------------------------------------
~OTHER INFORMATION SECTION
#------------------------------------------------------------------------------
 TCDS 1365
 16,12,2008
~CURVE INFORMATION
#MNEMO.UNIT         API CODE              CURVE DESCRIPTION
#------------------------------------------------------------------------------
 DEPTH.M                                 :   0     Depth
 TEMP.DegC                               :   1     Temperature
 COND.uS/cm                              :   2     Absolute Conductivity
 COND.uS/cm                              :   3     Conductivity@25DegC
 DELT.DegC                               :   4     Delta T
 DELC.uS/cm                              :   5     Delta C
 NGAM.CPS                                :   6     Natural Gamma
#------------------------------------------------------------------------------
~A  DEPTH          TEMP          COND          COND          DELT          DELC          NGAM
# ...
   158.30         12.33       2790.21       3737.04         -0.00          0.68          0.41
   158.31         12.33       2791.54       3738.95         -0.00          2.50          0.00
   158.32         12.33       2791.54       3739.00         -0.00          2.46          0.00
   158.33         12.33       2788.44       3734.98         -0.00         -1.74          0.00
   158.34         12.33       2791.54       3739.22          0.00         -1.78          0.00
   158.35         12.33       2790.21       3737.48          0.00          2.92          0.00
   158.36         12.33       2791.54       3739.39          0.00          0.59          0.00
   158.37         12.33       2791.54       3739.39          0.00          0.59          0.00
   158.38         12.33       2791.54       3739.39          0.00          0.59          0.00
   158.39         12.33       2791.54       3739.31          0.00          2.24          0.00
   158.40         12.33       2788.44       3735.11          0.00         -1.87          0.00
   158.41         12.33       2789.77       3736.85          0.00         -4.20          0.00
   158.42         12.33       2789.77       3736.89         -0.00         -4.02          0.00
   158.43         12.33       2788.44       3735.24         -0.01         -1.25          0.00
   158.44         12.32       2791.54       3739.53         -0.01          3.16          0.00
   158.45         12.32       2791.54       3739.57         -0.01          3.34          0.00
   158.46         12.32       2792.87       3741.31         -0.01          1.01          0.00
   158.47         12.32       2792.87       3741.31         -0.01          1.01          0.00
   158.48         12.32       2789.77       3737.20         -0.01         -1.32          0.00
   158.49         12.32       2789.77       3737.33         -0.01         -1.19          0.00
   158.50         12.32       2789.77       3737.55         -0.01          1.36          0.00
   158.51         12.32       2792.87       3741.88         -0.01          5.56          0.41
   158.52         12.32       2791.54       3740.19         -0.01          3.74          0.41
   158.53         12.32       2791.54       3740.14         -0.01          3.60          0.41
   158.54         12.32       2792.87       3741.84         -0.01          0.97          0.41
   158.55         12.32       2789.77       3737.42         -0.01         -3.54          0.82
   158.56         12.32       2789.77       3737.24         -0.00          0.40          0.82
   158.57         12.32       2789.77       3737.20         -0.00          0.26          1.24
   158.58         12.32       2789.77       3737.20         -0.00          0.18          1.24
   158.59         12.32       2792.87       3741.48         -0.00          4.42          1.24
   158.60         12.32       2792.87       3741.57         -0.00          4.46          1.24
   158.61         12.32       2789.77       3737.46         -0.00         -3.80          1.24
   158.62         12.32       2789.77       3737.42         -0.00         -3.85          1.65
   158.63         12.32       2791.10       3739.11         -0.00         -0.33          1.65
   158.64         12.32       2791.10       3739.11         -0.00         -0.33          1.65
   158.65         12.32       2791.10       3739.11         -0.00          3.83          2.06
   158.66         12.32       2791.10       3739.15         -0.00          3.96          2.06
   158.67         12.32       2791.10       3739.24         -0.01          1.72          2.06
   158.68         12.32       2791.10       3739.24         -0.01          1.80          2.06
   158.69         12.32       2791.10       3739.20         -0.01          1.94          2.06
   158.70         12.32       2789.77       3737.33         -0.01         -1.67          2.06
   158.71         12.32       2789.77       3737.20         -0.01         -1.71          2.06
   158.72         12.33       2792.87       3741.26         -0.01          2.40          1.65
   158.73         12.33       2792.87       3741.22         -0.01          6.51          1.65
   158.74         12.33       2789.77       3736.98         -0.01          0.53          1.24
   158.75         12.33       2789.77       3736.85         -0.00          0.40          1.24
   158.76         12.33       2789.77       3736.76         -0.00         -3.85          1.24
   158.77         12.33       2791.54       3739.09         -0.00         -1.60          1.24
   158.78         12.33       2791.54       3739.13         -0.00         -1.60          1.24
   158.79         12.33       2791.54       3739.22         -0.00         -1.52          0.82
   158.80         12.33       2791.54       3739.09         -0.00          2.46          0.82
   158.81         12.33       2791.54       3739.00         -0.00          2.42          0.82
   158.82         12.33       2791.54       3738.87          0.00          2.20          0.41
   158.83         12.33       2788.44       3734.67          0.00         -2.09          0.41
   158.84         12.33       2788.44       3734.71          0.00         -6.20          0.41
   158.85         12.33       2790.21       3737.13          0.00         -3.87          0.00
   158.86         12.33       2790.21       3737.22          0.00          0.28          0.00
   158.87         12.33       2790.21       3737.26          0.00         -2.14          0.00
   158.88         12.33       2791.54       3739.17          0.00          3.93          0.00
   158.89         12.33       2791.54       3739.22          0.00          2.15          0.00
   158.90         12.33       2791.54       3739.26          0.00          2.19          0.00
   158.91         12.33       2788.44       3735.28         -0.00         -5.89          0.00
   158.92         12.32       2791.54       3739.53         -0.00         -1.69          0.00
   158.93         12.32       2788.44       3735.42         -0.00         -1.56          0.00
   158.94         12.33       2791.54       3739.49         -0.00          0.26          0.00
   158.95         12.33       2791.54       3739.31         -0.00          4.24          0.00
   158.96         12.33       2792.87       3740.96         -0.00          6.02          0.00
   158.97         12.33       2792.87       3740.92         -0.00          2.00          0.00
   158.98         12.33       2791.54       3739.09         -0.00          2.72          0.00
   158.99         12.33       2791.54       3739.00         -0.00          0.35          0.00
   159.00         12.33       2791.54       3738.96         -0.00          0.35          0.41
   159.01         12.33       2788.44       3734.67         -0.00         -3.98          0.41
   159.02         12.33       2791.54       3738.74          0.00         -0.04          0.41
   159.03         12.33       2789.77       3736.23          0.00          1.60          0.41
   159.04         12.33       2792.87       3740.34          0.00          1.51          0.41
   159.05         12.33       2792.87       3740.43          0.00          5.63          0.41
   159.06         12.33       2789.77       3736.41          0.00         -2.50          0.41
   159.07         12.33       2789.77       3736.63          0.00         -2.37          0.41
   159.08         12.33       2789.77       3736.71          0.00         -2.42          0.41
   159.09         12.33       2791.10       3738.58          0.00          1.10          0.82
   159.10         12.33       2791.10       3738.58          0.00         -0.86          0.82
   159.11         12.33       2788.00       3734.43          0.00         -5.10          0.82
   159.12         12.33       2791.10       3738.67          0.00          3.21          0.82
   159.13         12.33       2791.10       3738.76          0.00          0.88          0.82
   159.14         12.32       2791.10       3738.98          0.00         -3.14          0.82
   159.15         12.32       2789.77       3737.42          0.00         -0.68          0.82
