#Written by Robertson Geologging WinLogger V1.5/410
~VERSION INFORMATION
#------------------------------------------------------------------------------
 VERS. 2.0 : CWLS LOG ASCII STANDARD - VERSION 2.0
 WRAP. NO  : ONE LINE PER DEPTH STEP
~WELL INFORMATION
#MNEM.UNIT         DATA                                DESCRIPTION OF MNEMONIC
#------------------------------------------------------------------------------
 STRT.M          0.0600                            :   START DEPTH
 STOP.M        264.8300                            :   STOP DEPTH
 STEP.M          0.0100                            :   STEP VALUE
 NULL.        -999.2500                            :   NULL VALUE
 COMP.    Coal Authority                           :   COMPANY NAME
 WELL.    Mainsforth Shaft                         :   WELL NAME
 FLD.     N/A                                      :   FIELD NAME
 LOC.     N/A                                      :   LOCATION
 PROV.    N/A                                      :   PROVINCE
 SRVC.    N/A                                      :   SERVICE COMPANY NAME
 DATE.    16 Dec 08                                :   DATE
 UWI.     N/A                                      :   UNIQUE WELL IDENTIFIER
~PARAMETER INFORMATION
#MNEMO.UNIT         VALUE                 DESCRIPTION OF MNEMONIC
#------------------------------------------------------------------------------
~OTHER INFORMATION SECTION
#------------------------------------------------------------------------------
 TCDS 1365
 16,12,2008
~CURVE INFORMATION
#MNEMO.UNIT         API CODE              CURVE DESCRIPTION
#------------------------------------------------------------------------------
 DEPTH.M                                 :   0     Depth
 TEMP.DegC                               :   1     Temperature
 COND.uS/cm                              :   2     Absolute Conductivity
 COND.uS/cm                              :   3     Conductivity@25DegC
 DELT.DegC                               :   4     Delta T
 DELC.uS/cm                              :   5     Delta C
 NGAM.CPS                                :   6     Natural Gamma
#------------------------------------------------------------------------------
~A  DEPTH          TEMP          COND          COND          DELT          DELC          NGAM
# ...
   193.56         12.35       2796.42       3743.20          0.00         -0.26          1.18
   193.57         12.35       2796.42       3743.16          0.00         -0.39          1.18
   193.58         12.36       2795.09       3741.25          0.01         -0.06          0.76
   193.59         12.36       2793.31       3738.83          0.01         -0.61          0.76
   193.60         12.36       2796.42       3743.02          0.00         -0.39          0.76
   193.61         12.35       2796.42       3743.16          0.00         -0.17          0.76
   193.62         12.35       2795.09       3741.68         -0.00          2.69          0.76
   193.63         12.35       2793.31       3739.57         -0.01          0.62          0.76
   193.64         12.35       2793.31       3739.79         -0.01         -1.54          0.76
   193.65         12.34       2796.41       3744.03         -0.01          2.79          0.76
   193.66         12.35       2794.64       3741.61         -0.01          0.37          0.76
   193.67         12.35       2794.64       3741.61         -0.01          0.55          0.76
   193.68         12.35       2793.31       3739.79         -0.01          0.59          0.76
   193.69         12.35       2794.64       3741.61         -0.01          2.50          0.35
   193.70         12.34       2794.64       3741.70         -0.01          2.59          0.00
   193.71         12.34       2793.31       3739.92         -0.01          0.77          0.00
   193.72         12.34       2793.31       3739.88         -0.01         -1.70          0.00
   193.73         12.35       2794.64       3741.52         -0.01         -1.83          0.00
   193.74         12.35       2793.31       3739.57         -0.01         -2.13          0.00
   193.75         12.35       2793.31       3739.39         -0.01         -0.02          0.00
   193.76         12.35       2793.31       3739.22         -0.00         -0.29          0.00
   193.77         12.35       2795.08       3741.55         -0.00          1.96          0.00
   193.78         12.35       2795.08       3741.50         -0.00          1.91          0.00
   193.79         12.35       2795.08       3741.46         -0.00          0.09          0.35
   193.80         12.35       2795.08       3741.37         -0.00         -2.33          0.35
   193.81         12.36       2793.75       3739.46          0.00         -1.78          0.35
   193.82         12.36       2795.08       3741.20          0.00         -2.42          0.35
   193.83         12.36       2795.08       3741.15          0.00         -0.05          0.35
   193.84         12.35       2793.75       3739.51         -0.00          0.04          0.35
   193.85         12.35       2795.08       3741.42         -0.00          0.22          0.35
   193.86         12.35       2796.86       3743.92         -0.00          4.55          0.35
   193.87         12.35       2793.76       3739.95         -0.01          0.66          0.35
   193.88         12.35       2793.76       3739.99         -0.01         -0.94          0.35
   193.89         12.35       2793.76       3740.12         -0.01         -3.19          0.35
   193.90         12.35       2795.09       3742.04         -0.01         -1.19          0.35
   193.91         12.35       2793.76       3740.39         -0.01          1.32          0.35
   193.92         12.34       2795.09       3742.26         -0.01         -0.96          0.35
   193.93         12.34       2793.76       3740.52         -0.01          1.50          0.35
   193.94         12.34       2793.76       3740.56         -0.02          1.59          0.35
   193.95         12.34       2793.76       3740.61         -0.02         -0.11          0.35
   193.96         12.34       2793.76       3740.65         -0.02          1.80          0.00
   193.97         12.34       2791.98       3738.28         -0.02         -2.26          0.00
   193.98         12.34       2796.86       3744.85         -0.02          1.94          0.00
   193.99         12.34       2795.08       3742.52         -0.02         -0.26          0.00
   194.00         12.34       2793.75       3740.78         -0.02          4.57          0.00
   194.01         12.34       2793.75       3740.78         -0.02          2.24          0.00
   194.02         12.34       2793.75       3740.82         -0.02          0.50          0.00
   194.03         12.34       2793.75       3740.82         -0.02          0.41          0.00
   194.04         12.34       2793.75       3740.78         -0.02          0.33          0.00
   194.05         12.34       2793.75       3740.78         -0.02          0.15          0.00
   194.06         12.34       2795.08       3742.38         -0.02          1.62          0.00
   194.07         12.34       2796.86       3744.72         -0.01          3.78          0.00
   194.08         12.34       2796.86       3744.72         -0.01          3.60          0.00
   194.09         12.34       2791.98       3738.19         -0.01         -0.64          0.41
   194.10         12.34       2793.76       3740.65         -0.01          3.47          0.41
   194.11         12.34       2795.09       3742.43         -0.01          1.01          0.41
   194.12         12.34       2795.09       3742.48         -0.01          0.93          0.41
   194.13         12.34       2795.09       3742.48         -0.01          0.84          0.41
   194.14         12.34       2795.09       3742.56         -0.01          0.93          0.41
   194.15         12.34       2795.09       3742.70         -0.01          3.43          0.41
   194.16         12.34       2795.09       3742.74         -0.01          1.19          0.41
   194.17         12.34       2795.09       3742.78         -0.01          1.28          0.41
   194.18         12.34       2791.98       3738.50         -0.01         -4.79          0.41
   194.19         12.34       2791.98       3738.36         -0.01         -3.14          0.41
   194.20         12.34       2795.08       3742.43         -0.01          0.83          0.41
   194.21         12.34       2795.08       3742.34         -0.01         -1.17          0.41
   194.22         12.34       2791.98       3738.19         -0.01         -5.28          0.82
   194.23         12.35       2791.98       3738.06         -0.01         -1.21          0.82
   194.24         12.35       2795.09       3742.04         -0.00          2.81          0.82
   194.25         12.35       2795.09       3741.73         -0.00          2.51          0.82
   194.26         12.35       2795.09       3741.38          0.00         -2.13          0.41
   194.27         12.36       2795.09       3741.11          0.01          1.68          0.41
   194.28         12.36       2795.09       3740.94          0.01          1.54          0.41
   194.29         12.36       2795.09       3740.94          0.01          1.68          0.41
   194.30         12.36       2795.09       3740.94          0.01          1.81          0.41
   194.31         12.36       2795.09       3740.98          0.00          1.98          0.41
   194.32         12.36       2793.31       3738.61          0.00         -0.30          0.82
   194.33         12.36       2795.08       3740.89          0.00         -0.44          0.82
   194.34         12.36       2795.08       3740.93          0.00          1.89          0.82
   194.35         12.36       2793.31       3738.65          0.00         -0.44          0.82
   194.36         12.36       2793.31       3738.78          0.00         -2.73          0.82
   194.37         12.35       2794.64       3740.78          0.00         -0.69          0.82
   194.38         12.35       2793.31       3739.13         -0.00         -4.11          0.82
   194.39         12.35       2793.31       3739.26         -0.00         -2.33          0.41
   194.40         12.35       2794.64       3741.17          0.00         -0.60          0.41
   194.41         12.35       2794.64       3741.22          0.00         -2.51          0.41
