#Written by Robertson Geologging WinLogger V1.5/410
~VERSION INFORMATION
#------------------------------------------------------------------------------
 VERS. 2.0 : CWLS LOG ASCII STANDARD - VERSION 2.0
 WRAP. NO  : ONE LINE PER DEPTH STEP
~WELL INFORMATION
#MNEM.UNIT         DATA                                DESCRIPTION OF MNEMONIC
#------------------------------------------------------------------------------
 STRT.M          0.0100                            :   START DEPTH
 STOP.M        255.2200                            :   STOP DEPTH
 STEP.M          0.0100                            :   STEP VALUE
 NULL.        -999.2500                            :   NULL VALUE
 COMP.    IWS                                      :   COMPANY NAME
 WELL.    Mainsforth                               :   WELL NAME
 FLD.     N/A                                      :   FIELD NAME
 LOC.     N/A                                      :   LOCATION
 PROV.    N/A                                      :   PROVINCE
 SRVC.    N/A                                      :   SERVICE COMPANY NAME
 DATE.    01 Feb 11                                :   DATE
 UWI.     N/A                                      :   UNIQUE WELL IDENTIFIER
~PARAMETER INFORMATION
#MNEMO.UNIT         VALUE                 DESCRIPTION OF MNEMONIC
#------------------------------------------------------------------------------
~OTHER INFORMATION SECTION
#------------------------------------------------------------------------------
 1365
~CURVE INFORMATION
#MNEMO.UNIT         API CODE              CURVE DESCRIPTION
#------------------------------------------------------------------------------
 DEPTH.M                                 :   0     Depth
 CN25.uS/cm                              :   1     Conductivity@25DegC
 TEMP.DegC                               :   2     Temperature
 DELT.DegC                               :   3     Delta T
 DELC.uS/cm                              :   4     Delta C
#------------------------------------------------------------------------------
~A  DEPTH          CN25          TEMP          DELT          DELC
# ...
   236.69       4884.66         14.14          0.00          0.54
   236.70       4884.83         14.14         -0.00         -1.02
   236.71       4883.27         14.14         -0.00         -2.63
   236.72       4884.99         14.14         -0.00          0.76
   236.73       4884.99         14.14         -0.00         -0.80
   236.74       4883.16         14.14         -0.00         -0.80
   236.75       4884.50         14.14         -0.00          4.47
   236.76       4884.17         14.14          0.00          0.54
   236.77       4882.23         14.15          0.00         -3.28
   236.78       4883.73         14.15          0.00          0.43
   236.79       4883.73         14.15          0.00          2.10
   236.80       4882.17         14.15          0.00         -1.08
   236.81       4880.13         14.15         -0.00         -1.45
   236.82       4884.00         14.15         -0.00          4.09
   236.83       4882.45         14.14         -0.00          0.92
   236.84       4884.06         14.14         -0.00          0.49
   236.85       4884.17         14.14         -0.00          2.70
   236.86       4886.38         14.14         -0.01          1.20
   236.87       4882.67         14.14         -0.00         -1.01
   236.88       4882.89         14.14         -0.00          1.14
   236.89       4882.89         14.14         -0.00          2.64
   236.90       4883.05         14.14         -0.00          0.98
   236.91       4886.92         14.14         -0.00          6.46
   236.92       4885.15         14.14         -0.00          0.87
   236.93       4881.33         14.14         -0.00         -4.62
   236.94       4884.98         14.14          0.00          0.54
   236.95       4885.04         14.14          0.00          2.47
   236.96       4885.09         14.14          0.00          0.26
   236.97       4881.38         14.14          0.00         -1.68
   236.98       4885.15         14.14          0.01          1.92
   236.99       4885.04         14.14          0.01         -0.40
   237.00       4884.98         14.14          0.01         -2.23
   237.01       4884.93         14.14          0.01         -0.62
   237.02       4881.05         14.14          0.01         -6.10
   237.03       4884.87         14.14          0.01          1.59
   237.04       4884.87         14.14          0.01          3.26
   237.05       4881.16         14.14          0.01         -2.12
   237.06       4883.42         14.14          0.01         -1.95
   237.07       4885.20         14.14          0.01         -1.95
   237.08       4885.42         14.14          0.00          0.04
   237.09       4881.88         14.14          0.00         -3.23
   237.10       4885.75         14.14         -0.00          3.07
   237.11       4884.25         14.13         -0.01          3.62
   237.12       4884.30         14.13         -0.01          2.23
   237.13       4886.14         14.13         -0.01          1.97
   237.14       4886.25         14.13         -0.01          1.97
   237.15       4886.30         14.13         -0.01          0.35
   237.16       4886.25         14.13         -0.01          2.02
   237.17       4882.04         14.14         -0.01         -0.09
   237.18       4883.86         14.14         -0.01          3.35
   237.19       4885.09         14.14         -0.00          2.80
   237.20       4884.82         14.14          0.00         -1.57
   237.21       4880.94         14.14          0.01         -5.66
   237.22       4884.60         14.14          0.01         -2.23
   237.23       4884.49         14.15          0.01         -2.45
   237.24       4884.27         14.15          0.01          1.04
   237.25       4880.45         14.15          0.01         -4.34
   237.26       4884.10         14.15          0.01         -0.57
   237.27       4884.05         14.15          0.01         -0.63
   237.28       4884.32         14.15          0.01         -0.19
   237.29       4882.28         14.15          0.01         -2.06
   237.30       4880.89         14.14          0.00         -3.29
   237.31       4884.82         14.14          0.00          0.91
   237.32       4884.93         14.14         -0.00          5.00
   237.33       4882.89         14.14         -0.00          1.46
   237.34       4883.00         14.14         -0.01         -0.31
   237.35       4885.31         14.14         -0.01          0.62
   237.36       4887.03         14.14         -0.01          4.12
   237.37       4883.49         14.14         -0.01          0.63
   237.38       4883.60         14.14         -0.01         -0.93
   237.39       4887.31         14.14         -0.01          4.45
   237.40       4883.44         14.14         -0.01         -0.99
   237.41       4887.09         14.14         -0.01          4.34
   237.42       4883.27         14.14         -0.01          2.61
   237.43       4884.94         14.14         -0.01          0.35
   237.44       4883.33         14.14         -0.01          0.19
   237.45       4886.98         14.14         -0.01          5.77
   237.46       4884.77         14.14         -0.01          1.20
   237.47       4883.00         14.14         -0.00          1.41
   237.48       4883.00         14.14         -0.00         -0.80
   237.49       4884.88         14.14         -0.01          1.25
   237.50       4885.10         14.14         -0.01          1.47
   237.51       4885.38         14.13         -0.01          1.80
   237.52       4885.49         14.13         -0.01          1.97
   237.53       4885.43         14.13         -0.01         -0.40
   237.54       4885.32         14.13         -0.01          1.10
   237.55       4885.32         14.13         -0.01         -0.46
   237.56       4885.16         14.14         -0.01          0.99
   237.57       4884.99         14.14         -0.01          4.81
   237.58       4884.99         14.14         -0.01         -0.94
   237.59       4884.83         14.14         -0.01          1.10
   237.60       4884.55         14.14         -0.01          2.44
   237.61       4880.52         14.14         -0.00         -1.71
   237.62       4886.16         14.15          0.00          3.71
   237.63       4882.23         14.15          0.00         -0.44
   237.64       4883.89         14.15          0.00          1.17
   237.65       4882.34         14.15          0.00         -2.11
   237.66       4886.16         14.15          0.00          3.21
   237.67       4882.61         14.14          0.00         -0.33
   237.68       4882.67         14.14          0.00         -2.00
   237.69       4882.72         14.14          0.00         -2.11
   237.70       4886.43         14.14          0.00          3.16
   237.71       4884.71         14.14          0.01         -0.29
   237.72       4886.38         14.14          0.01          1.38
   237.73       4882.78         14.14          0.00         -0.38
   237.74       4886.65         14.14          0.00          2.15
   237.75       4882.89         14.14         -0.00         -1.28
   237.76       4886.70         14.14         -0.01          4.48
   237.77       4882.94         14.14         -0.01         -0.79
   237.78       4882.89         14.14         -0.01         -0.84
   237.79       4882.94         14.14         -0.01          0.77
   237.80       4886.70         14.14         -0.01          6.57
   237.81       4882.89         14.14         -0.00         -1.12
   237.82       4884.50         14.14         -0.00          2.05
   237.83       4882.72         14.14         -0.00         -1.34
   237.84       4886.10         14.15          0.00          1.93
   237.85       4883.78         14.15          0.00         -2.59
   237.86       4885.88         14.15          0.00          3.21
   237.87       4882.06         14.15          0.01         -0.82
   237.88       4883.67         14.15          0.01          0.79
   237.89       4883.67         14.15          0.01          0.62
   237.90       4885.77         14.15          0.01         -1.15
