#Written by Robertson Geologging WinLogger V1.5/410
~VERSION INFORMATION
#------------------------------------------------------------------------------
 VERS. 2.0 : CWLS LOG ASCII STANDARD - VERSION 2.0
 WRAP. NO  : ONE LINE PER DEPTH STEP
~WELL INFORMATION
#MNEM.UNIT         DATA                                DESCRIPTION OF MNEMONIC
#------------------------------------------------------------------------------
 STRT.M          0.0100                            :   START DEPTH
 STOP.M        255.2200                            :   STOP DEPTH
 STEP.M          0.0100                            :   STEP VALUE
 NULL.        -999.2500                            :   NULL VALUE
 COMP.    IWS                                      :   COMPANY NAME
 WELL.    Mainsforth                               :   WELL NAME
 FLD.     N/A                                      :   FIELD NAME
 LOC.     N/A                                      :   LOCATION
 PROV.    N/A                                      :   PROVINCE
 SRVC.    N/A                                      :   SERVICE COMPANY NAME
 DATE.    01 Feb 11                                :   DATE
 UWI.     N/A                                      :   UNIQUE WELL IDENTIFIER
~PARAMETER INFORMATION
#MNEMO.UNIT         VALUE                 DESCRIPTION OF MNEMONIC
#------------------------------------------------------------------------------
~OTHER INFORMATION SECTION
#------------------------------------------------------------------------------
 1365
~CURVE INFORMATION
#MNEMO.UNIT         API CODE              CURVE DESCRIPTION
#------------------------------------------------------------------------------
 DEPTH.M                                 :   0     Depth
 CN25.uS/cm                              :   1     Conductivity@25DegC
 TEMP.DegC                               :   2     Temperature
 DELT.DegC                               :   3     Delta T
 DELC.uS/cm                              :   4     Delta C
#------------------------------------------------------------------------------
~A  DEPTH          CN25          TEMP          DELT          DELC
# ...
   135.43       3541.00         12.31         -0.01          1.32
   135.44       3539.96         12.31         -0.01          0.15
   135.45       3539.88         12.31         -0.00          0.98
   135.46       3544.74         12.31         -0.00          7.88
   135.47       3543.53         12.31          0.00          2.52
   135.48       3539.42         12.31          0.01         -0.59
   135.49       3540.50         12.31          0.01          0.46
   135.50       3542.84         12.31          0.01          1.67
   135.51       3542.92         12.31          0.01          2.79
   135.52       3540.67         12.31          0.01         -3.48
   135.53       3539.50         12.31          0.01         -2.48
   135.54       3543.44         12.31          0.01          1.46
   135.55       3544.53         12.31          0.01          3.67
   135.56       3544.57         12.31          0.01          2.71
   135.57       3539.67         12.31          0.00         -2.11
   135.58       3540.88         12.31          0.00          3.04
   135.59       3544.99         12.31          0.00          3.82
   135.60       3543.82         12.31          0.00          2.69
   135.61       3541.53         12.31          0.00          0.48
   135.62       3541.53         12.31         -0.00          0.69
   135.63       3543.74         12.31         -0.00          7.01
   135.64       3545.03         12.31         -0.01          4.49
   135.65       3540.09         12.30         -0.01         -0.46
   135.66       3540.17         12.30         -0.01         -0.33
   135.67       3544.24         12.30         -0.01          3.74
   135.68       3544.41         12.30         -0.01          3.86
   135.69       3544.49         12.30         -0.01          3.90
   135.70       3540.63         12.30         -0.01         -0.12
   135.71       3544.14         12.30         -0.01          3.17
   135.72       3544.09         12.30         -0.01          2.96
   135.73       3544.14         12.30         -0.01          1.67
   135.74       3540.76         12.30         -0.00         -1.83
   135.75       3544.53         12.30         -0.00          3.67
   135.76       3545.62         12.30         -0.00          4.84
   135.77       3544.41         12.30         -0.00          2.63
   135.78       3540.34         12.30         -0.00         -1.35
   135.79       3541.42         12.30         -0.00         -0.10
   135.80       3543.68         12.30         -0.01          3.36
   135.81       3543.63         12.30         -0.01          1.75
   135.82       3541.42         12.30         -0.01         -0.37
   135.83       3543.76         12.30         -0.01          1.96
   135.84       3543.68         12.30         -0.01          3.01
   135.85       3544.72         12.30         -0.01          4.01
   135.86       3539.61         12.30         -0.01          1.11
   135.87       3539.44         12.31         -0.00         -3.00
   135.88       3544.42         12.31         -0.00          3.11
   135.89       3544.38         12.31         -0.00          3.02
   135.90       3543.17         12.31         -0.00          1.73
   135.91       3540.88         12.31         -0.00         -1.65
   135.92       3544.78         12.31         -0.00          3.94
   135.93       3544.78         12.31         -0.00          4.02
   135.94       3542.44         12.31         -0.00          1.73
   135.95       3541.27         12.31          0.00          0.56
   135.96       3541.36         12.31         -0.00         -3.29
   135.97       3546.47         12.31         -0.00          1.86
   135.98       3546.51         12.31         -0.00          5.80
   135.99       3541.44         12.31         -0.00          0.65
   136.00       3541.44         12.31         -0.00          0.65
   136.01       3542.53         12.31          0.00          1.61
   136.02       3546.51         12.31          0.00          3.25
   136.03       3541.57         12.31          0.00          0.44
   136.04       3541.57         12.31          0.00          0.27
   136.05       3541.65         12.31          0.00         -2.02
   136.06       3546.72         12.31          0.00          1.88
   136.07       3545.47         12.31          0.01          4.57
   136.08       3541.48         12.31          0.01          0.50
   136.09       3541.40         12.31          0.01          1.54
   136.10       3542.53         12.31          0.01          1.58
   136.11       3544.86         12.31          0.01         -0.07
   136.12       3544.82         12.31          0.01         -0.02
   136.13       3540.80         12.31          0.01         -0.59
   136.14       3544.09         12.31          0.01          2.83
   136.15       3543.92         12.31          0.01          2.79
   136.16       3543.84         12.31          0.01          5.09
   136.17       3538.90         12.31          0.00         -2.02
   136.18       3544.13         12.31          0.00          3.29
   136.19       3544.30         12.31         -0.00          3.55
   136.20       3543.30         12.31         -0.00          1.42
   136.21       3543.38         12.31         -0.00          1.46
   136.22       3541.05         12.31         -0.00          0.77
   136.23       3545.07         12.31         -0.00          4.76
   136.24       3544.03         12.30         -0.00          2.55
   136.25       3541.78         12.30         -0.00          0.21
   136.26       3541.99         12.30         -0.00          0.42
   136.27       3546.10         12.30         -0.01          2.32
   136.28       3547.35         12.30         -0.01          5.82
   136.29       3542.40         12.30         -0.01          0.88
   136.30       3542.45         12.30         -0.01          0.84
   136.31       3543.70         12.30         -0.01         -0.29
   136.32       3547.77         12.29         -0.01          3.78
   136.33       3546.77         12.29         -0.01          4.99
   136.34       3542.91         12.29         -0.01          2.26
   136.35       3544.03         12.29         -0.01          3.42
   136.36       3548.02         12.29         -0.01          3.55
   136.37       3547.89         12.29         -0.01          4.55
   136.38       3542.57         12.30         -0.01          1.48
   136.39       3542.36         12.30         -0.01          1.32
   136.40       3547.22         12.30         -0.00          3.84
   136.41       3547.05         12.30         -0.00          3.71
   136.42       3546.89         12.30         -0.00          5.88
   136.43       3541.61         12.31          0.00          1.65
   136.44       3542.61         12.31          0.00          2.73
   136.45       3546.51         12.31         -0.00          1.77
   136.46       3546.55         12.31         -0.00          3.02
   136.47       3542.65         12.31         -0.00          3.23
   136.48       3541.61         12.31         -0.01          1.11
   136.49       3546.80         12.30         -0.01          3.96
   136.50       3546.80         12.30         -0.01          3.88
   136.51       3541.78         12.30         -0.01          1.11
   136.52       3541.90         12.30         -0.01          2.40
   136.53       3546.05         12.30         -0.01          2.61
   136.54       3547.43         12.30         -0.01          2.90
   136.55       3546.51         12.30         -0.01          1.95
   136.56       3542.57         12.30         -0.01          2.90
   136.57       3546.47         12.30         -0.01          5.59
   136.58       3545.22         12.30         -0.01          0.23
   136.59       3546.26         12.30         -0.01          2.44
   136.60       3542.40         12.30         -0.01          0.88
   136.61       3544.66         12.30         -0.01          3.13
   136.62       3545.78         12.30         -0.01          2.05
   136.63       3545.74         12.30         -0.01          0.71
   136.64       3543.84         12.30         -0.00          3.76
