#Written by Robertson Geologging WinLogger V1.5/410
~VERSION INFORMATION
#------------------------------------------------------------------------------
 VERS. 2.0 : CWLS LOG ASCII STANDARD - VERSION 2.0
 WRAP. NO  : ONE LINE PER DEPTH STEP
~WELL INFORMATION
#MNEM.UNIT         DATA                                DESCRIPTION OF MNEMONIC
#------------------------------------------------------------------------------
 STRT.M          0.0100                            :   START DEPTH
 STOP.M        254.5000                            :   STOP DEPTH
 STEP.M          0.0100                            :   STEP VALUE
 NULL.        -999.2500                            :   NULL VALUE
 COMP.    I.W.S.                                   :   COMPANY NAME
 WELL.    MAINSFORTH SHAFT                         :   WELL NAME
 FLD.     N/A                                      :   FIELD NAME
 LOC.     N/A                                      :   LOCATION
 PROV.    N/A                                      :   PROVINCE
 SRVC.    N/A                                      :   SERVICE COMPANY NAME
 DATE.    02 Dec 11                                :   DATE
 UWI.     N/A                                      :   UNIQUE WELL IDENTIFIER
~PARAMETER INFORMATION
#MNEMO.UNIT         VALUE                 DESCRIPTION OF MNEMONIC
#------------------------------------------------------------------------------
~OTHER INFORMATION SECTION
#------------------------------------------------------------------------------
 1365 LOW
~CURVE INFORMATION
#MNEMO.UNIT         API CODE              CURVE DESCRIPTION
#------------------------------------------------------------------------------
 DEPTH.M                                 :   0     Depth
 COND.uS/cm                              :   1     Absolute Conductivity
 COND.uS/cm                              :   2     Conductivity@25DegC
 TEMP.DegC                               :   3     Temperature
#------------------------------------------------------------------------------
~A  DEPTH          COND          COND          TEMP
# ...
    67.77       2315.89       3174.02         11.48
    67.78       2315.89       3173.91         11.48
    67.79       2316.31       3174.37         11.48
    67.80       2316.31       3174.29         11.49
    67.81       2316.31       3174.41         11.48
    67.82       2316.31       3174.56         11.48
    67.83       2316.31       3174.63         11.48
    67.84       2316.31       3174.67         11.48
    67.85       2316.31       3174.63         11.48
    67.86       2316.31       3174.63         11.48
    67.87       2316.31       3174.60         11.48
    67.88       2316.31       3174.60         11.48
    67.89       2316.31       3174.60         11.48
    67.90       2316.31       3174.63         11.48
    67.91       2320.09       3179.81         11.48
    67.92       2316.31       3174.56         11.48
    67.93       2315.89       3173.87         11.48
    67.94       2315.89       3173.79         11.48
    67.95       2315.47       3173.29         11.48
    67.96       2315.47       3173.33         11.48
    67.97       2315.05       3172.79         11.48
    67.98       2315.05       3172.76         11.48
    67.99       2314.63       3172.10         11.48
    68.00       2314.63       3172.10         11.48
    68.01       2314.21       3171.49         11.48
    68.02       2314.21       3171.61         11.48
    68.03       2313.79       3171.11         11.48
    68.04       2314.21       3171.76         11.48
    68.05       2314.21       3171.83         11.48
    68.06       2314.63       3172.33         11.48
    68.07       2314.63       3172.37         11.48
    68.08       2314.63       3172.37         11.48
    68.09       2314.63       3172.45         11.48
    68.10       2315.05       3173.10         11.48
    68.11       2315.05       3173.14         11.48
    68.12       2315.47       3173.79         11.48
    68.13       2315.47       3173.79         11.48
    68.14       2315.47       3173.79         11.48
    68.15       2319.25       3178.97         11.48
    68.16       2315.05       3173.17         11.48
    68.17       2315.05       3173.17         11.48
    68.18       2315.05       3173.06         11.48
    68.19       2315.47       3173.48         11.48
    68.20       2315.47       3173.41         11.48
    68.21       2315.47       3173.33         11.48
    68.22       2315.47       3173.29         11.48
    68.23       2315.47       3173.33         11.48
    68.24       2315.47       3173.37         11.48
    68.25       2315.89       3173.94         11.48
    68.26       2315.89       3173.94         11.48
    68.27       2316.31       3174.56         11.48
    68.28       2320.09       3179.81         11.48
    68.29       2316.31       3174.75         11.48
    68.30       2315.89       3174.33         11.48
    68.31       2315.89       3174.36         11.48
    68.32       2315.47       3173.83         11.48
    68.33       2315.47       3173.83         11.48
    68.34       2315.05       3173.21         11.48
    68.35       2315.05       3173.10         11.48
    68.36       2314.63       3172.45         11.48
    68.37       2314.63       3172.41         11.48
    68.38       2314.21       3171.68         11.48
    68.39       2314.21       3171.49         11.48
    68.40       2313.79       3170.76         11.49
    68.41       2314.21       3171.19         11.49
    68.42       2314.21       3171.23         11.49
    68.43       2314.21       3171.30         11.49
    68.44       2314.21       3171.38         11.49
    68.45       2314.63       3172.03         11.48
    68.46       2314.63       3172.14         11.48
    68.47       2315.05       3172.83         11.48
    68.48       2315.05       3172.87         11.48
    68.49       2315.47       3173.60         11.48
    68.50       2315.47       3173.71         11.48
    68.51       2315.89       3174.44         11.48
    68.52       2319.67       3179.77         11.48
    68.53       2315.89       3174.63         11.47
    68.54       2315.89       3174.59         11.48
    68.55       2315.89       3174.55         11.48
    68.56       2315.47       3173.94         11.48
    68.57       2315.47       3173.90         11.48
    68.58       2315.05       3173.36         11.48
    68.59       2315.05       3173.40         11.48
    68.60       2314.63       3172.83         11.48
    68.61       2314.63       3172.90         11.47
    68.62       2314.21       3172.33         11.47
    68.63       2314.21       3172.37         11.47
    68.64       2313.79       3171.83         11.47
    68.65       2314.21       3172.44         11.47
    68.66       2314.21       3172.44         11.47
    68.67       2314.63       3172.98         11.47
    68.68       2314.63       3172.94         11.47
    68.69       2315.05       3173.40         11.48
    68.70       2315.05       3173.36         11.48
    68.71       2315.05       3173.36         11.48
    68.72       2315.05       3173.25         11.48
    68.73       2315.05       3173.14         11.48
    68.74       2311.27       3167.81         11.48
    68.75       2315.47       3173.37         11.48
    68.76       2315.47       3173.26         11.48
    68.77       2315.47       3173.26         11.48
    68.78       2315.47       3173.26         11.48
    68.79       2315.47       3173.33         11.48
    68.80       2315.47       3173.45         11.48
    68.81       2315.47       3173.48         11.48
    68.82       2315.89       3174.13         11.48
    68.83       2315.89       3174.21         11.48
    68.84       2316.31       3174.94         11.48
    68.85       2320.09       3180.23         11.48
    68.86       2316.31       3175.20         11.47
    68.87       2315.89       3174.74         11.47
    68.88       2315.89       3174.74         11.47
    68.89       2315.47       3174.17         11.47
    68.90       2315.47       3174.09         11.47
    68.91       2315.05       3173.36         11.48
    68.92       2315.05       3173.25         11.48
    68.93       2314.63       3172.56         11.48
    68.94       2314.63       3172.45         11.48
    68.95       2314.21       3171.68         11.48
    68.96       2314.21       3171.61         11.48
    68.97       2313.79       3170.92         11.48
    68.98       2317.99       3176.63         11.48
    68.99       2313.79       3170.92         11.48
    69.00       2314.21       3171.45         11.48
    69.01       2314.21       3171.45         11.48
    69.02       2314.63       3172.03         11.48
    69.03       2314.63       3172.07         11.48
    69.04       2315.05       3172.64         11.48
    69.05       2315.05       3172.72         11.48
    69.06       2315.47       3173.37         11.48
    69.07       2315.47       3173.37         11.48
    69.08       2315.47       3173.45         11.48
    69.09       2315.47       3173.45         11.48
    69.10       2315.47       3173.41         11.48
    69.11       2319.25       3178.59         11.48
    69.12       2315.05       3172.83         11.48
    69.13       2315.05       3172.87         11.48
    69.14       2315.05       3172.91         11.48
    69.15       2315.05       3172.91         11.48
    69.16       2315.05       3172.91         11.48
    69.17       2315.05       3172.91         11.48
    69.18       2315.05       3172.95         11.48
    69.19       2315.47       3173.56         11.48
    69.20       2315.47       3173.60         11.48
    69.21       2315.47       3173.71         11.48
    69.22       2315.47       3173.86         11.48
    69.23       2315.47       3173.86         11.48
    69.24       2319.25       3179.01         11.48
    69.25       2315.05       3173.17         11.48
    69.26       2315.05       3173.14         11.48
    69.27       2315.05       3173.25         11.48
    69.28       2318.83       3178.54         11.48
    69.29       2315.05       3173.44         11.48
    69.30       2314.63       3172.90         11.47
