#Written by Robertson Geologging WinLogger V1.5/410
~VERSION INFORMATION
#------------------------------------------------------------------------------
 VERS. 2.0 : CWLS LOG ASCII STANDARD - VERSION 2.0
 WRAP. NO  : ONE LINE PER DEPTH STEP
~WELL INFORMATION
#MNEM.UNIT         DATA                                DESCRIPTION OF MNEMONIC
#------------------------------------------------------------------------------
 STRT.M          0.0100                            :   START DEPTH
 STOP.M        255.2200                            :   STOP DEPTH
 STEP.M          0.0100                            :   STEP VALUE
 NULL.        -999.2500                            :   NULL VALUE
 COMP.    IWS                                      :   COMPANY NAME
 WELL.    Mainsforth                               :   WELL NAME
 FLD.     N/A                                      :   FIELD NAME
 LOC.     N/A                                      :   LOCATION
 PROV.    N/A                                      :   PROVINCE
 SRVC.    N/A                                      :   SERVICE COMPANY NAME
 DATE.    01 Feb 11                                :   DATE
 UWI.     N/A                                      :   UNIQUE WELL IDENTIFIER
~PARAMETER INFORMATION
#MNEMO.UNIT         VALUE                 DESCRIPTION OF MNEMONIC
#------------------------------------------------------------------------------
~OTHER INFORMATION SECTION
#------------------------------------------------------------------------------
 1365
~CURVE INFORMATION
#MNEMO.UNIT         API CODE              CURVE DESCRIPTION
#------------------------------------------------------------------------------
 DEPTH.M                                 :   0     Depth
 CN25.uS/cm                              :   1     Conductivity@25DegC
 TEMP.DegC                               :   2     Temperature
 DELT.DegC                               :   3     Delta T
 DELC.uS/cm                              :   4     Delta C
#------------------------------------------------------------------------------
~A  DEPTH          CN25          TEMP          DELT          DELC
# ...
   219.61       4836.75         14.14          0.01         18.43
   219.62       4837.99         14.14          0.01         20.32
   219.63       4838.05         14.14          0.00         19.35
   219.64       4838.21         14.14          0.00         19.41
   219.65       4838.43         14.14          0.00         20.11
   219.66       4834.83         14.13          0.00         15.27
   219.67       4837.73         14.13          0.00         18.55
   219.68       4838.92         14.13          0.00         19.09
   219.69       4838.97         14.13          0.00         23.23
   219.70       4838.92         14.13          0.00         19.41
   219.71       4838.81         14.13          0.01         19.19
   219.72       4838.75         14.13          0.01         19.19
   219.73       4838.75         14.13          0.01         19.19
   219.74       4838.81         14.13          0.01         19.14
   219.75       4835.10         14.13          0.00         16.07
   219.76       4838.33         14.13          0.00         15.11
   219.77       4838.33         14.13          0.00         19.63
   219.78       4838.27         14.13          0.00         16.62
   219.79       4838.22         14.13         -0.00         16.83
   219.80       4838.38         14.13         -0.00         13.88
   219.81       4838.65         14.13         -0.00         17.81
   219.82       4838.98         14.13         -0.01         14.85
   219.83       4839.20         14.13         -0.01         18.62
   219.84       4839.14         14.13         -0.01         15.28
   219.85       4838.98         14.13         -0.01         16.30
   219.86       4841.50         14.13         -0.01         18.40
   219.87       4839.30         14.13         -0.01         17.32
   219.88       4842.10         14.13         -0.01         19.58
   219.89       4843.44         14.13         -0.01         20.82
   219.90       4842.59         14.12         -0.01         19.75
   219.91       4842.53         14.12         -0.01         19.69
   219.92       4842.31         14.13         -0.01         16.84
   219.93       4840.86         14.13         -0.00         18.18
   219.94       4841.61         14.13         -0.00         16.35
   219.95       4840.48         14.13         -0.00         17.96
   219.96       4841.66         14.13         -0.00         19.15
   219.97       4841.77         14.13         -0.00         19.04
   219.98       4841.88         14.13         -0.00         19.15
   219.99       4841.93         14.13         -0.00         15.28
   220.00       4841.88         14.13         -0.00         18.34
   220.01       4841.82         14.13          0.00         14.47
   220.02       4840.69         14.13          0.00         13.17
   220.03       4841.66         14.13          0.00         17.31
   220.04       4841.72         14.13          0.00         13.55
   220.05       4841.88         14.13          0.00         13.77
   220.06       4841.93         14.13          0.00         13.87
   220.07       4841.99         14.13          0.00         13.98
   220.08       4841.93         14.13         -0.00         10.27
   220.09       4843.87         14.13          0.00         15.43
   220.10       4844.67         14.13          0.00         16.35
   220.11       4843.49         14.13          0.00         12.04
   220.12       4844.45         14.13          0.00         16.83
   220.13       4844.45         14.13          0.00         16.88
   220.14       4844.62         14.13          0.00         13.76
   220.15       4844.56         14.13          0.00         17.47
   220.16       4844.45         14.13          0.00         16.34
   220.17       4844.34         14.14          0.00         13.49
   220.18       4843.21         14.14          0.00         15.00
   220.19       4844.29         14.14          0.00         17.15
   220.20       4841.12         14.14          0.01          9.51
   220.21       4841.23         14.13          0.01         10.64
   220.22       4844.40         14.14          0.01         16.39
   220.23       4840.69         14.13          0.01          9.83
   220.24       4843.91         14.13          0.01         11.87
   220.25       4843.91         14.13          0.01         14.51
   220.26       4843.97         14.13          0.01         11.71
   220.27       4843.91         14.13          0.01         11.55
   220.28       4843.97         14.13          0.01         11.55
   220.29       4844.99         14.13          0.01          8.75
   220.30       4843.81         14.14          0.01         10.79
   220.31       4844.99         14.13          0.01         12.03
   220.32       4843.91         14.13          0.01          9.93
   220.33       4841.76         14.13          0.01          5.09
   220.34       4847.73         14.13          0.01         13.81
   220.35       4845.69         14.13          0.01         12.89
   220.36       4845.75         14.13          0.01          9.24
   220.37       4845.85         14.13          0.01          9.57
   220.38       4846.13         14.13          0.00         13.66
   220.39       4846.24         14.13          0.00         13.77
   220.40       4846.29         14.13          0.00         13.82
   220.41       4847.64         14.13         -0.00         11.83
   220.42       4846.45         14.13          0.00         10.70
   220.43       4847.53         14.13          0.00         15.60
   220.44       4847.64         14.13         -0.00         15.92
   220.45       4847.48         14.13         -0.00         12.21
   220.46       4847.48         14.13         -0.00         12.38
   220.47       4846.29         14.13         -0.00         11.36
   220.48       4847.26         14.13         -0.00         12.32
   220.49       4847.15         14.13         -0.00         12.27
   220.50       4846.98         14.13         -0.00         12.21
   220.51       4846.98         14.13         -0.00         13.40
   220.52       4848.97         14.13         -0.00         14.53
   220.53       4850.05         14.13         -0.01         16.84
   220.54       4848.86         14.13         -0.01         12.06
   220.55       4848.64         14.14         -0.01         14.69
   220.56       4846.49         14.14         -0.01         13.72
   220.57       4845.31         14.14         -0.01         11.57
   220.58       4846.49         14.14         -0.01         13.78
   220.59       4848.81         14.13         -0.01         14.85
   220.60       4848.92         14.13         -0.01         12.16
   220.61       4849.08         14.13         -0.01         11.09
   220.62       4849.19         14.13         -0.01         11.14
   220.63       4845.96         14.13         -0.01          7.75
   220.64       4846.07         14.13         -0.01          7.65
   220.65       4849.46         14.13         -0.01         14.64
   220.66       4848.55         14.13         -0.00         10.82
   220.67       4848.77         14.13         -0.01          9.85
   220.68       4848.88         14.13         -0.01          9.91
   220.69       4848.88         14.13         -0.01          9.96
   220.70       4848.71         14.13         -0.01          9.91
   220.71       4848.55         14.13         -0.01          9.80
   220.72       4848.33         14.13         -0.00          9.58
   220.73       4848.11         14.13         -0.00          9.31
   220.74       4848.06         14.13         -0.00         12.96
   220.75       4851.72         14.13          0.00         13.39
   220.76       4848.60         14.13         -0.00         10.27
   220.77       4849.89         14.13         -0.00         11.62
   220.78       4848.87         14.13         -0.00         10.65
   220.79       4850.06         14.13         -0.00         11.68
   220.80       4852.21         14.13         -0.00         13.56
   220.81       4850.06         14.13          0.00         11.08
   220.82       4848.93         14.13          0.00          9.73
