#Written by Robertson Geologging WinLogger V1.5/410
~VERSION INFORMATION
#------------------------------------------------------------------------------
 VERS. 2.0 : CWLS LOG ASCII STANDARD - VERSION 2.0
 WRAP. NO  : ONE LINE PER DEPTH STEP
~WELL INFORMATION
#MNEM.UNIT         DATA                                DESCRIPTION OF MNEMONIC
#------------------------------------------------------------------------------
 STRT.M          0.0100                            :   START DEPTH
 STOP.M        254.5000                            :   STOP DEPTH
 STEP.M          0.0100                            :   STEP VALUE
 NULL.        -999.2500                            :   NULL VALUE
 COMP.    I.W.S.                                   :   COMPANY NAME
 WELL.    MAINSFORTH SHAFT                         :   WELL NAME
 FLD.     N/A                                      :   FIELD NAME
 LOC.     N/A                                      :   LOCATION
 PROV.    N/A                                      :   PROVINCE
 SRVC.    N/A                                      :   SERVICE COMPANY NAME
 DATE.    02 Dec 11                                :   DATE
 UWI.     N/A                                      :   UNIQUE WELL IDENTIFIER
~PARAMETER INFORMATION
#MNEMO.UNIT         VALUE                 DESCRIPTION OF MNEMONIC
#------------------------------------------------------------------------------
~OTHER INFORMATION SECTION
#------------------------------------------------------------------------------
 1365 LOW
~CURVE INFORMATION
#MNEMO.UNIT         API CODE              CURVE DESCRIPTION
#------------------------------------------------------------------------------
 DEPTH.M                                 :   0     Depth
 COND.uS/cm                              :   1     Absolute Conductivity
 COND.uS/cm                              :   2     Conductivity@25DegC
 TEMP.DegC                               :   3     Temperature
#------------------------------------------------------------------------------
~A  DEPTH          COND          COND          TEMP
# ...
    84.71       2314.21       3171.68         11.48
    84.72       2317.99       3176.78         11.48
    84.73       2313.79       3170.95         11.48
    84.74       2317.99       3176.71         11.48
    84.75       2313.79       3170.99         11.48
    84.76       2317.99       3176.75         11.48
    84.77       2313.79       3170.99         11.48
    84.78       2317.99       3176.78         11.48
    84.79       2313.79       3170.99         11.48
    84.80       2317.99       3176.75         11.48
    84.81       2313.79       3170.99         11.48
    84.82       2317.99       3176.71         11.48
    84.83       2313.79       3170.92         11.48
    84.84       2317.99       3176.63         11.48
    84.85       2313.79       3170.80         11.49
    84.86       2317.99       3176.52         11.49
    84.87       2313.79       3170.80         11.49
    84.88       2317.99       3176.67         11.48
    84.89       2313.79       3171.07         11.48
    84.90       2317.99       3176.97         11.48
    84.91       2314.21       3171.95         11.48
    84.92       2318.41       3177.74         11.48
    84.93       2314.63       3172.56         11.48
    84.94       2318.83       3178.32         11.48
    84.95       2315.05       3173.10         11.48
    84.96       2319.25       3178.93         11.48
    84.97       2315.47       3173.79         11.48
    84.98       2319.67       3179.50         11.48
    84.99       2315.89       3174.29         11.48
    85.00       2320.09       3179.89         11.48
    85.01       2316.31       3174.48         11.48
    85.02       2320.09       3179.55         11.48
    85.03       2316.31       3174.37         11.48
    85.04       2320.09       3179.66         11.48
    85.05       2316.31       3174.60         11.48
    85.06       2320.09       3179.85         11.48
    85.07       2316.31       3174.63         11.48
    85.08       2320.09       3179.78         11.48
    85.09       2316.31       3174.60         11.48
    85.10       2320.09       3179.78         11.48
    85.11       2316.31       3174.71         11.48
    85.12       2320.09       3180.08         11.48
    85.13       2316.31       3175.05         11.48
    85.14       2320.09       3180.35         11.48
    85.15       2316.31       3175.17         11.48
    85.16       2320.09       3180.38         11.47
    85.17       2316.31       3175.20         11.47
    85.18       2320.09       3180.38         11.47
    85.19       2316.31       3175.24         11.47
    85.20       2320.09       3180.42         11.47
    85.21       2316.31       3175.20         11.47
    85.22       2320.09       3180.31         11.48
    85.23       2315.89       3174.48         11.48
    85.24       2319.67       3179.58         11.48
    85.25       2315.47       3173.71         11.48
    85.26       2319.25       3178.85         11.48
    85.27       2315.05       3173.06         11.48
    85.28       2318.83       3178.16         11.48
    85.29       2314.63       3172.45         11.48
    85.30       2318.41       3177.63         11.48
    85.31       2314.21       3171.80         11.48
    85.32       2317.99       3176.94         11.48
    85.33       2314.21       3171.68         11.48
    85.34       2314.63       3172.18         11.48
    85.35       2314.63       3172.10         11.48
    85.36       2318.83       3177.86         11.48
    85.37       2315.05       3172.57         11.49
    85.38       2319.25       3178.21         11.49
    85.39       2315.47       3173.07         11.49
    85.40       2319.67       3178.74         11.49
    85.41       2315.89       3173.53         11.49
    85.42       2320.09       3179.36         11.49
    85.43       2316.31       3174.22         11.49
    85.44       2320.09       3179.47         11.49
    85.45       2320.09       3179.55         11.48
    85.46       2320.09       3179.62         11.48
    85.47       2316.31       3174.52         11.48
    85.48       2320.09       3179.93         11.48
    85.49       2315.89       3174.36         11.48
    85.50       2319.67       3179.77         11.48
    85.51       2315.47       3174.24         11.47
    85.52       2319.25       3179.54         11.47
    85.53       2315.05       3173.86         11.47
    85.54       2318.83       3179.00         11.47
    85.55       2314.63       3173.21         11.47
    85.56       2318.41       3178.35         11.47
    85.57       2314.21       3172.56         11.47
    85.58       2317.99       3177.70         11.47
    85.59       2313.79       3171.83         11.47
    85.60       2314.21       3172.33         11.47
    85.61       2314.21       3172.14         11.48
    85.62       2318.41       3177.74         11.48
    85.63       2314.63       3172.52         11.48
    85.64       2318.83       3178.20         11.48
    85.65       2315.05       3173.10         11.48
    85.66       2319.25       3178.89         11.48
    85.67       2315.47       3173.75         11.48
    85.68       2319.67       3179.54         11.48
    85.69       2315.89       3174.40         11.48
    85.70       2320.09       3180.19         11.48
    85.71       2320.09       3180.16         11.48
    85.72       2320.09       3180.16         11.48
    85.73       2316.31       3174.94         11.48
    85.74       2320.09       3180.00         11.48
    85.75       2316.31       3174.71         11.48
    85.76       2320.09       3179.70         11.48
    85.77       2316.31       3174.37         11.48
    85.78       2320.09       3179.43         11.49
    85.79       2312.95       3169.54         11.49
    85.80       2316.73       3174.64         11.49
    85.81       2312.53       3168.81         11.49
    85.82       2316.31       3174.03         11.49
    85.83       2312.53       3168.89         11.49
    85.84       2316.31       3174.10         11.49
    85.85       2312.11       3168.42         11.49
    85.86       2315.89       3173.64         11.49
    85.87       2312.11       3168.58         11.48
    85.88       2315.89       3173.87         11.48
    85.89       2312.11       3168.80         11.48
    85.90       2319.25       3178.62         11.48
    85.91       2315.47       3173.45         11.48
    85.92       2319.67       3179.20         11.48
    85.93       2315.89       3173.94         11.48
    85.94       2319.67       3179.09         11.48
    85.95       2315.89       3173.83         11.48
    85.96       2320.09       3179.58         11.48
    85.97       2316.31       3174.44         11.48
    85.98       2320.09       3179.66         11.48
    85.99       2316.31       3174.52         11.48
    86.00       2320.09       3179.66         11.48
    86.01       2316.31       3174.52         11.48
    86.02       2320.09       3179.78         11.48
    86.03       2316.31       3174.63         11.48
    86.04       2320.09       3179.89         11.48
    86.05       2316.31       3174.75         11.48
    86.06       2320.09       3179.97         11.48
    86.07       2316.31       3174.79         11.48
    86.08       2320.09       3180.00         11.48
    86.09       2315.89       3174.25         11.48
    86.10       2319.67       3179.43         11.48
    86.11       2315.47       3173.71         11.48
    86.12       2319.25       3178.89         11.48
    86.13       2315.05       3173.14         11.48
    86.14       2318.83       3178.32         11.48
    86.15       2314.63       3172.52         11.48
    86.16       2318.41       3177.66         11.48
    86.17       2314.21       3171.91         11.48
    86.18       2317.99       3177.05         11.48
    86.19       2313.79       3171.30         11.48
    86.20       2317.99       3177.09         11.48
    86.21       2313.79       3171.41         11.48
    86.22       2317.99       3177.20         11.48
    86.23       2313.79       3171.56         11.48
    86.24       2317.99       3177.39         11.48
