#Written by Robertson Geologging WinLogger V1.5/410
~VERSION INFORMATION
#------------------------------------------------------------------------------
 VERS. 2.0 : CWLS LOG ASCII STANDARD - VERSION 2.0
 WRAP. NO  : ONE LINE PER DEPTH STEP
~WELL INFORMATION
#MNEM.UNIT         DATA                                DESCRIPTION OF MNEMONIC
#------------------------------------------------------------------------------
 STRT.M          0.0600                            :   START DEPTH
 STOP.M        264.8300                            :   STOP DEPTH
 STEP.M          0.0100                            :   STEP VALUE
 NULL.        -999.2500                            :   NULL VALUE
 COMP.    Coal Authority                           :   COMPANY NAME
 WELL.    Mainsforth Shaft                         :   WELL NAME
 FLD.     N/A                                      :   FIELD NAME
 LOC.     N/A                                      :   LOCATION
 PROV.    N/A                                      :   PROVINCE
 SRVC.    N/A                                      :   SERVICE COMPANY NAME
 DATE.    16 Dec 08                                :   DATE
 UWI.     N/A                                      :   UNIQUE WELL IDENTIFIER
~PARAMETER INFORMATION
#MNEMO.UNIT         VALUE                 DESCRIPTION OF MNEMONIC
#------------------------------------------------------------------------------
~OTHER INFORMATION SECTION
#------------------------------------------------------------------------------
 TCDS 1365
 16,12,2008
~CURVE INFORMATION
#MNEMO.UNIT         API CODE              CURVE DESCRIPTION
#------------------------------------------------------------------------------
 DEPTH.M                                 :   0     Depth
 TEMP.DegC                               :   1     Temperature
 COND.uS/cm                              :   2     Absolute Conductivity
 COND.uS/cm                              :   3     Conductivity@25DegC
 DELT.DegC                               :   4     Delta T
 DELC.uS/cm                              :   5     Delta C
 NGAM.CPS                                :   6     Natural Gamma
#------------------------------------------------------------------------------
~A  DEPTH          TEMP          COND          COND          DELT          DELC          NGAM
# ...
   105.84         11.30       1691.61       2329.80          0.01          2.86          0.35
   105.85         11.31       1691.61       2329.72          0.01         -0.65          0.35
   105.86         11.31       1688.67       2325.61          0.01         -0.73          0.35
   105.87         11.31       1688.67       2325.52          0.01         -0.79          0.76
   105.88         11.31       1691.61       2329.47          0.01         -0.84          0.76
   105.89         11.31       1688.24       2324.74          0.01         -2.69          0.76
   105.90         11.31       1689.09       2325.79          0.02         -0.43          0.76
   105.91         11.31       1691.19       2328.66          0.02         -1.68          0.76
   105.92         11.31       1689.09       2325.88          0.01         -4.44          0.76
   105.93         11.31       1688.24       2324.86          0.01         -1.37          0.76
   105.94         11.31       1691.19       2329.11          0.01          2.86          0.76
   105.95         11.30       1689.09       2326.44          0.00         -3.79          0.41
   105.96         11.30       1688.24       2325.39          0.00         -1.33          0.41
   105.97         11.30       1689.09       2326.69         -0.00          0.06          0.41
   105.98         11.30       1691.19       2329.73         -0.00         -0.33          0.41
   105.99         11.29       1689.09       2326.97         -0.01          0.92          0.41
   106.00         11.29       1689.09       2327.08         -0.01          1.03          0.41
   106.01         11.29       1691.19       2330.10         -0.01          4.01          0.41
   106.02         11.29       1689.09       2327.25         -0.01          0.62          0.41
   106.03         11.29       1688.24       2326.01         -0.01          0.59          0.41
   106.04         11.29       1691.61       2330.59         -0.01          4.01          0.00
   106.05         11.29       1688.67       2326.39         -0.01         -3.09          0.00
   106.06         11.30       1687.82       2325.04         -0.00         -0.47          0.00
   106.07         11.30       1691.19       2329.54          0.00          3.97          0.00
   106.08         11.30       1690.35       2328.18          0.01         -1.50          0.00
   106.09         11.30       1688.25       2325.14          0.01         -0.01          0.00
   106.10         11.31       1690.35       2327.90          0.01          1.59          0.00
   106.11         11.31       1690.35       2327.84          0.01         -1.39          0.00
   106.12         11.31       1688.25       2324.94          0.01         -5.48          0.00
   106.13         11.31       1690.35       2327.81          0.01          2.06          0.00
   106.14         11.31       1690.35       2327.87          0.01         -2.00          0.00
   106.15         11.31       1687.82       2324.39          0.01         -5.51          0.00
   106.16         11.31       1690.77       2328.45          0.01          2.61          0.00
   106.17         11.31       1691.61       2329.66          0.01         -0.21          0.00
   106.18         11.30       1688.24       2325.11          0.01         -4.76          0.00
   106.19         11.30       1689.09       2326.35          0.01          0.57          0.00
   106.20         11.30       1691.19       2329.34          0.01         -0.54          0.00
   106.21         11.30       1689.09       2326.52          0.01         -2.22          0.00
   106.22         11.30       1689.09       2326.55          0.01          0.74          0.00
   106.23         11.30       1689.09       2326.58          0.01         -2.16          0.00
   106.24         11.30       1689.09       2326.61          0.01         -3.29          0.00
   106.25         11.30       1689.93       2327.79          0.01          1.98          0.00
   106.26         11.30       1689.09       2326.66          0.01          1.98          0.00
   106.27         11.30       1689.51       2327.27          0.00         -2.05          0.00
   106.28         11.30       1688.67       2326.08          0.01          0.82          0.41
   106.29         11.30       1688.67       2326.00          0.01          0.71          0.41
   106.30         11.30       1691.19       2329.42          0.01          0.10          0.41
   106.31         11.30       1688.25       2325.28          0.01         -1.00          0.41
   106.32         11.30       1688.25       2325.25          0.01         -0.92          0.41
   106.33         11.30       1691.19       2329.25          0.00          3.20          0.41
   106.34         11.30       1690.35       2328.01          0.00          2.10          0.41
   106.35         11.31       1688.25       2325.03          0.00         -0.86          0.41
   106.36         11.31       1690.35       2327.84          0.00          2.01          0.41
   106.37         11.31       1690.35       2327.81          0.00         -2.57          0.41
   106.38         11.31       1687.82       2324.31          0.00         -1.36          0.41
   106.39         11.31       1687.82       2324.34          0.00         -1.27          0.41
   106.40         11.31       1690.77       2328.45          0.00         -0.61          0.41
   106.41         11.31       1687.40       2323.78          0.00         -1.24          0.41
   106.42         11.31       1688.24       2324.94          0.00         -0.17          0.41
   106.43         11.31       1690.35       2327.81          0.00         -1.39          0.41
   106.44         11.31       1687.40       2323.75          0.00         -5.50          0.41
   106.45         11.31       1688.24       2325.00          0.00         -0.25          0.00
   106.46         11.30       1690.35       2328.04          0.00          3.92          0.00
   106.47         11.30       1687.40       2324.09          0.00         -4.78          0.00
   106.48         11.30       1688.24       2325.33          0.00          1.02          0.00
   106.49         11.30       1690.35       2328.32          0.00          2.79          0.00
   106.50         11.30       1690.35       2328.32          0.00         -1.27          0.00
   106.51         11.30       1690.35       2328.32          0.00          2.26          0.00
   106.52         11.30       1691.19       2329.62         -0.00          3.65          0.00
   106.53         11.30       1690.35       2328.60         -0.01          2.71          0.41
   106.54         11.29       1690.35       2328.77         -0.01          2.85          0.41
   106.55         11.29       1691.19       2330.07         -0.01          4.13          0.41
   106.56         11.29       1690.35       2328.94         -0.01          2.97          0.41
   106.57         11.29       1690.35       2328.94         -0.01         -1.15          0.41
   106.58         11.29       1691.19       2330.04         -0.01          3.49          0.41
   106.59         11.29       1690.35       2328.80         -0.01          2.28          0.41
   106.60         11.29       1688.24       2325.87         -0.01         -4.16          0.41
   106.61         11.29       1691.19       2329.93         -0.01          3.90          0.41
   106.62         11.29       1689.09       2327.06         -0.01          0.94          0.41
   106.63         11.29       1688.24       2325.90         -0.00         -4.39          0.41
   106.64         11.29       1689.09       2326.97         -0.00         -3.37          0.41
   106.65         11.29       1689.09       2326.89         -0.00          0.63          0.41
   106.66         11.30       1689.09       2326.83         -0.00         -2.29          0.41
   106.67         11.30       1689.09       2326.80         -0.00         -3.45          0.41
   106.68         11.30       1689.51       2327.38         -0.00          1.24          0.41
   106.69         11.30       1688.67       2326.28         -0.00          0.11          0.41
