#Written by Robertson Geologging WinLogger V1.5/410
~VERSION INFORMATION
#------------------------------------------------------------------------------
 VERS. 2.0 : CWLS LOG ASCII STANDARD - VERSION 2.0
 WRAP. NO  : ONE LINE PER DEPTH STEP
~WELL INFORMATION
#MNEM.UNIT         DATA                                DESCRIPTION OF MNEMONIC
#------------------------------------------------------------------------------
 STRT.M          0.0600                            :   START DEPTH
 STOP.M        264.8300                            :   STOP DEPTH
 STEP.M          0.0100                            :   STEP VALUE
 NULL.        -999.2500                            :   NULL VALUE
 COMP.    Coal Authority                           :   COMPANY NAME
 WELL.    Mainsforth Shaft                         :   WELL NAME
 FLD.     N/A                                      :   FIELD NAME
 LOC.     N/A                                      :   LOCATION
 PROV.    N/A                                      :   PROVINCE
 SRVC.    N/A                                      :   SERVICE COMPANY NAME
 DATE.    16 Dec 08                                :   DATE
 UWI.     N/A                                      :   UNIQUE WELL IDENTIFIER
~PARAMETER INFORMATION
#MNEMO.UNIT         VALUE                 DESCRIPTION OF MNEMONIC
#------------------------------------------------------------------------------
~OTHER INFORMATION SECTION
#------------------------------------------------------------------------------
 TCDS 1365
 16,12,2008
~CURVE INFORMATION
#MNEMO.UNIT         API CODE              CURVE DESCRIPTION
#------------------------------------------------------------------------------
 DEPTH.M                                 :   0     Depth
 TEMP.DegC                               :   1     Temperature
 COND.uS/cm                              :   2     Absolute Conductivity
 COND.uS/cm                              :   3     Conductivity@25DegC
 DELT.DegC                               :   4     Delta T
 DELC.uS/cm                              :   5     Delta C
 NGAM.CPS                                :   6     Natural Gamma
#------------------------------------------------------------------------------
~A  DEPTH          TEMP          COND          COND          DELT          DELC          NGAM
# ...
    17.26         10.75       1415.34       1979.45          0.02         -0.54          0.00
    17.27         10.75       1416.59       1981.22          0.02          2.99          0.00
    17.28         10.75       1416.59       1981.22          0.02          2.99          0.00
    17.29         10.75       1416.59       1981.22          0.02          1.25          0.00
    17.30         10.75       1416.59       1981.12          0.02          2.94          0.00
    17.31         10.75       1415.34       1979.26          0.02          1.08          0.00
    17.32         10.76       1417.01       1981.51          0.02          3.36          0.00
    17.33         10.76       1417.01       1981.44          0.02          5.12          0.00
    17.34         10.76       1417.01       1981.49          0.02          5.15          0.00
    17.35         10.75       1417.01       1981.56          0.02          5.20          0.00
    17.36         10.75       1414.52       1978.17          0.02         -1.72          0.00
    17.37         10.75       1414.52       1978.27          0.02          1.21          0.00
    17.38         10.75       1414.52       1978.25          0.02         -0.58          0.00
    17.39         10.75       1414.52       1978.22          0.02         -2.40          0.00
    17.40         10.75       1417.42       1982.26          0.02          1.67          0.00
    17.41         10.75       1417.42       1982.34          0.02          5.85          0.00
    17.42         10.75       1418.67       1984.20          0.02          7.79          0.00
    17.43         10.75       1415.76       1980.28          0.01          2.20          0.00
    17.44         10.74       1414.52       1978.68          0.01         -1.16          0.00
    17.45         10.74       1414.52       1978.83          0.01         -0.99          0.00
    17.46         10.74       1414.52       1978.95          0.00         -2.59          0.00
    17.47         10.74       1418.67       1984.81          0.00          5.06          0.00
    17.48         10.74       1418.67       1984.83          0.00          5.18          0.00
    17.49         10.74       1418.67       1984.81         -0.00          5.28          0.35
    17.50         10.74       1417.42       1983.04         -0.00          5.40          0.35
    17.51         10.74       1414.52       1979.00         -0.01          3.22          0.35
    17.52         10.74       1415.76       1980.79         -0.01          0.97          0.35
    17.53         10.74       1415.76       1980.81         -0.01          1.00          0.35
    17.54         10.74       1417.01       1982.58         -0.01          2.69          0.35
    17.55         10.74       1418.25       1984.35         -0.01          4.43          0.35
    17.56         10.74       1418.25       1984.30         -0.01          4.38          0.35
    17.57         10.74       1419.50       1986.02         -0.01          9.59          0.35
    17.58         10.74       1416.59       1981.92         -0.01          3.80          0.35
    17.59         10.74       1415.35       1980.13         -0.01          2.03          0.35
    17.60         10.74       1417.42       1983.09         -0.01          4.99          0.35
    17.61         10.74       1418.67       1984.85         -0.01          4.96          0.35
    17.62         10.74       1418.67       1984.83         -0.00          6.58          0.35
    17.63         10.74       1417.42       1982.97          0.00          4.65          0.35
    17.64         10.74       1417.42       1982.84          0.00          2.68          0.35
    17.65         10.74       1417.42       1982.70          0.01          2.49          0.35
    17.66         10.75       1417.42       1982.55          0.01          5.78          0.00
    17.67         10.75       1417.42       1982.48          0.01          5.68          0.00
    17.68         10.75       1416.17       1980.62          0.02          2.03          0.00
    17.69         10.75       1414.93       1978.78          0.02          0.14          0.00
    17.70         10.75       1419.08       1984.54          0.02          7.59          0.00
    17.71         10.75       1417.01       1981.56          0.02          4.54          0.00
    17.72         10.76       1415.76       1979.77          0.02         -1.27          0.00
    17.73         10.76       1415.76       1979.72          0.02         -2.93          0.00
    17.74         10.76       1415.76       1979.72          0.02         -1.07          0.00
    17.75         10.76       1417.01       1981.49          0.02          2.58          0.00
    17.76         10.75       1415.76       1979.84          0.01          1.08          0.00
    17.77         10.75       1415.76       1979.96          0.01         -0.41          0.00
    17.78         10.75       1417.01       1981.75          0.01          1.45          0.00
    17.79         10.75       1417.01       1981.83          0.00          1.57          0.00
    17.80         10.75       1419.50       1985.36          0.00          5.05          0.00
    17.81         10.75       1416.59       1981.32          0.01         -0.87          0.00
    17.82         10.75       1416.59       1981.39          0.01         -0.90          0.00
    17.83         10.75       1416.59       1981.44          0.01          3.07          0.00
    17.84         10.75       1419.50       1985.55          0.01          8.76          0.00
    17.85         10.74       1419.50       1985.63          0.01          6.99          0.00
    17.86         10.74       1418.25       1983.91          0.01          1.16          0.00
    17.87         10.74       1418.25       1983.86          0.01          1.09          0.00
    17.88         10.75       1417.01       1982.05          0.01         -0.70          0.00
    17.89         10.75       1415.76       1980.26          0.01         -0.73          0.00
    17.90         10.75       1418.67       1984.35          0.01          3.43          0.00
    17.91         10.75       1417.42       1982.68          0.01          3.65          0.00
    17.92         10.74       1417.42       1982.73          0.00          2.20          0.00
    17.93         10.74       1417.42       1982.78         -0.00          2.42          0.00
    17.94         10.74       1417.42       1982.85         -0.00          2.57          0.00
    17.95         10.74       1417.42       1982.92         -0.01          0.97          0.00
    17.96         10.74       1417.42       1982.99         -0.01          1.02          0.00
    17.97         10.74       1416.18       1981.28         -0.01          3.37          0.00
    17.98         10.74       1417.42       1983.04         -0.01          5.09          0.00
    17.99         10.74       1418.67       1984.76         -0.01          6.71          0.00
    18.00         10.74       1419.91       1986.45         -0.00          4.87          0.00
    18.01         10.74       1417.01       1982.29         -0.00          2.37          0.00
    18.02         10.74       1417.01       1982.14          0.00          2.18          0.00
    18.03         10.75       1418.25       1983.79          0.01          3.73          0.00
    18.04         10.75       1417.01       1982.00          0.01          1.84          0.00
    18.05         10.75       1418.25       1983.76          0.01          3.51          0.00
    18.06         10.75       1415.35       1979.70          0.01          1.09          0.00
    18.07         10.75       1415.35       1979.70          0.01         -2.96          0.00
    18.08         10.75       1417.84       1983.16          0.01          0.45          0.00
    18.09         10.75       1416.59       1981.34          0.01          0.40          0.00
    18.10         10.75       1416.59       1981.27          0.01          0.38          0.00
    18.11         10.75       1415.34       1979.48          0.02         -1.44          0.00
