#Written by Robertson Geologging WinLogger V1.5/410
~VERSION INFORMATION
#------------------------------------------------------------------------------
 VERS. 2.0 : CWLS LOG ASCII STANDARD - VERSION 2.0
 WRAP. NO  : ONE LINE PER DEPTH STEP
~WELL INFORMATION
#MNEM.UNIT         DATA                                DESCRIPTION OF MNEMONIC
#------------------------------------------------------------------------------
 STRT.M          0.0600                            :   START DEPTH
 STOP.M        264.8300                            :   STOP DEPTH
 STEP.M          0.0100                            :   STEP VALUE
 NULL.        -999.2500                            :   NULL VALUE
 COMP.    Coal Authority                           :   COMPANY NAME
 WELL.    Mainsforth Shaft                         :   WELL NAME
 FLD.     N/A                                      :   FIELD NAME
 LOC.     N/A                                      :   LOCATION
 PROV.    N/A                                      :   PROVINCE
 SRVC.    N/A                                      :   SERVICE COMPANY NAME
 DATE.    16 Dec 08                                :   DATE
 UWI.     N/A                                      :   UNIQUE WELL IDENTIFIER
~PARAMETER INFORMATION
#MNEMO.UNIT         VALUE                 DESCRIPTION OF MNEMONIC
#------------------------------------------------------------------------------
~OTHER INFORMATION SECTION
#------------------------------------------------------------------------------
 TCDS 1365
 16,12,2008
~CURVE INFORMATION
#MNEMO.UNIT         API CODE              CURVE DESCRIPTION
#------------------------------------------------------------------------------
 DEPTH.M                                 :   0     Depth
 TEMP.DegC                               :   1     Temperature
 COND.uS/cm                              :   2     Absolute Conductivity
 COND.uS/cm                              :   3     Conductivity@25DegC
 DELT.DegC                               :   4     Delta T
 DELC.uS/cm                              :   5     Delta C
 NGAM.CPS                                :   6     Natural Gamma
#------------------------------------------------------------------------------
~A  DEPTH          TEMP          COND          COND          DELT          DELC          NGAM
# ...
   228.82         13.99       3792.89       4864.11          0.01          4.51          0.00
   228.83         13.99       3791.51       4862.17          0.01          0.84          0.00
   228.84         13.99       3792.89       4863.89          0.01          0.25          0.00
   228.85         13.99       3792.89       4863.84          0.01          0.14          0.00
   228.86         13.99       3792.89       4863.89          0.01          4.29          0.00
   228.87         13.99       3789.66       4859.85          0.01         -3.86          0.00
   228.88         13.99       3789.66       4859.90          0.01         -3.75          0.00
   228.89         13.99       3789.66       4859.85          0.01         -1.86          0.00
   228.90         13.99       3791.04       4861.68          0.01          0.20          0.00
   228.91         13.99       3791.04       4861.79          0.01         -1.26          0.00
   228.92         13.99       3789.66       4860.18          0.00         -0.93          0.00
   228.93         13.98       3789.66       4860.50         -0.00         -2.32          0.00
   228.94         13.98       3791.04       4862.50         -0.00          1.45          0.00
   228.95         13.98       3791.04       4862.67         -0.00          3.94          0.00
   228.96         13.98       3792.89       4865.15         -0.00          4.10          0.35
   228.97         13.98       3789.66       4860.95         -0.01         -4.09          0.35
   228.98         13.98       3792.90       4865.10         -0.01          4.44          0.35
   228.99         13.98       3792.90       4865.21         -0.01          4.71          0.35
   229.00         13.98       3792.90       4865.32         -0.01          3.04          0.35
   229.01         13.98       3791.51       4863.59         -0.01          2.88          0.35
   229.02         13.98       3791.51       4863.59         -0.01          2.55          0.35
   229.03         13.98       3791.51       4863.48         -0.00          2.06          0.35
   229.04         13.98       3791.51       4863.16          0.00          1.62          0.35
   229.05         13.98       3793.36       4865.42          0.00          2.05          0.35
   229.06         13.98       3793.36       4865.26          0.00         -0.27          0.71
   229.07         13.98       3790.12       4861.05          0.00          2.37          0.71
   229.08         13.98       3793.36       4865.36         -0.00          6.74          0.71
   229.09         13.98       3791.51       4863.04         -0.00          0.38          0.71
   229.10         13.98       3790.12       4861.32         -0.00         -1.35          1.12
   229.11         13.98       3790.12       4861.37         -0.00          0.49          1.12
   229.12         13.98       3791.51       4863.21         -0.01          0.71          1.12
   229.13         13.98       3793.36       4865.64         -0.01          5.19          0.76
   229.14         13.98       3791.51       4863.32         -0.01          1.37          0.76
   229.15         13.98       3793.36       4865.91         -0.01          5.74          0.76
   229.16         13.98       3791.51       4863.54         -0.01          3.37          0.76
   229.17         13.98       3790.12       4861.76         -0.01          1.37          0.76
   229.18         13.98       3791.51       4863.43         -0.01         -1.49          0.76
   229.19         13.98       3791.51       4863.10         -0.00         -2.10          1.59
   229.20         13.98       3790.12       4861.16          0.00         -0.27          1.59
   229.21         13.99       3791.51       4862.66          0.01          0.96          1.59
   229.22         13.99       3793.36       4864.93          0.01          1.28          1.59
   229.23         13.99       3793.36       4864.76          0.01          2.84          1.24
   229.24         13.99       3791.51       4862.12          0.01         -1.64          1.24
   229.25         13.99       3793.36       4864.21          0.02          0.46          1.24
   229.26         13.99       3791.51       4861.57          0.02         -2.08          1.24
   229.27         14.00       3790.12       4859.73          0.02         -3.91          0.82
   229.28         13.99       3791.51       4861.57          0.02          0.30          0.82
   229.29         13.99       3793.36       4864.21          0.01          0.62          1.18
   229.30         13.99       3793.36       4864.49          0.01          0.90          1.18
   229.31         13.99       3794.75       4866.43          0.01          5.32          1.18
   229.32         13.99       3793.36       4865.03          0.01          1.66          1.18
   229.33         13.98       3791.51       4862.88          0.00         -0.44          1.18
   229.34         13.98       3790.12       4861.43          0.00         -3.73          1.18
   229.35         13.98       3790.12       4861.81         -0.00         -3.40          1.18
   229.36         13.98       3791.51       4863.81         -0.00          0.33          0.35
   229.37         13.98       3790.12       4862.08         -0.00         -3.23          0.76
   229.38         13.98       3791.51       4863.76         -0.00         -1.51          0.76
   229.39         13.98       3791.51       4863.70         -0.00         -1.56          0.76
   229.40         13.98       3791.51       4863.48          0.00          2.37          0.76
   229.41         13.98       3791.51       4863.43          0.00          2.37          0.76
   229.42         13.98       3790.12       4861.48          0.00         -3.67          0.76
   229.43         13.98       3791.51       4862.82          0.00          1.94          0.76
   229.44         13.99       3791.51       4862.55          0.01          1.72          0.76
   229.45         13.99       3791.51       4862.33          0.01          1.50          0.76
   229.46         13.99       3791.51       4862.22          0.01          1.28          0.41
   229.47         13.99       3791.51       4862.28          0.01         -2.98          0.41
   229.48         13.99       3794.75       4866.59          0.01          1.22          0.41
   229.49         13.99       3791.51       4862.55          0.01          1.28          0.82
   229.50         13.99       3791.51       4862.61          0.01          1.33          0.82
   229.51         13.99       3791.51       4862.66          0.01         -0.39          0.82
   229.52         13.99       3791.51       4862.55          0.01         -2.82          0.82
   229.53         13.99       3792.90       4864.33          0.01         -1.04          0.82
   229.54         13.99       3792.90       4864.33          0.01         -2.71          0.41
   229.55         13.99       3791.51       4862.55          0.01         -2.49          0.41
   229.56         13.99       3792.90       4864.28          0.00         -0.55          0.41
   229.57         13.99       3792.90       4864.17          0.00         -0.49          0.41
   229.58         13.99       3792.90       4864.06          0.00          3.61          0.41
   229.59         13.99       3791.05       4861.52          0.01          1.07          0.41
   229.60         13.99       3792.89       4863.89          0.01         -0.77          0.41
   229.61         13.99       3792.89       4863.89          0.01          1.07          0.41
   229.62         13.99       3791.04       4861.63          0.00         -1.03          0.41
   229.63         13.99       3791.04       4861.85          0.00         -0.76          0.41
   229.64         13.99       3789.66       4860.18         -0.00         -2.21          0.41
   229.65         13.98       3789.66       4860.45         -0.00         -1.88          0.41
   229.66         13.98       3791.04       4862.34         -0.01          0.06          0.00
   229.67         13.98       3792.89       4864.66         -0.01          2.49          0.00
