#Written by Robertson Geologging WinLogger V1.5/410
~VERSION INFORMATION
#------------------------------------------------------------------------------
 VERS. 2.0 : CWLS LOG ASCII STANDARD - VERSION 2.0
 WRAP. NO  : ONE LINE PER DEPTH STEP
~WELL INFORMATION
#MNEM.UNIT         DATA                                DESCRIPTION OF MNEMONIC
#------------------------------------------------------------------------------
 STRT.M          0.0100                            :   START DEPTH
 STOP.M        254.5000                            :   STOP DEPTH
 STEP.M          0.0100                            :   STEP VALUE
 NULL.        -999.2500                            :   NULL VALUE
 COMP.    I.W.S.                                   :   COMPANY NAME
 WELL.    MAINSFORTH SHAFT                         :   WELL NAME
 FLD.     N/A                                      :   FIELD NAME
 LOC.     N/A                                      :   LOCATION
 PROV.    N/A                                      :   PROVINCE
 SRVC.    N/A                                      :   SERVICE COMPANY NAME
 DATE.    02 Dec 11                                :   DATE
 UWI.     N/A                                      :   UNIQUE WELL IDENTIFIER
~PARAMETER INFORMATION
#MNEMO.UNIT         VALUE                 DESCRIPTION OF MNEMONIC
#------------------------------------------------------------------------------
~OTHER INFORMATION SECTION
#------------------------------------------------------------------------------
 1365 LOW
~CURVE INFORMATION
#MNEMO.UNIT         API CODE              CURVE DESCRIPTION
#------------------------------------------------------------------------------
 DEPTH.M                                 :   0     Depth
 COND.uS/cm                              :   1     Absolute Conductivity
 COND.uS/cm                              :   2     Conductivity@25DegC
 TEMP.DegC                               :   3     Temperature
#------------------------------------------------------------------------------
~A  DEPTH          COND          COND          TEMP
# ...
   118.59       2347.38       3216.56         11.49
   118.60       2347.38       3216.48         11.49
   118.61       2350.74       3220.97         11.49
   118.62       2354.09       3225.50         11.49
   118.63       2358.29       3231.17         11.49
   118.64       2358.29       3231.02         11.49
   118.65       2361.65       3235.39         11.50
   118.66       2361.65       3235.08         11.50
   118.67       2365.01       3239.33         11.50
   118.68       2368.37       3243.50         11.51
   118.69       2368.37       3243.08         11.51
   118.70       2371.73       3247.29         11.52
   118.71       2378.45       3256.13         11.52
   118.72       2379.29       3256.89         11.53
   118.73       2379.29       3256.47         11.53
   118.74       2378.45       3254.85         11.54
   118.75       2382.65       3260.09         11.54
   118.76       2382.65       3259.70         11.55
   118.77       2382.65       3259.35         11.55
   118.78       2382.65       3259.04         11.55
   118.79       2386.01       3263.28         11.56
   118.80       2386.01       3262.89         11.56
   118.81       2386.01       3262.46         11.57
   118.82       2382.65       3257.28         11.57
   118.83       2386.85       3262.56         11.58
   118.84       2386.85       3262.09         11.58
   118.85       2386.85       3261.54         11.59
   118.86       2386.85       3261.15         11.60
   118.87       2390.20       3265.31         11.60
   118.88       2389.36       3263.70         11.61
   118.89       2390.20       3264.38         11.61
   118.90       2390.20       3263.95         11.62
   118.91       2389.36       3262.26         11.62
   118.92       2394.40       3268.75         11.63
   118.93       2394.40       3268.44         11.63
   118.94       2392.72       3265.79         11.63
   118.95       2393.56       3266.59         11.64
   118.96       2396.92       3270.82         11.64
   118.97       2399.44       3273.83         11.65
   118.98       2396.92       3270.00         11.65
   118.99       2400.28       3274.19         11.65
   119.00       2402.80       3277.16         11.66
   119.01       2400.28       3273.26         11.67
   119.02       2403.64       3277.49         11.67
   119.03       2403.64       3277.10         11.67
   119.04       2407.00       3281.29         11.68
   119.05       2407.00       3280.82         11.68
   119.06       2407.00       3280.35         11.69
   119.07       2407.00       3279.92         11.69
   119.08       2407.00       3279.53         11.70
   119.09       2411.20       3284.82         11.70
   119.10       2411.20       3284.39         11.71
   119.11       2408.68       3280.60         11.71
   119.12       2411.20       3283.68         11.71
   119.13       2412.88       3285.66         11.72
   119.14       2414.98       3288.13         11.72
   119.15       2414.98       3287.74         11.73
   119.16       2416.66       3289.75         11.73
   119.17       2419.18       3292.98         11.73
   119.18       2425.06       3300.83         11.73
   119.19       2425.06       3300.63         11.74
   119.20       2427.16       3303.29         11.74
   119.21       2428.84       3305.34         11.74
   119.22       2431.36       3308.54         11.74
   119.23       2435.14       3313.48         11.75
   119.24       2435.14       3313.28         11.75
   119.25       2435.14       3313.17         11.75
   119.26       2436.82       3315.41         11.75
   119.27       2438.91       3318.07         11.75
   119.28       2440.59       3320.08         11.76
   119.29       2434.72       3311.69         11.76
   119.30       2438.49       3316.47         11.76
   119.31       2436.39       3313.34         11.77
   119.32       2438.49       3316.00         11.77
   119.33       2440.17       3318.09         11.77
   119.34       2440.17       3317.89         11.77
   119.35       2442.27       3320.51         11.78
   119.36       2440.17       3317.38         11.78
   119.37       2442.27       3320.00         11.78
   119.38       2440.17       3317.06         11.78
   119.39       2442.27       3319.88         11.78
   119.40       2442.27       3319.96         11.78
   119.41       2444.37       3322.81         11.78
   119.42       2446.47       3325.55         11.78
   119.43       2444.37       3322.61         11.78
   119.44       2446.47       3325.35         11.79
   119.45       2442.69       3320.09         11.79
   119.46       2444.79       3322.95         11.79
   119.47       2443.11       3320.55         11.79
   119.48       2445.21       3323.20         11.79
   119.49       2447.31       3325.82         11.79
   119.50       2443.53       3320.41         11.80
   119.51       2449.41       3328.28         11.80
   119.52       2443.53       3320.17         11.80
   119.53       2445.63       3323.02         11.80
   119.54       2447.73       3325.76         11.80
   119.55       2443.95       3320.43         11.80
   119.56       2449.83       3328.33         11.80
   119.57       2447.73       3325.21         11.81
   119.58       2449.41       3327.33         11.81
   119.59       2447.31       3324.40         11.81
   119.60       2447.31       3324.20         11.81
   119.61       2448.99       3326.48         11.81
   119.62       2446.89       3323.47         11.81
   119.63       2450.67       3328.57         11.81
   119.64       2446.47       3322.82         11.81
   119.65       2446.47       3322.74         11.81
   119.66       2448.15       3325.06         11.81
   119.67       2446.05       3322.13         11.81
   119.68       2446.05       3322.17         11.81
   119.69       2446.05       3322.33         11.81
   119.70       2446.05       3322.45         11.81
   119.71       2446.05       3322.69         11.81
   119.72       2446.05       3322.77         11.81
   119.73       2446.05       3322.73         11.81
   119.74       2448.15       3325.46         11.81
   119.75       2446.47       3323.02         11.81
   119.76       2446.47       3322.94         11.81
   119.77       2450.67       3328.65         11.81
   119.78       2450.67       3328.65         11.81
   119.79       2446.89       3323.51         11.81
   119.80       2451.09       3329.10         11.81
   119.81       2451.09       3329.02         11.81
   119.82       2451.09       3329.02         11.81
   119.83       2451.09       3329.10         11.81
   119.84       2451.09       3329.29         11.81
   119.85       2448.99       3326.52         11.81
   119.86       2450.67       3328.84         11.81
   119.87       2450.67       3328.80         11.81
   119.88       2448.57       3325.79         11.81
   119.89       2446.47       3322.82         11.81
   119.90       2450.25       3327.88         11.81
   119.91       2448.15       3325.03         11.81
   119.92       2450.25       3327.88         11.81
   119.93       2446.47       3322.74         11.81
   119.94       2450.67       3328.37         11.81
   119.95       2450.67       3328.33         11.82
   119.96       2450.67       3328.37         11.81
   119.97       2450.67       3328.41         11.81
   119.98       2450.67       3328.57         11.81
   119.99       2450.67       3328.68         11.81
   120.00       2450.67       3328.76         11.81
   120.01       2450.67       3328.76         11.81
   120.02       2452.77       3331.54         11.81
   120.03       2450.67       3328.53         11.81
   120.04       2454.45       3333.46         11.82
   120.05       2450.25       3327.56         11.82
   120.06       2450.25       3327.28         11.82
   120.07       2448.15       3324.28         11.82
   120.08       2450.25       3327.01         11.82
   120.09       2450.25       3326.93         11.82
   120.10       2452.35       3329.78         11.82
   120.11       2454.45       3332.67         11.82
   120.12       2452.35       3329.86         11.82
