#Written by Robertson Geologging WinLogger V1.5/410
~VERSION INFORMATION
#------------------------------------------------------------------------------
 VERS. 2.0 : CWLS LOG ASCII STANDARD - VERSION 2.0
 WRAP. NO  : ONE LINE PER DEPTH STEP
~WELL INFORMATION
#MNEM.UNIT         DATA                                DESCRIPTION OF MNEMONIC
#------------------------------------------------------------------------------
 STRT.M          0.0600                            :   START DEPTH
 STOP.M        264.8300                            :   STOP DEPTH
 STEP.M          0.0100                            :   STEP VALUE
 NULL.        -999.2500                            :   NULL VALUE
 COMP.    Coal Authority                           :   COMPANY NAME
 WELL.    Mainsforth Shaft                         :   WELL NAME
 FLD.     N/A                                      :   FIELD NAME
 LOC.     N/A                                      :   LOCATION
 PROV.    N/A                                      :   PROVINCE
 SRVC.    N/A                                      :   SERVICE COMPANY NAME
 DATE.    16 Dec 08                                :   DATE
 UWI.     N/A                                      :   UNIQUE WELL IDENTIFIER
~PARAMETER INFORMATION
#MNEMO.UNIT         VALUE                 DESCRIPTION OF MNEMONIC
#------------------------------------------------------------------------------
~OTHER INFORMATION SECTION
#------------------------------------------------------------------------------
 TCDS 1365
 16,12,2008
~CURVE INFORMATION
#MNEMO.UNIT         API CODE              CURVE DESCRIPTION
#------------------------------------------------------------------------------
 DEPTH.M                                 :   0     Depth
 TEMP.DegC                               :   1     Temperature
 COND.uS/cm                              :   2     Absolute Conductivity
 COND.uS/cm                              :   3     Conductivity@25DegC
 DELT.DegC                               :   4     Delta T
 DELC.uS/cm                              :   5     Delta C
 NGAM.CPS                                :   6     Natural Gamma
#------------------------------------------------------------------------------
~A  DEPTH          TEMP          COND          COND          DELT          DELC          NGAM
# ...
    52.52         10.73       1425.31       1994.69         -0.00          2.45          0.41
    52.53         10.73       1425.31       1994.64          0.00          4.63          0.41
    52.54         10.73       1425.31       1994.59          0.00          6.15          0.82
    52.55         10.73       1425.31       1994.54          0.01          1.91          0.82
    52.56         10.73       1422.40       1990.48          0.01         -3.95          0.82
    52.57         10.73       1422.40       1990.40          0.01         -2.30          0.82
    52.58         10.73       1423.65       1992.15          0.01         -0.51          0.82
    52.59         10.73       1422.40       1990.38          0.01          1.81          0.82
    52.60         10.73       1425.31       1994.37          0.01          4.07          0.82
    52.61         10.73       1422.40       1990.23          0.01          1.69          0.82
    52.62         10.74       1424.89       1993.67          0.01          1.16          0.82
    52.63         10.74       1421.99       1989.62          0.01         -4.46          0.82
    52.64         10.73       1420.74       1987.90          0.00         -4.24          0.41
    52.65         10.73       1421.99       1989.75         -0.00         -3.92          0.41
    52.66         10.73       1423.65       1992.07         -0.01          2.64          0.41
    52.67         10.73       1423.65       1992.10         -0.01          4.48          0.41
    52.68         10.73       1424.89       1993.94         -0.01          4.61          0.41
    52.69         10.73       1423.65       1992.22         -0.01          2.84          0.41
    52.70         10.73       1423.65       1992.32         -0.01          1.15          0.41
    52.71         10.73       1421.99       1990.04         -0.01         -3.48          0.00
    52.72         10.73       1421.99       1990.11         -0.01         -3.46          0.00
    52.73         10.72       1421.99       1990.23         -0.01          0.76          0.00
    52.74         10.72       1424.89       1994.35         -0.01          6.55          0.00
    52.75         10.72       1424.89       1994.40         -0.01          4.73          0.00
    52.76         10.72       1424.89       1994.30         -0.01          2.23          0.00
    52.77         10.73       1421.99       1990.16         -0.01         -1.98          0.00
    52.78         10.73       1421.99       1990.09         -0.01         -3.78          0.00
    52.79         10.73       1421.99       1989.99         -0.00         -2.06          0.00
    52.80         10.73       1421.99       1989.94         -0.01         -2.03          0.00
    52.81         10.73       1423.23       1991.59         -0.00         -2.66          0.00
    52.82         10.73       1424.89       1993.86         -0.00          5.42          0.00
    52.83         10.73       1424.89       1993.86         -0.00          1.40          0.00
    52.84         10.73       1424.89       1993.79         -0.00         -0.44          0.00
    52.85         10.73       1421.99       1989.67         -0.00         -4.51          0.00
    52.86         10.74       1423.23       1991.32         -0.00         -1.04          0.00
    52.87         10.74       1421.99       1989.48         -0.00         -0.51          0.00
    52.88         10.74       1421.99       1989.50         -0.00         -0.44          0.00
    52.89         10.74       1423.23       1991.19         -0.00          1.18          0.00
    52.90         10.74       1424.89       1993.52          0.00          3.43          0.00
    52.91         10.74       1423.65       1991.80          0.00         -0.05          0.00
    52.92         10.74       1425.31       1994.08          0.00          2.23          0.00
    52.93         10.74       1422.40       1990.01          0.00         -1.79          0.00
    52.94         10.74       1423.65       1991.71          0.00         -0.07          0.00
    52.95         10.74       1422.40       1989.91          0.00         -1.89          0.00
    52.96         10.74       1422.40       1989.89          0.00         -1.94          0.00
    52.97         10.74       1422.40       1989.89          0.00         -1.94          0.00
    52.98         10.74       1425.31       1994.03          0.00          2.18          0.00
    52.99         10.74       1424.07       1992.26          0.00          0.46          0.00
    53.00         10.74       1425.73       1994.64          0.00          2.88          0.00
    53.01         10.74       1424.07       1992.34         -0.00          0.61          0.00
    53.02         10.74       1425.31       1994.05          0.00          2.33          0.00
    53.03         10.74       1422.40       1990.08         -0.00         -1.69          0.00
    53.04         10.74       1423.65       1991.85         -0.00         -1.67          0.00
    53.05         10.74       1422.40       1990.11         -0.00         -1.01          0.00
    53.06         10.74       1425.31       1994.20         -0.00          4.87          0.00
    53.07         10.74       1424.07       1992.44         -0.00          1.41          0.00
    53.08         10.74       1425.73       1994.83         -0.01          3.79          0.00
    53.09         10.73       1422.82       1990.86         -0.01         -0.23          0.00
    53.10         10.73       1424.07       1992.73         -0.01         -0.16          0.00
    53.11         10.73       1421.16       1988.81         -0.01         -2.36          0.00
    53.12         10.73       1421.16       1988.81         -0.01         -4.08          0.00
    53.13         10.73       1424.07       1992.92         -0.01          1.78          0.00
    53.14         10.73       1424.07       1992.97         -0.01          1.88          0.00
    53.15         10.73       1424.07       1992.97         -0.01          3.67          0.00
    53.16         10.73       1424.07       1993.05         -0.01          1.34          0.00
    53.17         10.73       1421.16       1988.98         -0.01         -2.73          0.00
    53.18         10.73       1423.65       1992.41         -0.01          0.68          0.00
    53.19         10.73       1420.74       1988.25         -0.01         -3.53          0.00
    53.20         10.73       1423.65       1992.19         -0.01          0.46          0.00
    53.21         10.73       1424.89       1993.81         -0.01          3.83          0.00
    53.22         10.73       1424.89       1993.72         -0.01          2.03          0.00
    53.23         10.73       1424.89       1993.74         -0.01          3.78          0.00
    53.24         10.74       1421.99       1989.62         -0.00         -4.43          0.00
    53.25         10.74       1423.23       1991.27          0.00         -0.58          0.00
    53.26         10.74       1421.99       1989.53          0.00         -4.19          0.00
    53.27         10.74       1423.23       1991.24          0.00         -0.17          0.00
    53.28         10.74       1423.23       1991.27          0.00         -0.17          0.00
    53.29         10.74       1424.89       1993.64          0.00          2.28          0.00
    53.30         10.74       1426.14       1995.41         -0.00          4.17          0.00
    53.31         10.73       1423.23       1991.39         -0.00          0.17          0.35
    53.32         10.73       1423.23       1991.46         -0.01          0.29          0.35
    53.33         10.73       1423.23       1991.54         -0.01          0.37          0.35
    53.34         10.73       1423.23       1991.59         -0.01          0.42          0.35
    53.35         10.73       1423.23       1991.59         -0.01          2.81          0.35
    53.36         10.73       1421.99       1989.84         -0.01         -1.13          0.35
    53.37         10.73       1423.23       1991.54         -0.01          0.61          0.35
