#Written by Robertson Geologging WinLogger V1.5/410
~VERSION INFORMATION
#------------------------------------------------------------------------------
 VERS. 2.0 : CWLS LOG ASCII STANDARD - VERSION 2.0
 WRAP. NO  : ONE LINE PER DEPTH STEP
~WELL INFORMATION
#MNEM.UNIT         DATA                                DESCRIPTION OF MNEMONIC
#------------------------------------------------------------------------------
 STRT.M          0.0100                            :   START DEPTH
 STOP.M        255.2200                            :   STOP DEPTH
 STEP.M          0.0100                            :   STEP VALUE
 NULL.        -999.2500                            :   NULL VALUE
 COMP.    IWS                                      :   COMPANY NAME
 WELL.    Mainsforth                               :   WELL NAME
 FLD.     N/A                                      :   FIELD NAME
 LOC.     N/A                                      :   LOCATION
 PROV.    N/A                                      :   PROVINCE
 SRVC.    N/A                                      :   SERVICE COMPANY NAME
 DATE.    01 Feb 11                                :   DATE
 UWI.     N/A                                      :   UNIQUE WELL IDENTIFIER
~PARAMETER INFORMATION
#MNEMO.UNIT         VALUE                 DESCRIPTION OF MNEMONIC
#------------------------------------------------------------------------------
~OTHER INFORMATION SECTION
#------------------------------------------------------------------------------
 1365
~CURVE INFORMATION
#MNEMO.UNIT         API CODE              CURVE DESCRIPTION
#------------------------------------------------------------------------------
 DEPTH.M                                 :   0     Depth
 CN25.uS/cm                              :   1     Conductivity@25DegC
 TEMP.DegC                               :   2     Temperature
 DELT.DegC                               :   3     Delta T
 DELC.uS/cm                              :   4     Delta C
#------------------------------------------------------------------------------
~A  DEPTH          CN25          TEMP          DELT          DELC
# ...
    17.09       1996.81         10.67          0.01          3.40
    17.10       1996.79         10.67          0.01          3.32
    17.11       1996.81         10.67          0.01          3.30
    17.12       1996.84         10.67          0.02          3.22
    17.13       1992.67         10.67          0.02         -0.96
    17.14       1992.67         10.67          0.02         -0.92
    17.15       1992.67         10.67          0.01         -0.84
    17.16       1992.67         10.67          0.01         -0.74
    17.17       1992.65         10.67          0.01         -0.69
    17.18       1992.63         10.67          0.01         -0.69
    17.19       1992.55         10.67          0.01         -0.72
    17.20       1996.57         10.67          0.01          8.10
    17.21       1996.59         10.67          0.01          8.20
    17.22       1996.57         10.67          0.01          8.27
    17.23       1996.59         10.67          0.01          8.37
    17.24       1996.64         10.67          0.01          8.42
    17.25       1996.61         10.67          0.01          8.35
    17.26       1996.64         10.67          0.01          8.32
    17.27       1996.66         10.67          0.01          8.32
    17.28       1996.69         10.67          0.01          8.37
    17.29       1996.76         10.67          0.00          8.57
    17.30       1996.84         10.67          0.00          8.72
    17.31       1992.82         10.66         -0.00          0.02
    17.32       1992.85         10.66         -0.00          0.10
    17.33       1992.87         10.66         -0.00          0.15
    17.34       1996.96         10.66         -0.00          4.31
    17.35       1996.96         10.66         -0.01          4.41
    17.36       1996.99         10.66         -0.01          4.49
    17.37       1997.01         10.66         -0.01          4.49
    17.38       1997.06         10.66         -0.01          4.44
    17.39       1997.06         10.66         -0.00          4.31
    17.40       1997.04         10.66         -0.00          4.14
    17.41       1997.04         10.66          0.00          3.99
    17.42       1996.96         10.66          0.00          3.87
    17.43       1996.94         10.66          0.01          3.77
    17.44       1996.89         10.66          0.01          3.67
    17.45       1992.75         10.66          0.01         -0.49
    17.46       1992.70         10.67          0.01         -0.62
    17.47       1996.79         10.67          0.01          3.45
    17.48       1996.71         10.67          0.01          3.40
    17.49       1996.64         10.67          0.01          3.37
    17.50       1996.69         10.67          0.01          3.47
    17.51       1996.66         10.67          0.01          3.50
    17.52       1996.66         10.67          0.01          3.57
    17.53       1996.71         10.67          0.01          3.57
    17.54       1996.69         10.67          0.01          3.54
    17.55       1996.71         10.67          0.01          3.54
    17.56       1996.74         10.67          0.01          3.52
    17.57       1996.76         10.67          0.01          3.59
    17.58       1996.84         10.67          0.01          3.77
    17.59       1996.91         10.66          0.00          3.92
    17.60       1997.04         10.66          0.00          4.11
    17.61       1997.04         10.66         -0.00          4.21
    17.62       1997.04         10.66         -0.00          4.24
    17.63       1997.04         10.66         -0.00          4.26
    17.64       1997.01         10.66         -0.00          4.36
    17.65       1997.04         10.66         -0.01          4.44
    17.66       1997.09         10.66         -0.01          4.56
    17.67       1997.14         10.66         -0.01          4.63
    17.68       1997.21         10.66         -0.01          4.61
    17.69       1997.23         10.66         -0.01          4.58
    17.70       1997.21         10.66         -0.01          4.51
    17.71       1997.11         10.66         -0.01          4.44
    17.72       1996.99         10.66         -0.00          4.34
    17.73       1996.99         10.66         -0.01          4.44
    17.74       1996.99         10.66         -0.01          4.51
    17.75       1997.04         10.66         -0.01          4.53
    17.76       1997.11         10.66         -0.01          4.61
    17.77       1997.11         10.66         -0.01          0.37
    17.78       2000.64         10.66         -0.01          3.87
    17.79       2000.59         10.66         -0.01          3.92
    17.80       1996.40         10.66         -0.01         -0.22
    17.81       1996.32         10.66         -0.01         -0.17
    17.82       1996.30         10.66         -0.01         -0.17
    17.83       1996.32         10.66         -0.01         -0.17
    17.84       1996.30         10.66         -0.01         -0.22
    17.85       1996.30         10.66         -0.01         -0.22
    17.86       1996.20         10.67         -0.01         -0.29
    17.87       2000.83         10.67         -0.00          4.36
    17.88       2000.83         10.67         -0.01          8.55
    17.89       1997.25         10.67         -0.00          4.97
    17.90       1997.25         10.67         -0.00          4.92
    17.91       1997.28         10.67         -0.00          4.90
    17.92       1997.30         10.67         -0.00          4.85
    17.93       1997.30         10.67         -0.00          4.82
    17.94       1997.30         10.67         -0.00          4.82
    17.95       2001.37         10.67         -0.00          8.86
    17.96       2001.29         10.67          0.00          8.72
    17.97       2001.29         10.67          0.00          8.69
    17.98       1996.54         10.67          0.00          3.92
    17.99       1996.47         10.67          0.00          3.84
    18.00       1996.47         10.67          0.00          3.89
    18.01       1996.47         10.67          0.00         -0.22
    18.02       1996.57         10.67          0.00         -0.12
    18.03       2000.22         10.67         -0.00          3.53
    18.04       2000.26         10.67         -0.00          3.60
    18.05       2000.31         10.67         -0.00          3.63
    18.06       1996.23         10.67         -0.00         -0.49
    18.07       1996.23         10.67         -0.00         -0.51
    18.08       1996.27         10.66         -0.00         -0.54
    18.09       1996.35         10.66         -0.00         -0.44
    18.10       1996.40         10.66         -0.00         -0.41
    18.11       1999.95         10.66         -0.00          3.11
    18.12       1999.97         10.66         -0.00          7.30
    18.13       1999.88         10.66         -0.00          7.20
    18.14       1996.32         10.66         -0.00          3.65
    18.15       1996.37         10.66         -0.00          3.70
    18.16       1996.45         10.66         -0.00          3.80
    18.17       1996.55         10.66         -0.01          3.92
    18.18       2000.74         10.66         -0.01          8.19
    18.19       2000.74         10.66         -0.01          4.17
    18.20       2000.71         10.66         -0.01          4.12
    18.21       2000.74         10.66         -0.01          4.17
    18.22       1997.21         10.66         -0.01          0.62
    18.23       1997.18         10.66         -0.01          0.55
    18.24       1997.21         10.66         -0.01          0.59
    18.25       2000.71         10.66         -0.01          4.07
    18.26       2000.69         10.66         -0.01          4.02
    18.27       2000.69         10.66         -0.01          4.00
    18.28       2000.69         10.66         -0.01          3.92
    18.29       1996.57         10.66         -0.01         -0.27
    18.30       1996.60         10.66         -0.00          3.77
