#Written by Robertson Geologging WinLogger V1.0/370
~VERSION INFORMATION
#------------------------------------------------------------------------------
 VERS. 2.0 : CWLS LOG ASCII STANDARD - VERSION 2.0
 WRAP. NO  : ONE LINE PER DEPTH STEP
~WELL INFORMATION
#MNEM.UNIT         DATA                                DESCRIPTION OF MNEMONIC
#------------------------------------------------------------------------------
 STRT.M         68.0800                            :   START DEPTH
 STOP.M        450.0500                            :   STOP DEPTH
 STEP.M          0.0100                            :   STEP VALUE
 NULL.        -999.2500                            :   NULL VALUE
 COMP.    WHITE YOUN GREEN                         :   COMPANY NAME
 WELL.    EASINGTON SHAFT                          :   WELL NAME
 FLD.     EASINGTON                                :   FIELD NAME
 LOC.     N/A                                      :   LOCATION
 PROV.    N/A                                      :   PROVINCE
 SRVC.    N/A                                      :   SERVICE COMPANY NAME
 DATE.    12 Dec 06                                :   DATE
 UWI.     N/A                                      :   UNIQUE WELL IDENTIFIER
~PARAMETER INFORMATION
#MNEMO.UNIT         VALUE                 DESCRIPTION OF MNEMONIC
#------------------------------------------------------------------------------
~OTHER INFORMATION SECTION
#------------------------------------------------------------------------------
 lLOGGING DOWN
~CURVE INFORMATION
#MNEMO.UNIT         API CODE              CURVE DESCRIPTION
#------------------------------------------------------------------------------
 DEPTH.M                                 :   0     Depth
 TEMP.DegC                               :   1     Temperature
 CN25.mS/cm                              :   2     Conductivity@25DegC
 COND.mS/cm                              :   3     Conductivity
 DELT.DegC                               :   4     Delta T
 DELC.mS/cm                              :   5     Delta C
 NGAM.CPS                                :   6     Natural Gamma
#------------------------------------------------------------------------------
~A  DEPTH     TEMP      CN25      COND      DELT      DELC      NGAM      
# ...
   143.79     11.97     10.63      3.18      0.03      0.12      0.41 
   143.80     11.97     10.64      3.18      0.03      0.12      0.41 
   143.81     11.97     10.64      3.19      0.03      0.12      0.41 
   143.82     11.97     10.64      3.19      0.04      0.12      0.41 
   143.83     11.97     10.63      3.18      0.04      0.11      0.00 
   143.84     11.97     10.64      3.19      0.04      0.12      0.00 
   143.85     11.97     10.64      3.19      0.04      0.12      0.00 
   143.86     11.97     10.64      3.19      0.04      0.11      0.00 
   143.87     11.97     10.64      3.19      0.04      0.12      0.00 
   143.88     11.98     10.64      3.19      0.04      0.12      0.00 
   143.89     11.98     10.64      3.19      0.04      0.11      0.00 
   143.90     11.98     10.64      3.19      0.04      0.11      0.00 
   143.91     11.97     10.65      3.20      0.04      0.11      0.00 
   143.92     11.97     10.65      3.20      0.04      0.12      0.00 
   143.93     11.97     10.65      3.20      0.04      0.12      0.00 
   143.94     11.97     10.66      3.20      0.03      0.13      0.00 
   143.95     11.98     10.65      3.20      0.03      0.12      0.00 
   143.96     11.98     10.65      3.20      0.03      0.12      0.00 
   143.97     11.98     10.66      3.20      0.03      0.13      0.00 
   143.98     11.98     10.66      3.20      0.03      0.13      0.00 
   143.99     11.98     10.65      3.20      0.03      0.13      0.00 
   144.00     11.98     10.66      3.21      0.03      0.13      0.00 
   144.01     11.98     10.66      3.21      0.02      0.13      0.00 
   144.02     11.98     10.66      3.21      0.02      0.13      0.00 
   144.03     11.98     10.66      3.21      0.03      0.13      0.00 
   144.04     11.98     10.66      3.21      0.03      0.13      0.00 
   144.05     11.99     10.66      3.21      0.03      0.12      0.00 
   144.06     11.99     10.66      3.21      0.03      0.13      0.00 
   144.07     11.99     10.66      3.21      0.03      0.12      0.41 
   144.08     11.99     10.66      3.22      0.03      0.12      0.41 
   144.09     11.99     10.66      3.22      0.03      0.12      0.41 
   144.10     11.99     10.67      3.22      0.04      0.12      0.41 
   144.11     11.99     10.67      3.22      0.04      0.12      0.41 
   144.12     11.99     10.67      3.22      0.04      0.11      0.41 
   144.13     11.98     10.67      3.22      0.04      0.12      0.41 
   144.14     11.98     10.68      3.22      0.04      0.12      0.41 
   144.15     11.98     10.68      3.22      0.04      0.12      0.41 
   144.16     11.98     10.68      3.23      0.04      0.12      0.41 
   144.17     11.98     10.68      3.23      0.04      0.12      0.41 
   144.18     11.98     10.69      3.23      0.04      0.12      0.82 
   144.19     11.98     10.69      3.23      0.04      0.12      0.82 
   144.20     11.98     10.69      3.23      0.04      0.12      0.82 
   144.21     11.98     10.69      3.23      0.04      0.12      0.82 
   144.22     11.99     10.68      3.23      0.04      0.12      0.82 
   144.23     11.99     10.69      3.23      0.04      0.12      0.82 
   144.24     11.99     10.68      3.23      0.04      0.11      0.41 
   144.25     11.99     10.68      3.24      0.04      0.11      0.41 
   144.26     12.00     10.68      3.24      0.05      0.11      0.41 
   144.27     12.00     10.68      3.24      0.05      0.10      0.41 
   144.28     12.00     10.68      3.24      0.05      0.11      0.41 
   144.29     12.00     10.68      3.24      0.05      0.10      0.41 
   144.30     12.00     10.68      3.24      0.05      0.10      0.41 
   144.31     12.00     10.68      3.24      0.05      0.10      0.41 
   144.32     12.00     10.68      3.24      0.06      0.09      0.41 
   144.33     12.00     10.68      3.24      0.06      0.09      0.41 
   144.34     12.00     10.68      3.24      0.06      0.09      0.41 
   144.35     12.00     10.69      3.25      0.06      0.09      0.00 
   144.36     12.00     10.68      3.24      0.06      0.09      0.00 
   144.37     12.00     10.69      3.25      0.06      0.09      0.00 
   144.38     12.00     10.69      3.25      0.05      0.10      0.00 
   144.39     12.00     10.69      3.25      0.05      0.09      0.00 
   144.40     12.00     10.70      3.25      0.05      0.10      0.00 
   144.41     12.00     10.70      3.25      0.05      0.11      0.00 
   144.42     12.00     10.71      3.26      0.05      0.11      0.00 
   144.43     12.00     10.70      3.25      0.05      0.11      0.00 
   144.44     12.00     10.71      3.26      0.04      0.11      0.00 
   144.45     12.00     10.71      3.26      0.04      0.11      0.00 
   144.46     12.00     10.71      3.26      0.04      0.11      0.00 
   144.47     12.00     10.71      3.26      0.04      0.11      0.00 
   144.48     12.00     10.71      3.26      0.04      0.11      0.00 
   144.49     12.00     10.71      3.26      0.04      0.11      0.00 
   144.50     12.00     10.71      3.26      0.04      0.12      0.00 
   144.51     12.00     10.71      3.26      0.03      0.12      0.00 
   144.52     12.00     10.71      3.26      0.03      0.11      0.00 
   144.53     12.00     10.71      3.27      0.03      0.12      0.00 
   144.54     12.00     10.72      3.27      0.03      0.12      0.00 
   144.55     12.00     10.72      3.27      0.03      0.12      0.00 
   144.56     12.00     10.72      3.27      0.03      0.12      0.00 
   144.57     12.00     10.72      3.27      0.03      0.12      0.00 
   144.58     12.00     10.72      3.27      0.03      0.12      0.00 
   144.59     12.01     10.72      3.27      0.03      0.12      0.00 
   144.60     12.01     10.72      3.27      0.03      0.12      0.00 
   144.61     12.01     10.72      3.28      0.03      0.12      0.00 
   144.62     12.01     10.72      3.28      0.04      0.12      0.00 
   144.63     12.01     10.72      3.28      0.04      0.11      0.00 
   144.64     12.01     10.72      3.28      0.04      0.11      0.00 
   144.65     12.01     10.72      3.28      0.04      0.11      0.00 
   144.66     12.02     10.72      3.28      0.05      0.10      0.00 
   144.67     12.02     10.72      3.28      0.05      0.10      0.00 
   144.68     12.02     10.71      3.29      0.06      0.10      0.00 
   144.69     12.03     10.71      3.29      0.06      0.09      0.41 
   144.70     12.03     10.71      3.29      0.06      0.09      0.41 
   144.71     12.03     10.72      3.29      0.06      0.09      0.41 
   144.72     12.03     10.72      3.29      0.06      0.09      0.41 
   144.73     12.03     10.72      3.29      0.06      0.09      0.41 
   144.74     12.03     10.72      3.29      0.06      0.09      0.41 
   144.75     12.03     10.71      3.29      0.06      0.08      0.41 
   144.76     12.03     10.72      3.29      0.07      0.09      0.41 
   144.77     12.03     10.72      3.30      0.07      0.08      0.41 
   144.78     12.04     10.72      3.30      0.07      0.08      0.41 
   144.79     12.04     10.72      3.30      0.07      0.08      0.41 
   144.80     12.04     10.72      3.30      0.07      0.08      0.41 
   144.81     12.04     10.72      3.30      0.06      0.09      0.41 
   144.82     12.04     10.72      3.30      0.07      0.09      0.41 
   144.83     12.04     10.72      3.30      0.07      0.08      0.41 
   144.84     12.04     10.72      3.30      0.07      0.08      0.41 
   144.85     12.04     10.73      3.31      0.06      0.09      0.41 
   144.86     12.04     10.73      3.31      0.06      0.09      0.00 
   144.87     12.03     10.73      3.31      0.06      0.09      0.00 
   144.88     12.03     10.74      3.31      0.05      0.10      0.00 
   144.89     12.03     10.74      3.31      0.05      0.10      0.00 
   144.90     12.03     10.75      3.31      0.05      0.10      0.00 
   144.91     12.03     10.75      3.31      0.05      0.10      0.00 
