#Written by Robertson Geologging WinLogger V1.0/370
~VERSION INFORMATION
#------------------------------------------------------------------------------
 VERS. 2.0 : CWLS LOG ASCII STANDARD - VERSION 2.0
 WRAP. NO  : ONE LINE PER DEPTH STEP
~WELL INFORMATION
#MNEM.UNIT         DATA                                DESCRIPTION OF MNEMONIC
#------------------------------------------------------------------------------
 STRT.M         68.0800                            :   START DEPTH
 STOP.M        450.0500                            :   STOP DEPTH
 STEP.M          0.0100                            :   STEP VALUE
 NULL.        -999.2500                            :   NULL VALUE
 COMP.    WHITE YOUN GREEN                         :   COMPANY NAME
 WELL.    EASINGTON SHAFT                          :   WELL NAME
 FLD.     EASINGTON                                :   FIELD NAME
 LOC.     N/A                                      :   LOCATION
 PROV.    N/A                                      :   PROVINCE
 SRVC.    N/A                                      :   SERVICE COMPANY NAME
 DATE.    12 Dec 06                                :   DATE
 UWI.     N/A                                      :   UNIQUE WELL IDENTIFIER
~PARAMETER INFORMATION
#MNEMO.UNIT         VALUE                 DESCRIPTION OF MNEMONIC
#------------------------------------------------------------------------------
~OTHER INFORMATION SECTION
#------------------------------------------------------------------------------
 lLOGGING DOWN
~CURVE INFORMATION
#MNEMO.UNIT         API CODE              CURVE DESCRIPTION
#------------------------------------------------------------------------------
 DEPTH.M                                 :   0     Depth
 TEMP.DegC                               :   1     Temperature
 CN25.mS/cm                              :   2     Conductivity@25DegC
 COND.mS/cm                              :   3     Conductivity
 DELT.DegC                               :   4     Delta T
 DELC.mS/cm                              :   5     Delta C
 NGAM.CPS                                :   6     Natural Gamma
#------------------------------------------------------------------------------
~A  DEPTH     TEMP      CN25      COND      DELT      DELC      NGAM      
# ...
   398.04     18.77     85.54     75.74      0.00      0.07      2.41 
   398.05     18.77     85.54     75.74      0.00      0.07      1.59 
   398.06     18.77     85.53     75.74      0.01      0.05      1.59 
   398.07     18.77     85.52     75.74      0.01      0.05      1.59 
   398.08     18.77     85.53     75.74      0.00      0.06      1.18 
   398.09     18.77     85.54     75.74      0.00      0.08      0.76 
   398.10     18.77     85.54     75.74     -0.00      0.08      0.76 
   398.11     18.77     85.54     75.74     -0.00      0.07      0.76 
   398.12     18.77     85.54     75.74     -0.00      0.08      1.47 
   398.13     18.77     85.54     75.74      0.00      0.08      1.47 
   398.14     18.77     85.54     75.74     -0.00      0.08      1.47 
   398.15     18.76     85.56     75.74     -0.00      0.08      1.47 
   398.16     18.76     85.57     75.75     -0.00      0.09      1.47 
   398.17     18.76     85.58     75.75     -0.01      0.10      1.88 
   398.18     18.76     85.59     75.75     -0.01      0.11      1.88 
   398.19     18.76     85.59     75.75     -0.01      0.11      1.88 
   398.20     18.76     85.58     75.75     -0.01      0.10      1.88 
   398.21     18.76     85.58     75.75     -0.00      0.10      1.53 
   398.22     18.76     85.58     75.75     -0.00      0.09      1.53 
   398.23     18.76     85.58     75.75     -0.00      0.10      1.94 
   398.24     18.76     85.58     75.75     -0.01      0.10      1.94 
   398.25     18.76     85.59     75.76     -0.01      0.10      1.94 
   398.26     18.76     85.58     75.76     -0.00      0.10      1.94 
   398.27     18.76     85.58     75.76      0.00      0.08      1.94 
   398.28     18.77     85.56     75.76      0.01      0.06      2.29 
   398.29     18.77     85.56     75.76      0.01      0.05      1.59 
   398.30     18.77     85.55     75.76      0.01      0.04      1.59 
   398.31     18.77     85.55     75.76      0.01      0.05      1.18 
   398.32     18.77     85.55     75.76      0.01      0.05      1.18 
   398.33     18.77     85.55     75.76      0.00      0.07      1.18 
   398.34     18.77     85.56     75.76      0.00      0.07      0.76 
   398.35     18.77     85.55     75.76      0.00      0.07      0.76 
   398.36     18.77     85.55     75.76      0.00      0.06      0.76 
   398.37     18.77     85.55     75.76      0.00      0.06      0.76 
   398.38     18.77     85.55     75.76      0.00      0.07      0.76 
   398.39     18.77     85.55     75.76     -0.00      0.08      0.76 
   398.40     18.77     85.55     75.76     -0.01      0.09      0.35 
   398.41     18.77     85.56     75.76     -0.01      0.11      0.35 
   398.42     18.77     85.56     75.76     -0.01      0.12      0.35 
   398.43     18.77     85.57     75.76     -0.02      0.13      0.35 
   398.44     18.77     85.57     75.76     -0.02      0.13      0.35 
   398.45     18.77     85.57     75.76     -0.02      0.13      0.00 
   398.46     18.76     85.58     75.76     -0.02      0.14      0.00 
   398.47     18.76     85.59     75.76     -0.02      0.14      0.00 
   398.48     18.76     85.59     75.76     -0.02      0.14      0.35 
   398.49     18.76     85.60     75.76     -0.02      0.13      0.35 
   398.50     18.75     85.60     75.76     -0.01      0.12      0.35 
   398.51     18.75     85.60     75.76     -0.01      0.11      0.35 
   398.52     18.76     85.60     75.76     -0.01      0.09      0.35 
   398.53     18.75     85.60     75.76     -0.01      0.09      0.35 
   398.54     18.75     85.61     75.76     -0.00      0.08      0.35 
   398.55     18.75     85.61     75.76     -0.00      0.08      0.71 
   398.56     18.75     85.61     75.76     -0.00      0.08      0.71 
   398.57     18.75     85.60     75.76     -0.00      0.07      0.71 
   398.58     18.76     85.60     75.76     -0.01      0.08      0.71 
   398.59     18.76     85.59     75.76     -0.01      0.08      0.71 
   398.60     18.76     85.58     75.76     -0.01      0.08      0.71 
   398.61     18.76     85.58     75.76     -0.01      0.08      0.71 
   398.62     18.76     85.57     75.76     -0.00      0.07      1.12 
   398.63     18.77     85.57     75.76     -0.00      0.06      1.12 
   398.64     18.77     85.55     75.76      0.00      0.04      1.12 
   398.65     18.77     85.54     75.76      0.01      0.03      0.76 
   398.66     18.78     85.53     75.76      0.01      0.02      0.76 
   398.67     18.78     85.53     75.76      0.01      0.03      0.76 
   398.68     18.78     85.53     75.76      0.00      0.04      0.76 
   398.69     18.77     85.54     75.76      0.00      0.04      0.76 
   398.70     18.77     85.54     75.76      0.00      0.04      0.76 
   398.71     18.77     85.54     75.76      0.00      0.04      0.76 
   398.72     18.77     85.55     75.76      0.00      0.04      0.41 
   398.73     18.77     85.55     75.76      0.00      0.04      0.41 
   398.74     18.77     85.56     75.76     -0.00      0.05      0.41 
   398.75     18.77     85.56     75.76     -0.00      0.06      0.41 
   398.76     18.77     85.57     75.77     -0.01      0.07      0.41 
   398.77     18.77     85.57     75.77     -0.01      0.07      0.41 
   398.78     18.77     85.57     75.77     -0.00      0.07      0.41 
   398.79     18.77     85.57     75.77     -0.00      0.07      0.00 
   398.80     18.77     85.57     75.77     -0.00      0.06      0.41 
   398.81     18.77     85.56     75.77     -0.00      0.06      0.41 
   398.82     18.77     85.57     75.77     -0.00      0.06      0.41 
   398.83     18.77     85.57     75.77      0.00      0.06      1.24 
   398.84     18.77     85.57     75.77     -0.00      0.07      1.24 
   398.85     18.77     85.58     75.77     -0.01      0.08      1.24 
   398.86     18.77     85.59     75.78     -0.01      0.09      1.65 
   398.87     18.76     85.59     75.77     -0.01      0.08      1.65 
   398.88     18.76     85.59     75.77     -0.01      0.09      1.65 
   398.89     18.76     85.60     75.78     -0.01      0.09      1.65 
   398.90     18.76     85.61     75.77     -0.01      0.09      1.65 
   398.91     18.76     85.62     75.78     -0.02      0.10      1.65 
   398.92     18.75     85.62     75.78     -0.02      0.10      2.00 
   398.93     18.75     85.61     75.77     -0.02      0.10      2.00 
   398.94     18.75     85.62     75.77     -0.02      0.10      2.00 
   398.95     18.76     85.61     75.77     -0.01      0.09      2.00 
   398.96     18.76     85.60     75.77     -0.01      0.08      2.00 
   398.97     18.76     85.59     75.77     -0.01      0.06      1.59 
   398.98     18.76     85.59     75.77     -0.01      0.06      1.59 
   398.99     18.76     85.59     75.77     -0.00      0.05      1.59 
   399.00     18.77     85.58     75.77     -0.00      0.04      0.76 
   399.01     18.77     85.57     75.77      0.00      0.03      0.76 
   399.02     18.77     85.56     75.77      0.00      0.02      1.18 
   399.03     18.77     85.56     75.77      0.00      0.02      0.76 
   399.04     18.77     85.56     75.77      0.01      0.02      0.76 
   399.05     18.77     85.56     75.78      0.00      0.03      0.76 
   399.06     18.77     85.56     75.78      0.00      0.04      0.76 
   399.07     18.77     85.56     75.78      0.00      0.03      1.18 
   399.08     18.77     85.57     75.78      0.00      0.03      1.18 
   399.09     18.77     85.56     75.78      0.00      0.03      1.18 
   399.10     18.77     85.57     75.78      0.01      0.03      1.59 
   399.11     18.77     85.56     75.78      0.01      0.02      1.59 
   399.12     18.77     85.57     75.78      0.01      0.03      2.00 
   399.13     18.77     85.56     75.78      0.01      0.02      2.00 
   399.14     18.77     85.56     75.78      0.01      0.01      2.00 
   399.15     18.77     85.57     75.78      0.01      0.00      2.00 
   399.16     18.78     85.56     75.78      0.02     -0.02      2.41 
