#Written by Robertson Geologging WinLogger V1.0/370
~VERSION INFORMATION
#------------------------------------------------------------------------------
 VERS. 2.0 : CWLS LOG ASCII STANDARD - VERSION 2.0
 WRAP. NO  : ONE LINE PER DEPTH STEP
~WELL INFORMATION
#MNEM.UNIT         DATA                                DESCRIPTION OF MNEMONIC
#------------------------------------------------------------------------------
 STRT.M         68.0800                            :   START DEPTH
 STOP.M        450.0500                            :   STOP DEPTH
 STEP.M          0.0100                            :   STEP VALUE
 NULL.        -999.2500                            :   NULL VALUE
 COMP.    WHITE YOUN GREEN                         :   COMPANY NAME
 WELL.    EASINGTON SHAFT                          :   WELL NAME
 FLD.     EASINGTON                                :   FIELD NAME
 LOC.     N/A                                      :   LOCATION
 PROV.    N/A                                      :   PROVINCE
 SRVC.    N/A                                      :   SERVICE COMPANY NAME
 DATE.    12 Dec 06                                :   DATE
 UWI.     N/A                                      :   UNIQUE WELL IDENTIFIER
~PARAMETER INFORMATION
#MNEMO.UNIT         VALUE                 DESCRIPTION OF MNEMONIC
#------------------------------------------------------------------------------
~OTHER INFORMATION SECTION
#------------------------------------------------------------------------------
 lLOGGING DOWN
~CURVE INFORMATION
#MNEMO.UNIT         API CODE              CURVE DESCRIPTION
#------------------------------------------------------------------------------
 DEPTH.M                                 :   0     Depth
 TEMP.DegC                               :   1     Temperature
 CN25.mS/cm                              :   2     Conductivity@25DegC
 COND.mS/cm                              :   3     Conductivity
 DELT.DegC                               :   4     Delta T
 DELC.mS/cm                              :   5     Delta C
 NGAM.CPS                                :   6     Natural Gamma
#------------------------------------------------------------------------------
~A  DEPTH     TEMP      CN25      COND      DELT      DELC      NGAM      
# ...
   245.49     17.54     75.12     63.53     -0.01      0.02      1.65 
   245.50     17.54     75.12     63.53     -0.01      0.03      1.24 
   245.51     17.54     75.13     63.53     -0.02      0.03      1.24 
   245.52     17.54     75.13     63.53     -0.02      0.04      1.24 
   245.53     17.54     75.13     63.53     -0.02      0.05      1.24 
   245.54     17.54     75.13     63.53     -0.02      0.04      1.65 
   245.55     17.54     75.12     63.53     -0.02      0.04      1.65 
   245.56     17.54     75.11     63.53     -0.01      0.03      1.24 
   245.57     17.54     75.11     63.53     -0.01      0.02      1.24 
   245.58     17.54     75.10     63.52     -0.01      0.00      1.24 
   245.59     17.55     75.10     63.53     -0.00     -0.01      0.82 
   245.60     17.55     75.09     63.52      0.00     -0.02      0.82 
   245.61     17.55     75.09     63.53      0.00     -0.02      0.82 
   245.62     17.55     75.08     63.53      0.00     -0.03      1.24 
   245.63     17.55     75.08     63.52      0.00     -0.03      1.24 
   245.64     17.55     75.09     63.53      0.00     -0.02      1.59 
   245.65     17.55     75.09     63.52      0.00     -0.02      1.59 
   245.66     17.54     75.10     63.52     -0.00     -0.01      1.59 
   245.67     17.54     75.11     63.53     -0.00     -0.01      1.59 
   245.68     17.54     75.11     63.53     -0.00     -0.00      2.00 
   245.69     17.54     75.11     63.53     -0.01      0.00      2.35 
   245.70     17.54     75.11     63.53     -0.01      0.01      2.35 
   245.71     17.54     75.11     63.53     -0.01      0.00      1.94 
   245.72     17.54     75.11     63.52     -0.01      0.00      2.35 
   245.73     17.54     75.11     63.52     -0.01      0.00      2.71 
   245.74     17.54     75.12     63.53     -0.00     -0.00      2.71 
   245.75     17.54     75.11     63.52     -0.00     -0.00      2.71 
   245.76     17.54     75.11     63.52     -0.00     -0.00      2.71 
   245.77     17.54     75.11     63.53     -0.00     -0.00      2.71 
   245.78     17.54     75.11     63.52     -0.00     -0.01      2.71 
   245.79     17.54     75.11     63.52     -0.00     -0.01      2.29 
   245.80     17.54     75.10     63.52      0.00     -0.01      2.29 
   245.81     17.54     75.11     63.52      0.00     -0.02      1.94 
   245.82     17.54     75.11     63.52      0.00     -0.02      2.29 
   245.83     17.54     75.11     63.52      0.00     -0.02      2.29 
   245.84     17.54     75.11     63.53      0.00     -0.02      2.71 
   245.85     17.54     75.10     63.52      0.00     -0.02      2.29 
   245.86     17.54     75.10     63.52      0.00     -0.03      1.94 
   245.87     17.54     75.10     63.53      0.01     -0.02      1.94 
   245.88     17.54     75.10     63.52      0.01     -0.02      1.94 
   245.89     17.54     75.10     63.52      0.01     -0.03      1.12 
   245.90     17.54     75.11     63.53      0.01     -0.02      0.76 
   245.91     17.54     75.11     63.52      0.00     -0.02      0.76 
   245.92     17.54     75.11     63.52      0.00     -0.02      1.18 
   245.93     17.54     75.11     63.52     -0.00     -0.01      1.18 
   245.94     17.54     75.11     63.52     -0.00     -0.01      1.18 
   245.95     17.54     75.11     63.52     -0.00     -0.01      1.18 
   245.96     17.54     75.11     63.52     -0.00      0.00      1.18 
   245.97     17.54     75.12     63.52     -0.01      0.01      1.18 
   245.98     17.54     75.11     63.52     -0.01     -0.00      1.18 
   245.99     17.54     75.10     63.52     -0.01     -0.00      0.82 
   246.00     17.54     75.10     63.52     -0.01      0.00      0.82 
   246.01     17.54     75.10     63.52     -0.01     -0.00      0.41 
   246.02     17.54     75.10     63.52     -0.00      0.01      0.41 
   246.03     17.55     75.09     63.52     -0.00     -0.00      0.41 
   246.04     17.55     75.09     63.53      0.00     -0.01      0.41 
   246.05     17.55     75.08     63.52      0.00     -0.02      0.41 
   246.06     17.55     75.07     63.52      0.00     -0.02      0.41 
   246.07     17.55     75.07     63.53      0.01     -0.02      0.41 
   246.08     17.55     75.07     63.52      0.01     -0.03      0.82 
   246.09     17.55     75.07     63.52      0.01     -0.03      0.41 
   246.10     17.55     75.08     63.53      0.01     -0.03      0.41 
   246.11     17.55     75.08     63.53      0.01     -0.03      0.41 
   246.12     17.55     75.08     63.52      0.01     -0.03      0.41 
   246.13     17.55     75.09     63.53      0.01     -0.02      0.41 
   246.14     17.55     75.09     63.53      0.01     -0.02      0.41 
   246.15     17.54     75.10     63.52      0.00     -0.02      0.41 
   246.16     17.54     75.11     63.53      0.00     -0.01      0.41 
   246.17     17.54     75.11     63.53      0.00     -0.01      0.82 
   246.18     17.54     75.11     63.52      0.00     -0.01      1.24 
   246.19     17.54     75.11     63.52      0.00     -0.01      1.24 
   246.20     17.54     75.11     63.53      0.00     -0.01      1.24 
   246.21     17.54     75.10     63.52      0.00     -0.01      1.24 
   246.22     17.54     75.10     63.52      0.01     -0.03      1.24 
   246.23     17.54     75.10     63.52      0.01     -0.03      1.59 
   246.24     17.54     75.10     63.52      0.01     -0.04      1.59 
   246.25     17.54     75.09     63.52      0.01     -0.04      1.18 
   246.26     17.55     75.08     63.52      0.01     -0.05      1.18 
   246.27     17.55     75.07     63.52      0.02     -0.06      1.18 
   246.28     17.55     75.07     63.52      0.02     -0.07      1.18 
   246.29     17.55     75.06     63.52      0.02     -0.08      1.53 
   246.30     17.56     75.06     63.52      0.03     -0.08      1.53 
   246.31     17.56     75.06     63.52      0.03     -0.09      1.53 
   246.32     17.56     75.06     63.52      0.03     -0.10      1.53 
   246.33     17.56     75.06     63.52      0.03     -0.10      1.53 
   246.34     17.56     75.06     63.52      0.03     -0.10      1.12 
   246.35     17.56     75.05     63.52      0.03     -0.10      0.71 
   246.36     17.56     75.06     63.52      0.03     -0.09      0.71 
   246.37     17.56     75.07     63.52      0.03     -0.08      0.71 
   246.38     17.55     75.07     63.52      0.02     -0.07      0.71 
   246.39     17.55     75.08     63.52      0.02     -0.06      1.53 
   246.40     17.55     75.08     63.52      0.01     -0.05      1.18 
   246.41     17.55     75.09     63.52      0.01     -0.03      1.18 
   246.42     17.54     75.10     63.52      0.00     -0.02      1.18 
   246.43     17.54     75.09     63.52      0.00     -0.01      1.18 
   246.44     17.54     75.10     63.52      0.00     -0.01      1.18 
   246.45     17.54     75.10     63.52      0.00     -0.02      1.59 
   246.46     17.54     75.09     63.52      0.00     -0.02      1.24 
   246.47     17.55     75.09     63.52      0.00     -0.02      1.65 
   246.48     17.55     75.08     63.52      0.01     -0.04      1.65 
   246.49     17.55     75.07     63.52      0.01     -0.05      2.00 
   246.50     17.55     75.07     63.52      0.01     -0.05      2.00 
   246.51     17.55     75.07     63.52      0.02     -0.06      2.00 
   246.52     17.55     75.08     63.52      0.01     -0.05      2.00 
   246.53     17.55     75.08     63.52      0.01     -0.05      2.00 
   246.54     17.55     75.07     63.52      0.01     -0.05      2.00 
   246.55     17.55     75.07     63.52      0.01     -0.04      2.00 
   246.56     17.55     75.07     63.52      0.01     -0.04      1.18 
   246.57     17.55     75.07     63.52      0.01     -0.03      1.59 
   246.58     17.55     75.07     63.52      0.01     -0.03      1.59 
   246.59     17.55     75.07     63.52      0.00     -0.02      1.59 
   246.60     17.55     75.07     63.52      0.00     -0.02      1.59 
   246.61     17.55     75.07     63.51      0.00     -0.02      1.59 
