#Written by Robertson Geologging WinLogger V1.0/370
~VERSION INFORMATION
#------------------------------------------------------------------------------
 VERS. 2.0 : CWLS LOG ASCII STANDARD - VERSION 2.0
 WRAP. NO  : ONE LINE PER DEPTH STEP
~WELL INFORMATION
#MNEM.UNIT         DATA                                DESCRIPTION OF MNEMONIC
#------------------------------------------------------------------------------
 STRT.M         68.0800                            :   START DEPTH
 STOP.M        450.0500                            :   STOP DEPTH
 STEP.M          0.0100                            :   STEP VALUE
 NULL.        -999.2500                            :   NULL VALUE
 COMP.    WHITE YOUN GREEN                         :   COMPANY NAME
 WELL.    EASINGTON SHAFT                          :   WELL NAME
 FLD.     EASINGTON                                :   FIELD NAME
 LOC.     N/A                                      :   LOCATION
 PROV.    N/A                                      :   PROVINCE
 SRVC.    N/A                                      :   SERVICE COMPANY NAME
 DATE.    12 Dec 06                                :   DATE
 UWI.     N/A                                      :   UNIQUE WELL IDENTIFIER
~PARAMETER INFORMATION
#MNEMO.UNIT         VALUE                 DESCRIPTION OF MNEMONIC
#------------------------------------------------------------------------------
~OTHER INFORMATION SECTION
#------------------------------------------------------------------------------
 lLOGGING DOWN
~CURVE INFORMATION
#MNEMO.UNIT         API CODE              CURVE DESCRIPTION
#------------------------------------------------------------------------------
 DEPTH.M                                 :   0     Depth
 TEMP.DegC                               :   1     Temperature
 CN25.mS/cm                              :   2     Conductivity@25DegC
 COND.mS/cm                              :   3     Conductivity
 DELT.DegC                               :   4     Delta T
 DELC.mS/cm                              :   5     Delta C
 NGAM.CPS                                :   6     Natural Gamma
#------------------------------------------------------------------------------
~A  DEPTH     TEMP      CN25      COND      DELT      DELC      NGAM      
# ...
   347.19     19.23     81.72     73.65     -0.08      0.59      1.12 
   347.20     19.23     81.72     73.65     -0.08      0.58      1.12 
   347.21     19.23     81.72     73.65     -0.07      0.55      1.94 
   347.22     19.23     81.72     73.65     -0.07      0.53      1.94 
   347.23     19.23     81.72     73.66     -0.07      0.53      1.94 
   347.24     19.23     81.73     73.66     -0.06      0.52      1.94 
   347.25     19.23     81.73     73.66     -0.06      0.51      1.94 
   347.26     19.23     81.73     73.67     -0.06      0.50      1.94 
   347.27     19.23     81.73     73.67     -0.05      0.47      1.53 
   347.28     19.23     81.73     73.67     -0.05      0.46      1.53 
   347.29     19.23     81.74     73.67     -0.05      0.45      1.53 
   347.30     19.23     81.74     73.67     -0.05      0.43      1.18 
   347.31     19.23     81.74     73.67     -0.05      0.43      1.18 
   347.32     19.23     81.75     73.67     -0.05      0.44      1.18 
   347.33     19.23     81.75     73.67     -0.05      0.44      1.88 
   347.34     19.23     81.76     73.67     -0.05      0.45      1.88 
   347.35     19.22     81.76     73.67     -0.06      0.46      1.88 
   347.36     19.22     81.78     73.68     -0.06      0.47      1.88 
   347.37     19.22     81.78     73.67     -0.07      0.47      2.29 
   347.38     19.22     81.78     73.67     -0.07      0.48      1.47 
   347.39     19.22     81.79     73.68     -0.07      0.49      1.12 
   347.40     19.22     81.80     73.68     -0.08      0.50      1.12 
   347.41     19.21     81.81     73.69     -0.08      0.51      1.12 
   347.42     19.21     81.82     73.69     -0.08      0.52      1.12 
   347.43     19.21     81.83     73.69     -0.09      0.54      1.12 
   347.44     19.20     81.84     73.69     -0.09      0.55      1.12 
   347.45     19.20     81.85     73.69     -0.09      0.55      1.12 
   347.46     19.20     81.86     73.69     -0.09      0.53      1.53 
   347.47     19.20     81.85     73.69     -0.08      0.50      1.88 
   347.48     19.20     81.85     73.70     -0.07      0.48      1.88 
   347.49     19.20     81.85     73.70     -0.07      0.47      1.88 
   347.50     19.20     81.86     73.70     -0.07      0.45      1.18 
   347.51     19.20     81.87     73.70     -0.07      0.45      1.18 
   347.52     19.20     81.87     73.70     -0.07      0.45      1.53 
   347.53     19.20     81.87     73.70     -0.07      0.45      1.53 
   347.54     19.20     81.88     73.70     -0.07      0.44      1.12 
   347.55     19.20     81.87     73.70     -0.06      0.43      1.12 
   347.56     19.20     81.87     73.70     -0.07      0.43      1.12 
   347.57     19.20     81.88     73.70     -0.07      0.44      1.12 
   347.58     19.20     81.88     73.70     -0.08      0.45      1.12 
   347.59     19.19     81.89     73.70     -0.08      0.47      1.12 
   347.60     19.19     81.90     73.70     -0.09      0.48      1.53 
   347.61     19.19     81.90     73.71     -0.09      0.50      1.53 
   347.62     19.19     81.90     73.71     -0.09      0.49      1.94 
   347.63     19.19     81.90     73.71     -0.09      0.49      1.53 
   347.64     19.19     81.91     73.71     -0.09      0.49      1.18 
   347.65     19.19     81.91     73.71     -0.09      0.49      1.18 
   347.66     19.19     81.92     73.71     -0.10      0.49      1.18 
   347.67     19.19     81.92     73.71     -0.09      0.48      1.59 
   347.68     19.19     81.92     73.71     -0.09      0.47      1.59 
   347.69     19.19     81.93     73.72     -0.09      0.46      1.24 
   347.70     19.19     81.92     73.71     -0.08      0.45      1.65 
   347.71     19.19     81.92     73.71     -0.08      0.44      1.65 
   347.72     19.19     81.93     73.72     -0.08      0.43      1.65 
   347.73     19.18     81.93     73.72     -0.08      0.43      1.65 
   347.74     19.18     81.93     73.72     -0.08      0.43      1.65 
   347.75     19.18     81.94     73.72     -0.08      0.43      1.65 
   347.76     19.18     81.94     73.72     -0.08      0.42      2.35 
   347.77     19.18     81.94     73.72     -0.08      0.42      1.94 
   347.78     19.18     81.95     73.72     -0.08      0.43      1.94 
   347.79     19.18     81.95     73.72     -0.09      0.44      1.53 
   347.80     19.18     81.96     73.72     -0.09      0.44      1.53 
   347.81     19.17     81.97     73.72     -0.10      0.45      2.35 
   347.82     19.17     81.98     73.72     -0.10      0.45      2.35 
   347.83     19.17     81.98     73.72     -0.09      0.44      2.35 
   347.84     19.17     81.97     73.72     -0.09      0.42      1.94 
   347.85     19.18     81.97     73.72     -0.09      0.41      1.94 
   347.86     19.18     81.97     73.72     -0.08      0.40      1.94 
   347.87     19.18     81.96     73.72     -0.08      0.40      1.53 
   347.88     19.18     81.96     73.72     -0.08      0.39      1.53 
   347.89     19.18     81.96     73.72     -0.08      0.37      1.88 
   347.90     19.18     81.95     73.72     -0.07      0.35      1.88 
   347.91     19.18     81.94     73.72     -0.06      0.33      1.88 
   347.92     19.19     81.94     73.72     -0.06      0.30      1.88 
   347.93     19.19     81.94     73.72     -0.05      0.29      1.18 
   347.94     19.18     81.94     73.73     -0.05      0.29      1.18 
   347.95     19.18     81.95     73.73     -0.05      0.28      1.18 
   347.96     19.18     81.95     73.73     -0.05      0.27      1.18 
   347.97     19.18     81.96     73.73     -0.04      0.26      1.18 
   347.98     19.18     81.97     73.73     -0.04      0.26      0.35 
   347.99     19.18     81.97     73.73     -0.04      0.26      0.35 
   348.00     19.17     81.98     73.73     -0.04      0.26      0.35 
   348.01     19.17     82.00     73.73     -0.05      0.27      0.35 
   348.02     19.17     82.01     73.73     -0.05      0.29      0.35 
   348.03     19.16     82.02     73.73     -0.06      0.31      0.35 
   348.04     19.16     82.03     73.74     -0.06      0.32      0.76 
   348.05     19.16     82.03     73.73     -0.07      0.33      0.76 
   348.06     19.16     82.03     73.73     -0.07      0.34      0.41 
   348.07     19.16     82.03     73.73     -0.08      0.35      0.41 
   348.08     19.16     82.04     73.74     -0.08      0.36      0.76 
   348.09     19.15     82.05     73.74     -0.08      0.37      0.76 
   348.10     19.15     82.06     73.73     -0.09      0.37      0.76 
   348.11     19.15     82.07     73.73     -0.09      0.39      0.76 
   348.12     19.14     82.08     73.73     -0.10      0.41      0.76 
   348.13     19.14     82.10     73.74     -0.10      0.42      0.76 
   348.14     19.13     82.11     73.73     -0.10      0.42      1.18 
   348.15     19.13     82.12     73.73     -0.11      0.42      1.18 
   348.16     19.12     82.14     73.73     -0.11      0.43      1.18 
   348.17     19.12     82.15     73.73     -0.11      0.44      1.18 
   348.18     19.12     82.16     73.73     -0.11      0.44      1.18 
   348.19     19.12     82.16     73.73     -0.12      0.44      1.18 
   348.20     19.11     82.17     73.73     -0.12      0.45      1.59 
   348.21     19.11     82.17     73.73     -0.12      0.45      1.53 
   348.22     19.11     82.17     73.73     -0.12      0.45      1.53 
   348.23     19.11     82.17     73.73     -0.12      0.45      1.53 
   348.24     19.12     82.16     73.73     -0.11      0.43      1.53 
   348.25     19.12     82.16     73.73     -0.11      0.43      1.18 
   348.26     19.12     82.16     73.74     -0.11      0.42      1.18 
   348.27     19.12     82.15     73.73     -0.11      0.42      1.18 
   348.28     19.12     82.14     73.74     -0.11      0.41      1.18 
   348.29     19.12     82.14     73.74     -0.11      0.41      1.18 
   348.30     19.12     82.15     73.74     -0.11      0.40      1.53 
   348.31     19.12     82.14     73.74     -0.11      0.40      1.12 
