#Written by Robertson Geologging WinLogger V1.0/370
~VERSION INFORMATION
#------------------------------------------------------------------------------
 VERS. 2.0 : CWLS LOG ASCII STANDARD - VERSION 2.0
 WRAP. NO  : ONE LINE PER DEPTH STEP
~WELL INFORMATION
#MNEM.UNIT         DATA                                DESCRIPTION OF MNEMONIC
#------------------------------------------------------------------------------
 STRT.M         68.0800                            :   START DEPTH
 STOP.M        450.0500                            :   STOP DEPTH
 STEP.M          0.0100                            :   STEP VALUE
 NULL.        -999.2500                            :   NULL VALUE
 COMP.    WHITE YOUN GREEN                         :   COMPANY NAME
 WELL.    EASINGTON SHAFT                          :   WELL NAME
 FLD.     EASINGTON                                :   FIELD NAME
 LOC.     N/A                                      :   LOCATION
 PROV.    N/A                                      :   PROVINCE
 SRVC.    N/A                                      :   SERVICE COMPANY NAME
 DATE.    12 Dec 06                                :   DATE
 UWI.     N/A                                      :   UNIQUE WELL IDENTIFIER
~PARAMETER INFORMATION
#MNEMO.UNIT         VALUE                 DESCRIPTION OF MNEMONIC
#------------------------------------------------------------------------------
~OTHER INFORMATION SECTION
#------------------------------------------------------------------------------
 lLOGGING DOWN
~CURVE INFORMATION
#MNEMO.UNIT         API CODE              CURVE DESCRIPTION
#------------------------------------------------------------------------------
 DEPTH.M                                 :   0     Depth
 TEMP.DegC                               :   1     Temperature
 CN25.mS/cm                              :   2     Conductivity@25DegC
 COND.mS/cm                              :   3     Conductivity
 DELT.DegC                               :   4     Delta T
 DELC.mS/cm                              :   5     Delta C
 NGAM.CPS                                :   6     Natural Gamma
#------------------------------------------------------------------------------
~A  DEPTH     TEMP      CN25      COND      DELT      DELC      NGAM      
# ...
   118.93     11.59      9.11      1.77      0.01     -0.01      0.00 
   118.94     11.60      9.11      1.77      0.01     -0.01      0.00 
   118.95     11.60      9.11      1.77      0.01     -0.01      0.00 
   118.96     11.60      9.10      1.77      0.01     -0.01      0.00 
   118.97     11.60      9.11      1.77      0.01     -0.01      0.00 
   118.98     11.59      9.11      1.77      0.01     -0.01      0.00 
   118.99     11.59      9.11      1.77      0.01     -0.01      0.00 
   119.00     11.59      9.11      1.77      0.00     -0.00      0.47 
   119.01     11.59      9.11      1.77      0.00     -0.00      0.47 
   119.02     11.59      9.11      1.77      0.00     -0.00      0.47 
   119.03     11.59      9.11      1.77      0.00     -0.00      0.47 
   119.04     11.59      9.11      1.77      0.00     -0.00      0.47 
   119.05     11.59      9.11      1.77      0.01     -0.01      0.47 
   119.06     11.59      9.11      1.77      0.01     -0.01      0.94 
   119.07     11.59      9.11      1.77      0.00     -0.01      0.94 
   119.08     11.59      9.11      1.77      0.01     -0.00      0.94 
   119.09     11.60      9.10      1.77      0.01     -0.01      0.94 
   119.10     11.60      9.10      1.77      0.01     -0.02      0.94 
   119.11     11.60      9.10      1.77      0.02     -0.02      0.94 
   119.12     11.60      9.10      1.77      0.02     -0.02      0.94 
   119.13     11.61      9.09      1.77      0.02     -0.03      0.94 
   119.14     11.61      9.09      1.77      0.02     -0.02      0.94 
   119.15     11.61      9.09      1.77      0.02     -0.02      0.94 
   119.16     11.61      9.09      1.77      0.02     -0.02      0.94 
   119.17     11.61      9.09      1.77      0.02     -0.02      0.47 
   119.18     11.61      9.09      1.77      0.02     -0.02      0.47 
   119.19     11.61      9.09      1.77      0.02     -0.02      0.47 
   119.20     11.61      9.09      1.77      0.02     -0.02      0.47 
   119.21     11.61      9.09      1.77      0.01     -0.01      0.47 
   119.22     11.61      9.09      1.77      0.01     -0.01      0.47 
   119.23     11.60      9.10      1.77     -0.00     -0.00      0.00 
   119.24     11.60      9.10      1.77     -0.00      0.00      0.00 
   119.25     11.60      9.10      1.77     -0.01      0.00      0.41 
   119.26     11.60      9.10      1.77     -0.01      0.01      0.41 
   119.27     11.60      9.10      1.77     -0.00      0.00      0.41 
   119.28     11.60      9.10      1.77     -0.01      0.01      0.41 
   119.29     11.60      9.10      1.77     -0.01      0.01      0.41 
   119.30     11.60      9.10      1.77     -0.01      0.01      0.82 
   119.31     11.60      9.10      1.77     -0.01      0.01      0.82 
   119.32     11.60      9.10      1.77     -0.01      0.01      0.82 
   119.33     11.60      9.11      1.77     -0.01      0.02      0.82 
   119.34     11.60      9.10      1.77     -0.01      0.02      0.82 
   119.35     11.60      9.10      1.77     -0.01      0.02      0.82 
   119.36     11.59      9.11      1.77     -0.01      0.02      0.82 
   119.37     11.59      9.11      1.77     -0.02      0.02      0.82 
   119.38     11.59      9.11      1.77     -0.02      0.02      0.82 
   119.39     11.59      9.11      1.77     -0.02      0.02      0.82 
   119.40     11.59      9.11      1.77     -0.02      0.02      0.82 
   119.41     11.59      9.11      1.77     -0.02      0.02      0.82 
   119.42     11.59      9.11      1.77     -0.02      0.02      0.41 
   119.43     11.59      9.11      1.77     -0.02      0.02      0.41 
   119.44     11.59      9.11      1.76     -0.02      0.01      0.41 
   119.45     11.59      9.11      1.77     -0.02      0.02      0.41 
   119.46     11.59      9.12      1.77     -0.02      0.02      0.41 
   119.47     11.59      9.11      1.77     -0.01      0.01      0.00 
   119.48     11.59      9.11      1.77     -0.02      0.02      0.00 
   119.49     11.59      9.11      1.77     -0.02      0.02      0.00 
   119.50     11.59      9.11      1.77     -0.01      0.01      0.00 
   119.51     11.59      9.11      1.77     -0.01      0.01      0.00 
   119.52     11.59      9.11      1.77     -0.01      0.01      0.00 
   119.53     11.59      9.11      1.77     -0.01      0.01      0.00 
   119.54     11.59      9.12      1.77     -0.01      0.01      0.00 
   119.55     11.59      9.12      1.77     -0.01      0.02      0.00 
   119.56     11.59      9.11      1.76     -0.01      0.01      0.00 
   119.57     11.59      9.11      1.77     -0.01      0.00      0.00 
   119.58     11.59      9.11      1.77     -0.00      0.01      0.00 
   119.59     11.59      9.11      1.77     -0.00      0.00      0.00 
   119.60     11.59      9.11      1.77      0.00     -0.00      0.00 
   119.61     11.59      9.11      1.77      0.00     -0.00      0.00 
   119.62     11.59      9.11      1.77      0.01     -0.01      0.00 
   119.63     11.59      9.11      1.77      0.01     -0.01      0.00 
   119.64     11.60      9.10      1.77      0.01     -0.01      0.00 
   119.65     11.60      9.10      1.77      0.01     -0.01      0.41 
   119.66     11.60      9.10      1.77      0.02     -0.02      0.41 
   119.67     11.60      9.10      1.77      0.02     -0.02      0.41 
   119.68     11.60      9.10      1.77      0.02     -0.02      0.41 
   119.69     11.61      9.09      1.77      0.01     -0.02      0.41 
   119.70     11.61      9.09      1.77      0.01     -0.01      0.41 
   119.71     11.61      9.09      1.77      0.01     -0.01      0.41 
   119.72     11.61      9.10      1.77      0.01     -0.01      0.41 
   119.73     11.61      9.09      1.77      0.01     -0.01      0.41 
   119.74     11.61      9.09      1.77      0.01     -0.02      0.41 
   119.75     11.61      9.09      1.77      0.02     -0.02      0.41 
   119.76     11.61      9.09      1.77      0.02     -0.02      0.41 
   119.77     11.61      9.09      1.77      0.02     -0.02      0.41 
   119.78     11.61      9.09      1.77      0.02     -0.02      0.41 
   119.79     11.61      9.09      1.77      0.02     -0.02      0.41 
   119.80     11.61      9.09      1.77      0.02     -0.02      0.41 
   119.81     11.61      9.09      1.77      0.02     -0.02      0.41 
   119.82     11.61      9.10      1.77      0.02     -0.02      0.00 
   119.83     11.61      9.09      1.77      0.02     -0.02      0.00 
   119.84     11.60      9.10      1.77      0.01     -0.02      0.00 
   119.85     11.60      9.10      1.77      0.01     -0.01      0.00 
   119.86     11.60      9.10      1.77      0.01     -0.01      0.00 
   119.87     11.60      9.11      1.77      0.00     -0.00      0.00 
   119.88     11.59      9.11      1.77      0.00     -0.00      0.41 
   119.89     11.59      9.11      1.77      0.00      0.00      0.41 
   119.90     11.59      9.11      1.77     -0.00     -0.00      0.41 
   119.91     11.59      9.11      1.77     -0.00      0.00      0.41 
   119.92     11.59      9.11      1.77     -0.01      0.01      0.41 
   119.93     11.58      9.12      1.77     -0.01      0.01      0.41 
   119.94     11.59      9.12      1.77     -0.01      0.01      0.41 
   119.95     11.59      9.11      1.77     -0.01      0.01      0.82 
   119.96     11.59      9.11      1.77     -0.00      0.00      0.82 
   119.97     11.59      9.11      1.77     -0.00      0.00      0.82 
   119.98     11.59      9.10      1.76      0.00     -0.00      0.82 
   119.99     11.60      9.11      1.77      0.00     -0.00      1.24 
   120.00     11.59      9.11      1.77     -0.00     -0.00      1.65 
   120.01     11.59      9.11      1.77     -0.00     -0.00      1.65 
   120.02     11.59      9.11      1.77     -0.00      0.00      1.65 
   120.03     11.59      9.11      1.77      0.00     -0.00      1.65 
   120.04     11.60      9.11      1.77      0.00     -0.00      1.65 
   120.05     11.60      9.11      1.77      0.00     -0.00      1.24 
