#Written by Robertson Geologging WinLogger V1.0/370
~VERSION INFORMATION
#------------------------------------------------------------------------------
 VERS. 2.0 : CWLS LOG ASCII STANDARD - VERSION 2.0
 WRAP. NO  : ONE LINE PER DEPTH STEP
~WELL INFORMATION
#MNEM.UNIT         DATA                                DESCRIPTION OF MNEMONIC
#------------------------------------------------------------------------------
 STRT.M         68.0800                            :   START DEPTH
 STOP.M        450.0500                            :   STOP DEPTH
 STEP.M          0.0100                            :   STEP VALUE
 NULL.        -999.2500                            :   NULL VALUE
 COMP.    WHITE YOUN GREEN                         :   COMPANY NAME
 WELL.    EASINGTON SHAFT                          :   WELL NAME
 FLD.     EASINGTON                                :   FIELD NAME
 LOC.     N/A                                      :   LOCATION
 PROV.    N/A                                      :   PROVINCE
 SRVC.    N/A                                      :   SERVICE COMPANY NAME
 DATE.    12 Dec 06                                :   DATE
 UWI.     N/A                                      :   UNIQUE WELL IDENTIFIER
~PARAMETER INFORMATION
#MNEMO.UNIT         VALUE                 DESCRIPTION OF MNEMONIC
#------------------------------------------------------------------------------
~OTHER INFORMATION SECTION
#------------------------------------------------------------------------------
 lLOGGING DOWN
~CURVE INFORMATION
#MNEMO.UNIT         API CODE              CURVE DESCRIPTION
#------------------------------------------------------------------------------
 DEPTH.M                                 :   0     Depth
 TEMP.DegC                               :   1     Temperature
 CN25.mS/cm                              :   2     Conductivity@25DegC
 COND.mS/cm                              :   3     Conductivity
 DELT.DegC                               :   4     Delta T
 DELC.mS/cm                              :   5     Delta C
 NGAM.CPS                                :   6     Natural Gamma
#------------------------------------------------------------------------------
~A  DEPTH     TEMP      CN25      COND      DELT      DELC      NGAM      
# ...
   169.78     12.07     10.80      3.39     -0.01      0.01      0.41 
   169.79     12.07     10.80      3.39     -0.00      0.00      0.41 
   169.80     12.07     10.81      3.39     -0.00      0.00      0.41 
   169.81     12.07     10.80      3.39     -0.00      0.00      0.41 
   169.82     12.07     10.81      3.39     -0.00     -0.00      0.41 
   169.83     12.07     10.81      3.39     -0.00      0.01      0.41 
   169.84     12.07     10.81      3.39     -0.00      0.00      0.00 
   169.85     12.06     10.81      3.39     -0.01      0.01      0.00 
   169.86     12.06     10.81      3.39     -0.01      0.01      0.00 
   169.87     12.06     10.81      3.39     -0.01      0.01      0.00 
   169.88     12.06     10.81      3.39     -0.01      0.01      0.00 
   169.89     12.06     10.81      3.39     -0.01      0.01      0.00 
   169.90     12.06     10.82      3.39     -0.01      0.01      0.00 
   169.91     12.06     10.81      3.39     -0.01      0.01      0.00 
   169.92     12.06     10.81      3.39     -0.01      0.01      0.00 
   169.93     12.06     10.81      3.39     -0.01      0.01      0.00 
   169.94     12.06     10.81      3.39     -0.01      0.00      0.00 
   169.95     12.07     10.81      3.39     -0.00      0.01      0.41 
   169.96     12.07     10.81      3.39     -0.00     -0.00      0.41 
   169.97     12.07     10.81      3.39      0.00     -0.00      0.41 
   169.98     12.07     10.80      3.39      0.00      0.00      0.41 
   169.99     12.07     10.80      3.39      0.00     -0.00      0.41 
   170.00     12.07     10.80      3.39      0.00     -0.00      0.41 
   170.01     12.07     10.80      3.39      0.00     -0.00      0.41 
   170.02     12.07     10.80      3.39      0.00     -0.00      0.41 
   170.03     12.07     10.80      3.39      0.00     -0.00      0.82 
   170.04     12.07     10.80      3.39      0.00      0.00      0.82 
   170.05     12.07     10.80      3.39      0.00     -0.00      0.82 
   170.06     12.07     10.80      3.39      0.00     -0.01      0.82 
   170.07     12.07     10.81      3.39      0.01     -0.00      0.82 
   170.08     12.07     10.81      3.39      0.01     -0.01      0.82 
   170.09     12.07     10.81      3.39      0.01     -0.01      1.24 
   170.10     12.07     10.81      3.39      0.01     -0.00      1.24 
   170.11     12.07     10.81      3.39      0.01     -0.01      1.24 
   170.12     12.07     10.81      3.39      0.01     -0.01      0.82 
   170.13     12.07     10.81      3.39      0.01     -0.01      0.82 
   170.14     12.07     10.81      3.39      0.01     -0.01      0.82 
   170.15     12.07     10.80      3.39      0.01     -0.01      0.82 
   170.16     12.07     10.80      3.39      0.01     -0.02      0.82 
   170.17     12.07     10.80      3.39      0.01     -0.01      0.82 
   170.18     12.07     10.80      3.39      0.01     -0.01      0.82 
   170.19     12.07     10.80      3.39      0.01     -0.01      0.82 
   170.20     12.07     10.80      3.39      0.01     -0.01      0.41 
   170.21     12.07     10.80      3.39      0.01     -0.01      0.41 
   170.22     12.07     10.80      3.39      0.01     -0.01      0.41 
   170.23     12.07     10.80      3.39      0.01     -0.01      0.41 
   170.24     12.07     10.80      3.39      0.01     -0.02      0.41 
   170.25     12.07     10.80      3.39      0.01     -0.02      0.41 
   170.26     12.07     10.80      3.39      0.01     -0.01      0.00 
   170.27     12.07     10.80      3.39      0.01     -0.01      0.00 
   170.28     12.07     10.80      3.39      0.02     -0.02      0.00 
   170.29     12.07     10.80      3.39      0.02     -0.02      0.00 
   170.30     12.08     10.80      3.39      0.02     -0.02      0.00 
   170.31     12.08     10.79      3.39      0.02     -0.02      0.00 
   170.32     12.08     10.80      3.39      0.02     -0.02      0.00 
   170.33     12.08     10.80      3.39      0.02     -0.02      0.00 
   170.34     12.08     10.80      3.39      0.02     -0.02      0.00 
   170.35     12.08     10.80      3.39      0.02     -0.02      0.00 
   170.36     12.08     10.80      3.39      0.02     -0.02      0.00 
   170.37     12.08     10.80      3.39      0.02     -0.03      0.00 
   170.38     12.07     10.80      3.39      0.02     -0.02      0.00 
   170.39     12.07     10.81      3.39      0.02     -0.01      0.00 
   170.40     12.07     10.80      3.39      0.01     -0.02      0.00 
   170.41     12.07     10.81      3.39      0.01     -0.01      0.00 
   170.42     12.07     10.81      3.39      0.01     -0.01      0.00 
   170.43     12.07     10.81      3.39      0.01     -0.01      0.00 
   170.44     12.07     10.81      3.39      0.01     -0.01      0.00 
   170.45     12.07     10.81      3.39      0.00     -0.00      0.00 
   170.46     12.07     10.81      3.39      0.00     -0.00      0.00 
   170.47     12.06     10.81      3.39      0.00     -0.00      0.00 
   170.48     12.07     10.81      3.39      0.00      0.00      0.00 
   170.49     12.07     10.81      3.39      0.00     -0.00      0.00 
   170.50     12.07     10.81      3.39      0.00     -0.00      0.00 
   170.51     12.07     10.80      3.39      0.00      0.00      0.00 
   170.52     12.07     10.81      3.39     -0.00      0.00      0.00 
   170.53     12.07     10.81      3.39     -0.00     -0.00      0.00 
   170.54     12.07     10.81      3.39     -0.00      0.00      0.00 
   170.55     12.07     10.81      3.39      0.00     -0.00      0.00 
   170.56     12.07     10.81      3.39      0.00     -0.00      0.00 
   170.57     12.07     10.81      3.39      0.00     -0.00      0.00 
   170.58     12.07     10.80      3.39      0.00      0.00      0.00 
   170.59     12.07     10.81      3.39      0.00     -0.00      0.00 
   170.60     12.07     10.80      3.39      0.00      0.00      0.00 
   170.61     12.07     10.80      3.39      0.01     -0.00      0.00 
   170.62     12.07     10.80      3.39      0.01     -0.01      0.00 
   170.63     12.07     10.80      3.39      0.01     -0.02      0.00 
   170.64     12.07     10.81      3.39      0.01     -0.01      0.00 
   170.65     12.07     10.81      3.39      0.01     -0.02      0.00 
   170.66     12.07     10.81      3.39      0.01     -0.01      0.00 
   170.67     12.06     10.81      3.39      0.01     -0.01      0.00 
   170.68     12.06     10.82      3.39      0.00     -0.00      0.00 
   170.69     12.06     10.81      3.39      0.00     -0.00      0.00 
   170.70     12.06     10.82      3.39     -0.00      0.00      0.00 
   170.71     12.06     10.82      3.39     -0.01      0.01      0.00 
   170.72     12.05     10.82      3.39     -0.01      0.01      0.00 
   170.73     12.05     10.83      3.39     -0.01      0.02      0.00 
   170.74     12.05     10.82      3.39     -0.02      0.02      0.00 
   170.75     12.05     10.82      3.39     -0.02      0.01      0.00 
   170.76     12.06     10.82      3.39     -0.02      0.02      0.41 
   170.77     12.06     10.82      3.39     -0.01      0.02      0.41 
   170.78     12.06     10.81      3.39     -0.01      0.01      0.41 
   170.79     12.06     10.81      3.39     -0.01      0.01      0.41 
   170.80     12.06     10.81      3.39     -0.01      0.01      0.41 
   170.81     12.07     10.81      3.39     -0.00      0.00      0.41 
   170.82     12.07     10.81      3.39      0.00     -0.00      0.41 
   170.83     12.07     10.81      3.39      0.00      0.00      0.41 
   170.84     12.07     10.81      3.39      0.00     -0.00      0.41 
   170.85     12.07     10.81      3.39      0.00     -0.01      0.41 
   170.86     12.06     10.81      3.39      0.00      0.00      0.41 
   170.87     12.06     10.81      3.39      0.00      0.00      0.41 
   170.88     12.06     10.81      3.39      0.00     -0.00      0.41 
   170.89     12.06     10.82      3.39      0.00     -0.00      0.41 
   170.90     12.06     10.82      3.39     -0.00      0.00      0.41 
