#Written by Robertson Geologging WinLogger V1.0/370
~VERSION INFORMATION
#------------------------------------------------------------------------------
 VERS. 2.0 : CWLS LOG ASCII STANDARD - VERSION 2.0
 WRAP. NO  : ONE LINE PER DEPTH STEP
~WELL INFORMATION
#MNEM.UNIT         DATA                                DESCRIPTION OF MNEMONIC
#------------------------------------------------------------------------------
 STRT.M         68.0800                            :   START DEPTH
 STOP.M        450.0500                            :   STOP DEPTH
 STEP.M          0.0100                            :   STEP VALUE
 NULL.        -999.2500                            :   NULL VALUE
 COMP.    WHITE YOUN GREEN                         :   COMPANY NAME
 WELL.    EASINGTON SHAFT                          :   WELL NAME
 FLD.     EASINGTON                                :   FIELD NAME
 LOC.     N/A                                      :   LOCATION
 PROV.    N/A                                      :   PROVINCE
 SRVC.    N/A                                      :   SERVICE COMPANY NAME
 DATE.    12 Dec 06                                :   DATE
 UWI.     N/A                                      :   UNIQUE WELL IDENTIFIER
~PARAMETER INFORMATION
#MNEMO.UNIT         VALUE                 DESCRIPTION OF MNEMONIC
#------------------------------------------------------------------------------
~OTHER INFORMATION SECTION
#------------------------------------------------------------------------------
 lLOGGING DOWN
~CURVE INFORMATION
#MNEMO.UNIT         API CODE              CURVE DESCRIPTION
#------------------------------------------------------------------------------
 DEPTH.M                                 :   0     Depth
 TEMP.DegC                               :   1     Temperature
 CN25.mS/cm                              :   2     Conductivity@25DegC
 COND.mS/cm                              :   3     Conductivity
 DELT.DegC                               :   4     Delta T
 DELC.mS/cm                              :   5     Delta C
 NGAM.CPS                                :   6     Natural Gamma
#------------------------------------------------------------------------------
~A  DEPTH     TEMP      CN25      COND      DELT      DELC      NGAM      
# ...
   322.33     17.68     73.60     62.57      0.01     -0.22      1.59 
   322.34     17.68     73.60     62.57      0.00     -0.21      1.18 
   322.35     17.68     73.60     62.57      0.00     -0.21      1.18 
   322.36     17.68     73.60     62.57      0.00     -0.21      0.35 
   322.37     17.68     73.59     62.57      0.01     -0.21      0.35 
   322.38     17.68     73.59     62.57      0.01     -0.21      0.35 
   322.39     17.68     73.59     62.57      0.01     -0.22      0.41 
   322.40     17.68     73.59     62.57      0.01     -0.22      0.41 
   322.41     17.68     73.60     62.58      0.01     -0.21      0.41 
   322.42     17.68     73.60     62.58      0.01     -0.21      0.41 
   322.43     17.68     73.60     62.58      0.01     -0.22      0.41 
   322.44     17.68     73.60     62.58      0.01     -0.20      0.41 
   322.45     17.68     73.61     62.58      0.01     -0.20      0.41 
   322.46     17.68     73.61     62.58      0.01     -0.19      0.41 
   322.47     17.68     73.62     62.59      0.01     -0.17      0.41 
   322.48     17.68     73.62     62.59      0.01     -0.18      0.41 
   322.49     17.68     73.62     62.59      0.01     -0.17      0.82 
   322.50     17.68     73.63     62.59      0.01     -0.17      0.82 
   322.51     17.68     73.63     62.60      0.01     -0.17      0.82 
   322.52     17.68     73.62     62.60      0.01     -0.17      1.24 
   322.53     17.68     73.62     62.60      0.01     -0.17      1.24 
   322.54     17.68     73.62     62.60      0.02     -0.17      1.65 
   322.55     17.69     73.61     62.60      0.02     -0.18      1.65 
   322.56     17.69     73.60     62.60      0.02     -0.19      1.24 
   322.57     17.69     73.60     62.61      0.03     -0.19      1.24 
   322.58     17.70     73.59     62.61      0.03     -0.20      1.24 
   322.59     17.70     73.58     62.61      0.03     -0.20      1.24 
   322.60     17.70     73.57     62.61      0.04     -0.21      1.24 
   322.61     17.71     73.55     62.61      0.04     -0.22      1.65 
   322.62     17.71     73.54     62.61      0.04     -0.22      1.65 
   322.63     17.72     73.54     62.61      0.05     -0.22      2.06 
   322.64     17.72     73.53     62.61      0.05     -0.23      2.06 
   322.65     17.72     73.53     62.62      0.05     -0.22      2.47 
   322.66     17.72     73.53     62.62      0.05     -0.22      2.06 
   322.67     17.72     73.53     62.62      0.05     -0.23      2.47 
   322.68     17.72     73.52     62.62      0.06     -0.24      2.47 
   322.69     17.72     73.52     62.62      0.06     -0.24      2.06 
   322.70     17.73     73.51     62.62      0.07     -0.26      2.06 
   322.71     17.73     73.50     62.62      0.07     -0.27      2.06 
   322.72     17.73     73.49     62.62      0.08     -0.27      2.06 
   322.73     17.74     73.48     62.62      0.08     -0.29      2.06 
   322.74     17.74     73.48     62.62      0.09     -0.29      2.06 
   322.75     17.74     73.48     62.62      0.09     -0.29      2.88 
   322.76     17.74     73.47     62.62      0.09     -0.31      2.88 
   322.77     17.75     73.46     62.62      0.09     -0.30      2.88 
   322.78     17.75     73.44     62.62      0.09     -0.31      2.88 
   322.79     17.75     73.43     62.62      0.10     -0.31      2.88 
   322.80     17.75     73.42     62.61      0.09     -0.31      2.47 
   322.81     17.75     73.42     62.61      0.09     -0.31      2.47 
   322.82     17.75     73.42     62.61      0.09     -0.30      2.06 
   322.83     17.75     73.43     62.61      0.09     -0.30      2.06 
   322.84     17.75     73.43     62.61      0.09     -0.29      1.65 
   322.85     17.75     73.43     62.61      0.09     -0.30      1.65 
   322.86     17.76     73.41     62.61      0.10     -0.32      1.65 
   322.87     17.76     73.40     62.61      0.10     -0.32      1.65 
   322.88     17.76     73.39     62.61      0.11     -0.35      1.24 
   322.89     17.77     73.38     62.61      0.12     -0.36      1.24 
   322.90     17.77     73.37     62.61      0.12     -0.38      1.24 
   322.91     17.78     73.34     62.61      0.13     -0.41      1.24 
   322.92     17.79     73.32     62.61      0.14     -0.43      0.41 
   322.93     17.79     73.31     62.61      0.15     -0.45      0.41 
   322.94     17.80     73.30     62.61      0.15     -0.46      0.41 
   322.95     17.80     73.28     62.60      0.16     -0.48      0.00 
   322.96     17.80     73.27     62.60      0.16     -0.49      0.00 
   322.97     17.81     73.26     62.60      0.16     -0.49      0.00 
   322.98     17.81     73.25     62.60      0.16     -0.49      0.41 
   322.99     17.81     73.25     62.60      0.16     -0.49      0.41 
   323.00     17.81     73.25     62.60      0.16     -0.48      0.76 
   323.01     17.80     73.26     62.60      0.16     -0.47      1.18 
   323.02     17.80     73.27     62.60      0.15     -0.46      1.18 
   323.03     17.80     73.27     62.60      0.15     -0.46      1.18 
   323.04     17.80     73.27     62.60      0.15     -0.46      1.18 
   323.05     17.80     73.26     62.59      0.15     -0.46      1.18 
   323.06     17.81     73.25     62.59      0.15     -0.46      1.18 
   323.07     17.81     73.23     62.59      0.15     -0.46      1.18 
   323.08     17.81     73.23     62.59      0.15     -0.46      1.18 
   323.09     17.81     73.23     62.59      0.15     -0.46      1.18 
   323.10     17.81     73.22     62.59      0.15     -0.46      1.53 
   323.11     17.81     73.22     62.59      0.15     -0.45      1.94 
   323.12     17.82     73.22     62.59      0.15     -0.45      1.94 
   323.13     17.82     73.20     62.58      0.15     -0.46      1.94 
   323.14     17.82     73.20     62.58      0.15     -0.46      1.94 
   323.15     17.83     73.18     62.58      0.16     -0.46      1.53 
   323.16     17.83     73.18     62.58      0.16     -0.47      1.53 
   323.17     17.83     73.18     62.58      0.16     -0.46      1.18 
   323.18     17.83     73.18     62.58      0.16     -0.47      0.76 
   323.19     17.83     73.17     62.58      0.16     -0.47      1.18 
   323.20     17.83     73.17     62.58      0.16     -0.46      1.18 
   323.21     17.83     73.17     62.58      0.16     -0.46      1.18 
   323.22     17.83     73.17     62.58      0.16     -0.45      1.18 
   323.23     17.83     73.17     62.58      0.16     -0.45      1.18 
   323.24     17.83     73.17     62.58      0.16     -0.45      1.18 
   323.25     17.83     73.16     62.58      0.16     -0.46      1.18 
   323.26     17.83     73.17     62.58      0.16     -0.45      1.18 
   323.27     17.83     73.17     62.58      0.16     -0.44      0.82 
   323.28     17.83     73.17     62.58      0.15     -0.44      0.41 
   323.29     17.83     73.17     62.58      0.15     -0.43      0.41 
   323.30     17.83     73.17     62.58      0.15     -0.43      0.41 
   323.31     17.83     73.17     62.58      0.15     -0.43      0.82 
   323.32     17.83     73.16     62.58      0.15     -0.43      0.82 
   323.33     17.83     73.16     62.58      0.16     -0.44      0.82 
   323.34     17.83     73.16     62.58      0.16     -0.45      0.82 
   323.35     17.83     73.16     62.57      0.15     -0.44      1.18 
   323.36     17.83     73.16     62.57      0.15     -0.43      0.76 
   323.37     17.83     73.16     62.57      0.15     -0.43      0.76 
   323.38     17.83     73.15     62.57      0.15     -0.44      0.76 
   323.39     17.83     73.15     62.57      0.15     -0.44      0.76 
   323.40     17.84     73.14     62.57      0.16     -0.46      0.76 
   323.41     17.84     73.13     62.57      0.16     -0.47      1.18 
   323.42     17.84     73.12     62.57      0.16     -0.48      1.59 
   323.43     17.84     73.11     62.57      0.17     -0.49      1.59 
   323.44     17.85     73.10     62.56      0.17     -0.51      1.59 
   323.45     17.85     73.09     62.56      0.17     -0.51      1.59 
