#Written by Robertson Geologging WinLogger V1.0/370
~VERSION INFORMATION
#------------------------------------------------------------------------------
 VERS. 2.0 : CWLS LOG ASCII STANDARD - VERSION 2.0
 WRAP. NO  : ONE LINE PER DEPTH STEP
~WELL INFORMATION
#MNEM.UNIT         DATA                                DESCRIPTION OF MNEMONIC
#------------------------------------------------------------------------------
 STRT.M         68.0800                            :   START DEPTH
 STOP.M        450.0500                            :   STOP DEPTH
 STEP.M          0.0100                            :   STEP VALUE
 NULL.        -999.2500                            :   NULL VALUE
 COMP.    WHITE YOUN GREEN                         :   COMPANY NAME
 WELL.    EASINGTON SHAFT                          :   WELL NAME
 FLD.     EASINGTON                                :   FIELD NAME
 LOC.     N/A                                      :   LOCATION
 PROV.    N/A                                      :   PROVINCE
 SRVC.    N/A                                      :   SERVICE COMPANY NAME
 DATE.    12 Dec 06                                :   DATE
 UWI.     N/A                                      :   UNIQUE WELL IDENTIFIER
~PARAMETER INFORMATION
#MNEMO.UNIT         VALUE                 DESCRIPTION OF MNEMONIC
#------------------------------------------------------------------------------
~OTHER INFORMATION SECTION
#------------------------------------------------------------------------------
 lLOGGING DOWN
~CURVE INFORMATION
#MNEMO.UNIT         API CODE              CURVE DESCRIPTION
#------------------------------------------------------------------------------
 DEPTH.M                                 :   0     Depth
 TEMP.DegC                               :   1     Temperature
 CN25.mS/cm                              :   2     Conductivity@25DegC
 COND.mS/cm                              :   3     Conductivity
 DELT.DegC                               :   4     Delta T
 DELC.mS/cm                              :   5     Delta C
 NGAM.CPS                                :   6     Natural Gamma
#------------------------------------------------------------------------------
~A  DEPTH     TEMP      CN25      COND      DELT      DELC      NGAM      
# ...
   448.89     19.35     88.27     79.78     -0.00     -0.03      1.12 
   448.90     19.35     88.27     79.78      0.00     -0.03      0.41 
   448.91     19.34     88.28     79.78      0.00     -0.02      0.41 
   448.92     19.34     88.28     79.78      0.00     -0.02      0.41 
   448.93     19.34     88.29     79.78     -0.00     -0.01      0.41 
   448.94     19.34     88.29     79.78     -0.00     -0.01      0.41 
   448.95     19.34     88.29     79.78     -0.00     -0.01      0.82 
   448.96     19.34     88.29     79.78     -0.00     -0.02      0.82 
   448.97     19.34     88.29     79.78      0.00     -0.02      0.82 
   448.98     19.34     88.30     79.78     -0.00     -0.01      0.82 
   448.99     19.33     88.31     79.78     -0.01      0.00      0.82 
   449.00     19.33     88.31     79.78     -0.01      0.01      0.82 
   449.01     19.33     88.31     79.78     -0.01      0.02      1.24 
   449.02     19.33     88.31     79.78     -0.01      0.02      1.59 
   449.03     19.33     88.31     79.78     -0.01      0.02      1.59 
   449.04     19.33     88.31     79.78     -0.01      0.02      1.94 
   449.05     19.33     88.30     79.78     -0.01      0.02      1.94 
   449.06     19.34     88.30     79.78     -0.01      0.03      1.53 
   449.07     19.34     88.30     79.78     -0.02      0.05      1.88 
   449.08     19.34     88.29     79.78     -0.02      0.05      1.88 
   449.09     19.34     88.28     79.78     -0.02      0.06      2.24 
   449.10     19.34     88.27     79.78     -0.02      0.05      2.24 
   449.11     19.35     88.27     79.78     -0.02      0.04      2.59 
   449.12     19.35     88.27     79.78     -0.02      0.03      2.18 
   449.13     19.35     88.26     79.78     -0.01      0.02      2.18 
   449.14     19.35     88.26     79.77     -0.01      0.00      2.53 
   449.15     19.35     88.25     79.78     -0.01     -0.01      2.53 
   449.16     19.35     88.24     79.78     -0.00     -0.02      2.53 
   449.17     19.35     88.24     79.78      0.00     -0.02      2.53 
   449.18     19.35     88.24     79.78      0.01     -0.04      2.12 
   449.19     19.35     88.25     79.78      0.01     -0.05      1.76 
   449.20     19.35     88.25     79.78      0.01     -0.05      1.76 
   449.21     19.35     88.26     79.78      0.01     -0.04      1.41 
   449.22     19.35     88.26     79.78      0.00     -0.03      1.41 
   449.23     19.35     88.26     79.77      0.00     -0.03      1.41 
   449.24     19.35     88.27     79.78      0.00     -0.02      1.06 
   449.25     19.35     88.27     79.78      0.00     -0.03      1.06 
   449.26     19.35     88.26     79.78      0.01     -0.04      1.06 
   449.27     19.35     88.26     79.78      0.01     -0.04      1.06 
   449.28     19.35     88.26     79.77      0.00     -0.03      1.41 
   449.29     19.35     88.26     79.77     -0.00     -0.02      2.12 
   449.30     19.34     88.27     79.77     -0.00     -0.01      2.12 
   449.31     19.34     88.27     79.77     -0.01     -0.00      2.12 
   449.32     19.34     88.26     79.77     -0.01     -0.01      2.82 
   449.33     19.34     88.26     79.77     -0.00     -0.01      2.82 
   449.34     19.35     88.26     79.77     -0.01     -0.00      2.82 
   449.35     19.35     88.26     79.77     -0.01     -0.01      2.82 
   449.36     19.35     88.26     79.77     -0.00     -0.01      2.82 
   449.37     19.35     88.25     79.77     -0.00     -0.02      3.18 
   449.38     19.35     88.25     79.77      0.00     -0.03      3.18 
   449.39     19.35     88.25     79.77      0.00     -0.04      3.18 
   449.40     19.35     88.26     79.77      0.01     -0.04      3.59 
   449.41     19.35     88.25     79.77      0.01     -0.05      3.59 
   449.42     19.35     88.25     79.77      0.01     -0.04      3.59 
   449.43     19.35     88.26     79.77      0.01     -0.05      4.06 
   449.44     19.35     88.26     79.77      0.01     -0.06      4.41 
   449.45     19.34     88.27     79.77      0.01     -0.05      4.12 
   449.46     19.34     88.27     79.76      0.01     -0.05      3.76 
   449.47     19.34     88.29     79.76      0.00     -0.04      3.76 
   449.48     19.33     88.29     79.76     -0.00     -0.03      3.41 
   449.49     19.33     88.30     79.77     -0.00     -0.01      2.71 
   449.50     19.33     88.30     79.77     -0.01     -0.00      2.71 
   449.51     19.33     88.29     79.76     -0.00     -0.01      2.71 
   449.52     19.34     88.29     79.77     -0.00     -0.01      3.53 
   449.53     19.34     88.28     79.76      0.00     -0.03      3.53 
   449.54     19.34     88.28     79.77      0.00     -0.02      3.18 
   449.55     19.34     88.28     79.76     -0.00     -0.01      3.18 
   449.56     19.34     88.28     79.76     -0.00     -0.01      3.53 
   449.57     19.34     88.27     79.76     -0.01      0.01      3.53 
   449.58     19.34     88.27     79.76     -0.01      0.01      3.53 
   449.59     19.34     88.26     79.76     -0.01      0.01      3.88 
   449.60     19.34     88.26     79.76     -0.01      0.01      3.06 
   449.61     19.34     88.26     79.76     -0.01      0.01      2.71 
   449.62     19.34     88.27     79.76     -0.01      0.01      2.29 
   449.63     19.34     88.27     79.75     -0.01      0.00      2.29 
   449.64     19.34     88.27     79.75     -0.01     -0.01      2.29 
   449.65     19.34     88.26     79.75     -0.01     -0.03      2.65 
   449.66     19.34     88.25     79.75      0.00     -0.04      3.06 
   449.67     19.34     88.24     79.75      0.01     -0.07      3.06 
   449.68     19.34     88.24     79.75      0.01     -0.08      3.06 
   449.69     19.35     88.22     79.74      0.02     -0.10      2.24 
   449.70     19.35     88.22     79.75      0.02     -0.11      2.59 
   449.71     19.35     88.21     79.74      0.02     -0.12      3.00 
   449.72     19.35     88.21     79.74      0.03     -0.12      3.00 
   449.73     19.35     88.21     79.74      0.03     -0.13      3.00 
   449.74     19.35     88.20     79.74      0.02     -0.13      2.59 
   449.75     19.35     88.21     79.74      0.02     -0.12      2.59 
   449.76     19.35     88.21     79.74      0.02     -0.11      3.29 
   449.77     19.35     88.21     79.73      0.02     -0.11      3.29 
   449.78     19.35     88.21     79.73      0.01     -0.10      4.00 
   449.79     19.35     88.21     79.73      0.01     -0.10      5.24 
   449.80     19.34     88.22     79.73      0.01     -0.08      4.88 
   449.81     19.34     88.22     79.72      0.00     -0.07      5.24 
   449.82     19.34     88.23     79.72     -0.00     -0.06      4.88 
   449.83     19.34     88.24     79.72     -0.00     -0.06      4.47 
   449.84     19.34     88.23     79.72     -0.00     -0.06      4.47 
   449.85     19.34     88.23     79.71     -0.00     -0.06      4.47 
   449.86     19.34     88.22     79.71     -0.00     -0.07      4.47 
   449.87     19.34     88.21     79.70     -0.00     -0.07      4.47 
   449.88     19.34     88.20     79.70     -0.01     -0.06      4.47 
   449.89     19.34     88.20     79.70     -0.00     -0.08      4.82 
   449.90     19.34     88.18     79.70      0.00     -0.09      4.82 
   449.91     19.35     88.18     79.70      0.00     -0.10      5.24 
   449.92     19.35     88.18     79.70      0.01     -0.11      5.24 
   449.93     19.35     88.17     79.69      0.01     -0.12      4.18 
   449.94     19.35     88.17     79.69      0.01     -0.12      4.88 
   449.95     19.35     88.15     79.69      0.01     -0.14      4.59 
   449.96     19.35     88.15     79.69      0.01     -0.15      3.71 
   449.97     19.35     88.14     79.69      0.02     -0.16      3.71 
   449.98     19.35     88.15     79.69      0.02     -0.16      3.71 
   449.99     19.35     88.16     79.69      0.01     -0.15      4.12 
   450.00     19.35     88.16     79.68      0.01     -0.15      4.12 
   450.01     19.34     88.17     79.68      0.01     -0.14      4.53 
