#Written by Robertson Geologging WinLogger V1.0/370
~VERSION INFORMATION
#------------------------------------------------------------------------------
 VERS. 2.0 : CWLS LOG ASCII STANDARD - VERSION 2.0
 WRAP. NO  : ONE LINE PER DEPTH STEP
~WELL INFORMATION
#MNEM.UNIT         DATA                                DESCRIPTION OF MNEMONIC
#------------------------------------------------------------------------------
 STRT.M         68.0800                            :   START DEPTH
 STOP.M        450.0500                            :   STOP DEPTH
 STEP.M          0.0100                            :   STEP VALUE
 NULL.        -999.2500                            :   NULL VALUE
 COMP.    WHITE YOUN GREEN                         :   COMPANY NAME
 WELL.    EASINGTON SHAFT                          :   WELL NAME
 FLD.     EASINGTON                                :   FIELD NAME
 LOC.     N/A                                      :   LOCATION
 PROV.    N/A                                      :   PROVINCE
 SRVC.    N/A                                      :   SERVICE COMPANY NAME
 DATE.    12 Dec 06                                :   DATE
 UWI.     N/A                                      :   UNIQUE WELL IDENTIFIER
~PARAMETER INFORMATION
#MNEMO.UNIT         VALUE                 DESCRIPTION OF MNEMONIC
#------------------------------------------------------------------------------
~OTHER INFORMATION SECTION
#------------------------------------------------------------------------------
 lLOGGING DOWN
~CURVE INFORMATION
#MNEMO.UNIT         API CODE              CURVE DESCRIPTION
#------------------------------------------------------------------------------
 DEPTH.M                                 :   0     Depth
 TEMP.DegC                               :   1     Temperature
 CN25.mS/cm                              :   2     Conductivity@25DegC
 COND.mS/cm                              :   3     Conductivity
 DELT.DegC                               :   4     Delta T
 DELC.mS/cm                              :   5     Delta C
 NGAM.CPS                                :   6     Natural Gamma
#------------------------------------------------------------------------------
~A  DEPTH     TEMP      CN25      COND      DELT      DELC      NGAM      
    68.08      0.00     15.89      0.00      0.00      0.00      0.00 
    68.09      0.00     15.89      0.00      0.00      0.00      0.00 
    68.10      0.00     15.89      0.00      0.00      0.00      0.00 
    68.11      0.00     15.89      0.00      0.00      0.00      0.00 
    68.12      0.00     15.89      0.00      0.00      0.00      0.00 
    68.13      0.00     15.89      0.00      0.00      0.00      0.00 
    68.14      0.00     15.89      0.00      0.00      0.00      0.00 
    68.15      0.00     15.89      0.00      0.00      0.00      0.00 
    68.16      0.00     15.89      0.00      0.00      0.00      0.00 
    68.17      0.00     15.89      0.00      0.00      0.00      0.00 
    68.18      0.00     15.89      0.00      0.00      0.00      0.00 
    68.19      0.00     15.89      0.00      0.00      0.00      0.00 
    68.20      0.00     15.89      0.00      0.00      0.00      0.00 
    68.21      0.00     15.89      0.00      0.00      0.00      0.00 
    68.22      0.00     15.89      0.00      0.00      0.00      0.00 
    68.23      0.00     15.89      0.00      0.00      0.00      0.00 
    68.24      0.00     15.89      0.00      0.00      0.00      0.00 
    68.25      0.00     15.89      0.00      0.00      0.00      0.00 
    68.26      0.00     15.89      0.00      0.00      0.00      0.00 
    68.27      0.00     15.89      0.00      0.00      0.00      0.00 
    68.28      0.00     15.89      0.00      0.00      0.00      0.00 
    68.29      0.00     15.89      0.00      0.00      0.00      0.00 
    68.30      0.00     15.89      0.00      0.00      0.00      0.00 
    68.31      0.00     15.89      0.00      0.00      0.00      0.00 
    68.32      0.00     15.89      0.00      0.00      0.00      0.00 
    68.33      0.00     15.89      0.00      0.00      0.00      0.00 
    68.34      0.00     15.89      0.00      0.00      0.00      0.00 
    68.35      0.00     15.89      0.00      0.00      0.00      0.00 
    68.36      0.00     15.89      0.00      0.00      0.00      0.00 
    68.37      0.00     15.89      0.00      0.00      0.00      0.00 
    68.38      0.00     15.89      0.00      0.00      0.00      0.00 
    68.39      0.00     15.89      0.00      0.00      0.00      0.00 
    68.40      0.00     15.89      0.00      0.00      0.00      0.00 
    68.41      0.00     15.89      0.00      0.00      0.00      0.00 
    68.42      0.00     15.89      0.00      0.00      0.00      0.00 
    68.43      0.00     15.89      0.00      0.00      0.00      0.00 
    68.44      0.00     15.89      0.00      0.00      0.00      0.00 
    68.45      0.00     15.89      0.00      0.00      0.00      0.00 
    68.46      0.00     15.89      0.00      0.00      0.00      0.00 
    68.47      0.00     15.89      0.00      0.00      0.00      0.00 
    68.48      0.00     15.89      0.00      0.00      0.00      0.00 
    68.49      0.00     15.89      0.00      0.00      0.00      0.00 
    68.50      0.00     15.89      0.00      0.00      0.00      0.00 
    68.51      0.00     15.89      0.00      0.00      0.00      0.00 
    68.52      0.00     15.89      0.00      0.00      0.00      0.00 
    68.53      0.00     15.89      0.00      0.00      0.00      0.00 
    68.54      0.00     15.89      0.00      0.00      0.00      0.00 
    68.55      0.00     15.89      0.00      0.00      0.00      0.00 
    68.56      0.00     15.89      0.00      0.00      0.00      0.00 
    68.57      0.00     15.89      0.00      0.00      0.00      0.00 
    68.58      0.00     15.89      0.00      0.00      0.00      0.00 
    68.59      0.00     15.89      0.00      0.00      0.00      0.00 
    68.60      0.00     15.89      0.00      0.00      0.00      0.00 
    68.61      0.00     15.89      0.00      0.00      0.00      0.00 
    68.62      0.00     15.89      0.00      0.00      0.00      0.00 
    68.63      0.00     15.89      0.00      0.00      0.00      0.00 
    68.64      0.00     15.89      0.00      0.00      0.00      0.00 
    68.65      0.00     15.89      0.00      0.00      0.00      0.00 
    68.66      0.00     15.89      0.00      0.00      0.00      0.00 
    68.67      0.00     15.89      0.00      0.00      0.00      0.00 
    68.68      0.00     15.89      0.00      0.00      0.00      0.00 
    68.69      0.00     15.89      0.00      0.00      0.00      0.00 
    68.70      0.00     15.89      0.00      0.00      0.00      0.00 
    68.71      0.00     15.89      0.00      0.00      0.00      0.00 
    68.72      0.00     15.89      0.00      0.00      0.00      0.00 
    68.73      0.00     15.89      0.00      0.00      0.00      0.00 
    68.74      0.00     15.89      0.00      0.00      0.00      0.00 
    68.75      0.00     15.89      0.00      0.00      0.00      0.00 
    68.76      0.00     15.89      0.00      0.00      0.00      0.00 
    68.77      0.00     15.89      0.00      0.00      0.00      0.00 
    68.78      0.00     15.89      0.00      0.00      0.00      0.00 
    68.79      0.00     15.89      0.00      0.00      0.00      0.00 
    68.80      0.00     15.89      0.00      0.00      0.00      0.00 
    68.81      0.00     15.89      0.00      0.00      0.00      0.00 
    68.82      0.00     15.89      0.00      0.00      0.00      0.00 
    68.83      0.00     15.89      0.00      0.00      0.00      0.00 
    68.84      0.00     15.89      0.00      0.00      0.00      0.00 
    68.85      0.00     15.89      0.00      0.00      0.00      0.00 
    68.86      0.00     15.89      0.00      0.00      0.00      0.00 
    68.87      0.00     15.89      0.00      0.00      0.00      0.00 
    68.88      0.00     15.89      0.00      0.00      0.00      0.00 
    68.89      0.00     15.89      0.00      0.00      0.00      0.00 
    68.90      0.00     15.89      0.00      0.00      0.00      0.00 
    68.91      0.00     15.89      0.00      0.00      0.00      0.00 
    68.92      0.00     15.89      0.00      0.00      0.00      0.00 
    68.93      0.00     15.89      0.00      0.00      0.00      0.00 
    68.94      0.00     15.89      0.00      0.00      0.00      0.00 
    68.95      0.00     15.89      0.00      0.00      0.00      0.00 
    68.96      0.00     15.89      0.00      0.00      0.00      0.00 
    68.97      0.00     15.89      0.00      0.00      0.00      0.00 
    68.98      0.00     15.89      0.00      0.00      0.00      0.00 
    68.99      0.00     15.89      0.00      0.00      0.00      0.00 
    69.00      0.00     15.89      0.00      0.00      0.00      0.00 
    69.01      0.00     15.89      0.00      0.00      0.00      0.00 
    69.02      0.00     15.89      0.00      0.00      0.00      0.00 
    69.03      0.00     15.89      0.00      0.00      0.00      0.00 
    69.04      0.00     15.89      0.00      0.00      0.00      0.00 
    69.05      0.00     15.89      0.00      0.00      0.00      0.00 
    69.06      0.00     15.89      0.00      0.00      0.00      0.00 
    69.07      0.00     15.89      0.00      0.00      0.00      0.00 
    69.08      0.00     15.89      0.00      0.00      0.00      0.00 
    69.09      0.00     15.89      0.00      0.00      0.00      0.00 
    69.10      0.00     15.89      0.00      0.00      0.00      0.00 
    69.11      0.00     15.89      0.00      0.00      0.00      0.00 
    69.12      0.00     15.89      0.00      0.00      0.00      0.00 
    69.13      0.00     15.89      0.00      0.00      0.00      0.00 
    69.14      0.00     15.89      0.00      0.00      0.00      0.00 
    69.15      0.00     15.89      0.00      0.00      0.00      0.00 
    69.16      0.00     15.89      0.00      0.00      0.00      0.00 
    69.17      0.00     15.89      0.00      0.00      0.00      0.00 
    69.18      0.00     15.89      0.00      0.00      0.00      0.00 
    69.19      0.00     15.89      0.00      0.00      0.00      0.00 
    69.20      0.00     15.89      0.00      0.00      0.00      0.00 
