#Written by Robertson Geologging WinLogger V1.0/370
~VERSION INFORMATION
#------------------------------------------------------------------------------
 VERS. 2.0 : CWLS LOG ASCII STANDARD - VERSION 2.0
 WRAP. NO  : ONE LINE PER DEPTH STEP
~WELL INFORMATION
#MNEM.UNIT         DATA                                DESCRIPTION OF MNEMONIC
#------------------------------------------------------------------------------
 STRT.M         68.0800                            :   START DEPTH
 STOP.M        450.0500                            :   STOP DEPTH
 STEP.M          0.0100                            :   STEP VALUE
 NULL.        -999.2500                            :   NULL VALUE
 COMP.    WHITE YOUN GREEN                         :   COMPANY NAME
 WELL.    EASINGTON SHAFT                          :   WELL NAME
 FLD.     EASINGTON                                :   FIELD NAME
 LOC.     N/A                                      :   LOCATION
 PROV.    N/A                                      :   PROVINCE
 SRVC.    N/A                                      :   SERVICE COMPANY NAME
 DATE.    12 Dec 06                                :   DATE
 UWI.     N/A                                      :   UNIQUE WELL IDENTIFIER
~PARAMETER INFORMATION
#MNEMO.UNIT         VALUE                 DESCRIPTION OF MNEMONIC
#------------------------------------------------------------------------------
~OTHER INFORMATION SECTION
#------------------------------------------------------------------------------
 lLOGGING DOWN
~CURVE INFORMATION
#MNEMO.UNIT         API CODE              CURVE DESCRIPTION
#------------------------------------------------------------------------------
 DEPTH.M                                 :   0     Depth
 TEMP.DegC                               :   1     Temperature
 CN25.mS/cm                              :   2     Conductivity@25DegC
 COND.mS/cm                              :   3     Conductivity
 DELT.DegC                               :   4     Delta T
 DELC.mS/cm                              :   5     Delta C
 NGAM.CPS                                :   6     Natural Gamma
#------------------------------------------------------------------------------
~A  DEPTH     TEMP      CN25      COND      DELT      DELC      NGAM      
# ...
   194.64     13.47     15.57      8.25      0.10      0.26      0.00 
   194.65     13.47     15.57      8.25      0.10      0.26      0.00 
   194.66     13.47     15.57      8.26      0.11      0.26      0.00 
   194.67     13.47     15.58      8.26      0.11      0.25      0.00 
   194.68     13.48     15.57      8.26      0.11      0.25      0.00 
   194.69     13.48     15.57      8.26      0.12      0.25      0.00 
   194.70     13.48     15.57      8.27      0.12      0.24      0.00 
   194.71     13.48     15.58      8.27      0.12      0.24      0.00 
   194.72     13.48     15.58      8.27      0.11      0.25      0.00 
   194.73     13.48     15.58      8.28      0.12      0.25      0.41 
   194.74     13.48     15.58      8.28      0.12      0.25      0.41 
   194.75     13.49     15.59      8.28      0.12      0.25      0.41 
   194.76     13.49     15.59      8.29      0.12      0.25      0.41 
   194.77     13.49     15.59      8.29      0.12      0.25      0.41 
   194.78     13.49     15.59      8.29      0.12      0.25      0.41 
   194.79     13.49     15.60      8.30      0.11      0.26      0.41 
   194.80     13.49     15.61      8.30      0.11      0.26      0.41 
   194.81     13.49     15.61      8.31      0.11      0.26      0.41 
   194.82     13.49     15.62      8.31      0.11      0.27      0.41 
   194.83     13.49     15.62      8.31      0.11      0.27      0.41 
   194.84     13.49     15.63      8.31      0.10      0.27      0.41 
   194.85     13.49     15.63      8.32      0.10      0.28      0.41 
   194.86     13.49     15.64      8.32      0.10      0.28      0.41 
   194.87     13.49     15.64      8.33      0.10      0.28      0.41 
   194.88     13.49     15.64      8.33      0.10      0.29      0.41 
   194.89     13.49     15.65      8.33      0.10      0.29      0.41 
   194.90     13.49     15.65      8.33      0.10      0.28      0.00 
   194.91     13.49     15.65      8.34      0.10      0.28      0.00 
   194.92     13.49     15.66      8.34      0.10      0.29      0.00 
   194.93     13.49     15.66      8.35      0.10      0.29      0.00 
   194.94     13.49     15.66      8.35      0.10      0.28      0.00 
   194.95     13.49     15.67      8.35      0.10      0.29      0.00 
   194.96     13.49     15.67      8.36      0.10      0.29      0.00 
   194.97     13.49     15.68      8.36      0.10      0.29      0.00 
   194.98     13.49     15.68      8.36      0.10      0.29      0.00 
   194.99     13.49     15.68      8.36      0.10      0.28      0.00 
   195.00     13.49     15.69      8.37      0.10      0.28      0.00 
   195.01     13.49     15.70      8.37      0.10      0.29      0.00 
   195.02     13.49     15.70      8.38      0.10      0.29      0.00 
   195.03     13.49     15.70      8.38      0.10      0.28      0.41 
   195.04     13.49     15.71      8.38      0.10      0.28      0.82 
   195.05     13.49     15.71      8.39      0.10      0.28      0.82 
   195.06     13.49     15.71      8.39      0.10      0.28      0.82 
   195.07     13.49     15.72      8.39      0.10      0.28      1.24 
   195.08     13.50     15.72      8.40      0.10      0.28      1.24 
   195.09     13.50     15.72      8.40      0.10      0.29      1.24 
   195.10     13.50     15.72      8.40      0.10      0.29      1.24 
   195.11     13.50     15.73      8.41      0.10      0.28      1.24 
   195.12     13.50     15.73      8.41      0.10      0.28      1.24 
   195.13     13.51     15.73      8.41      0.10      0.28      1.24 
   195.14     13.51     15.73      8.42      0.10      0.28      1.24 
   195.15     13.51     15.74      8.42      0.10      0.28      1.24 
   195.16     13.51     15.74      8.42      0.10      0.29      1.24 
   195.17     13.51     15.74      8.42      0.10      0.28      1.24 
   195.18     13.51     15.75      8.43      0.10      0.29      1.24 
   195.19     13.51     15.75      8.43      0.10      0.28      1.24 
   195.20     13.51     15.75      8.43      0.10      0.28      1.24 
   195.21     13.51     15.76      8.44      0.10      0.29      1.24 
   195.22     13.51     15.76      8.44      0.10      0.29      1.24 
   195.23     13.51     15.77      8.45      0.10      0.29      1.65 
   195.24     13.51     15.77      8.45      0.10      0.29      1.24 
   195.25     13.51     15.77      8.45      0.10      0.29      1.24 
   195.26     13.51     15.78      8.46      0.09      0.30      1.65 
   195.27     13.51     15.79      8.46      0.09      0.30      1.65 
   195.28     13.51     15.79      8.46      0.09      0.31      1.65 
   195.29     13.51     15.79      8.47      0.08      0.31      1.65 
   195.30     13.51     15.80      8.47      0.08      0.32      1.65 
   195.31     13.51     15.80      8.47      0.07      0.33      1.65 
   195.32     13.51     15.81      8.48      0.07      0.34      1.65 
   195.33     13.51     15.81      8.48      0.07      0.34      1.65 
   195.34     13.51     15.82      8.49      0.06      0.34      1.65 
   195.35     13.51     15.82      8.49      0.06      0.34      2.00 
   195.36     13.51     15.82      8.49      0.07      0.34      2.00 
   195.37     13.51     15.83      8.50      0.07      0.34      1.59 
   195.38     13.52     15.83      8.50      0.07      0.34      1.18 
   195.39     13.52     15.84      8.51      0.07      0.34      1.18 
   195.40     13.52     15.84      8.51      0.08      0.34      0.76 
   195.41     13.52     15.84      8.52      0.08      0.34      0.76 
   195.42     13.52     15.85      8.52      0.08      0.33      0.76 
   195.43     13.52     15.85      8.53      0.08      0.34      0.35 
   195.44     13.52     15.85      8.53      0.08      0.34      0.35 
   195.45     13.52     15.86      8.53      0.08      0.34      0.35 
   195.46     13.52     15.87      8.54      0.08      0.34      0.35 
   195.47     13.53     15.87      8.54      0.08      0.35      0.35 
   195.48     13.53     15.87      8.54      0.08      0.35      0.35 
   195.49     13.53     15.88      8.55      0.08      0.35      0.35 
   195.50     13.53     15.88      8.55      0.07      0.35      0.35 
   195.51     13.53     15.88      8.56      0.07      0.36      0.35 
   195.52     13.53     15.89      8.56      0.07      0.36      0.00 
   195.53     13.53     15.89      8.56      0.07      0.36      0.00 
   195.54     13.53     15.89      8.56      0.07      0.35      0.00 
   195.55     13.54     15.89      8.57      0.08      0.35      0.00 
   195.56     13.54     15.89      8.57      0.08      0.34      0.00 
   195.57     13.54     15.89      8.58      0.08      0.34      0.00 
   195.58     13.55     15.89      8.58      0.09      0.34      0.00 
   195.59     13.55     15.90      8.58      0.09      0.34      0.00 
   195.60     13.55     15.89      8.58      0.09      0.33      0.00 
   195.61     13.55     15.90      8.59      0.09      0.34      0.00 
   195.62     13.56     15.90      8.59      0.09      0.33      0.00 
   195.63     13.56     15.90      8.60      0.09      0.33      0.00 
   195.64     13.56     15.91      8.60      0.09      0.34      0.00 
   195.65     13.56     15.91      8.61      0.09      0.34      0.00 
   195.66     13.56     15.92      8.61      0.08      0.34      0.00 
   195.67     13.55     15.92      8.61      0.08      0.35      0.00 
   195.68     13.55     15.93      8.61      0.08      0.36      0.00 
   195.69     13.55     15.94      8.62      0.07      0.36      0.00 
   195.70     13.55     15.94      8.62      0.07      0.36      0.00 
   195.71     13.55     15.95      8.63      0.07      0.37      0.00 
   195.72     13.55     15.95      8.63      0.06      0.37      0.00 
   195.73     13.55     15.96      8.63      0.06      0.38      0.00 
   195.74     13.55     15.96      8.64      0.06      0.38      0.00 
   195.75     13.55     15.97      8.64      0.06      0.38      0.00 
   195.76     13.55     15.97      8.64      0.06      0.38      0.00 
