#Written by Robertson Geologging WinLogger V1.0/370
~VERSION INFORMATION
#------------------------------------------------------------------------------
 VERS. 2.0 : CWLS LOG ASCII STANDARD - VERSION 2.0
 WRAP. NO  : ONE LINE PER DEPTH STEP
~WELL INFORMATION
#MNEM.UNIT         DATA                                DESCRIPTION OF MNEMONIC
#------------------------------------------------------------------------------
 STRT.M         68.0800                            :   START DEPTH
 STOP.M        450.0500                            :   STOP DEPTH
 STEP.M          0.0100                            :   STEP VALUE
 NULL.        -999.2500                            :   NULL VALUE
 COMP.    WHITE YOUN GREEN                         :   COMPANY NAME
 WELL.    EASINGTON SHAFT                          :   WELL NAME
 FLD.     EASINGTON                                :   FIELD NAME
 LOC.     N/A                                      :   LOCATION
 PROV.    N/A                                      :   PROVINCE
 SRVC.    N/A                                      :   SERVICE COMPANY NAME
 DATE.    12 Dec 06                                :   DATE
 UWI.     N/A                                      :   UNIQUE WELL IDENTIFIER
~PARAMETER INFORMATION
#MNEMO.UNIT         VALUE                 DESCRIPTION OF MNEMONIC
#------------------------------------------------------------------------------
~OTHER INFORMATION SECTION
#------------------------------------------------------------------------------
 lLOGGING DOWN
~CURVE INFORMATION
#MNEMO.UNIT         API CODE              CURVE DESCRIPTION
#------------------------------------------------------------------------------
 DEPTH.M                                 :   0     Depth
 TEMP.DegC                               :   1     Temperature
 CN25.mS/cm                              :   2     Conductivity@25DegC
 COND.mS/cm                              :   3     Conductivity
 DELT.DegC                               :   4     Delta T
 DELC.mS/cm                              :   5     Delta C
 NGAM.CPS                                :   6     Natural Gamma
#------------------------------------------------------------------------------
~A  DEPTH     TEMP      CN25      COND      DELT      DELC      NGAM      
# ...
   271.48     17.57     74.96     63.48     -0.00      0.00      1.12 
   271.49     17.57     74.96     63.48     -0.00      0.00      1.94 
   271.50     17.57     74.96     63.48     -0.00     -0.00      1.94 
   271.51     17.57     74.95     63.48      0.00     -0.00      2.35 
   271.52     17.58     74.95     63.48      0.00     -0.02      2.35 
   271.53     17.57     74.96     63.48      0.00     -0.01      2.35 
   271.54     17.57     74.97     63.48     -0.00     -0.01      2.35 
   271.55     17.57     74.97     63.48     -0.00      0.00      2.35 
   271.56     17.57     74.97     63.48     -0.00     -0.00      2.35 
   271.57     17.57     74.97     63.48      0.00     -0.01      1.65 
   271.58     17.57     74.97     63.48      0.00     -0.01      1.65 
   271.59     17.57     74.97     63.48      0.00     -0.01      1.65 
   271.60     17.57     74.97     63.48      0.00     -0.01      1.65 
   271.61     17.57     74.97     63.48      0.00     -0.01      1.24 
   271.62     17.57     74.97     63.48      0.00     -0.00      1.24 
   271.63     17.57     74.97     63.48     -0.00      0.00      1.24 
   271.64     17.57     74.96     63.48     -0.00      0.00      1.24 
   271.65     17.57     74.95     63.47     -0.00     -0.00      1.24 
   271.66     17.58     74.95     63.47     -0.00      0.00      0.41 
   271.67     17.57     74.95     63.47     -0.01      0.01      0.41 
   271.68     17.57     74.95     63.47     -0.01      0.01      0.82 
   271.69     17.57     74.96     63.48     -0.01      0.03      0.82 
   271.70     17.57     74.96     63.48     -0.01      0.02      1.24 
   271.71     17.57     74.96     63.48     -0.01      0.02      1.24 
   271.72     17.57     74.95     63.47     -0.01      0.01      1.24 
   271.73     17.58     74.94     63.47     -0.00     -0.00      1.24 
   271.74     17.58     74.94     63.47     -0.00     -0.01      1.24 
   271.75     17.58     74.94     63.47      0.00     -0.02      1.24 
   271.76     17.58     74.94     63.47      0.00     -0.02      1.24 
   271.77     17.58     74.94     63.47      0.00     -0.02      1.65 
   271.78     17.58     74.94     63.47      0.01     -0.03      1.65 
   271.79     17.58     74.94     63.48      0.01     -0.03      1.65 
   271.80     17.58     74.94     63.47      0.02     -0.06      1.65 
   271.81     17.58     74.93     63.47      0.02     -0.07      1.65 
   271.82     17.58     74.94     63.47      0.02     -0.07      1.65 
   271.83     17.58     74.95     63.47      0.01     -0.05      1.65 
   271.84     17.57     74.96     63.47      0.01     -0.03      1.65 
   271.85     17.57     74.97     63.47      0.00     -0.02      1.65 
   271.86     17.57     74.97     63.47      0.00     -0.02      1.65 
   271.87     17.57     74.98     63.47      0.00     -0.02      1.59 
   271.88     17.57     74.98     63.47      0.01     -0.03      2.00 
   271.89     17.57     74.98     63.47      0.00     -0.02      2.00 
   271.90     17.56     74.98     63.47      0.00     -0.02      2.00 
   271.91     17.56     74.98     63.47     -0.00     -0.00      2.41 
   271.92     17.56     74.98     63.47     -0.00      0.00      2.41 
   271.93     17.56     74.98     63.47     -0.01      0.01      2.41 
   271.94     17.57     74.97     63.47     -0.00     -0.00      2.00 
   271.95     17.57     74.97     63.47     -0.00     -0.01      2.00 
   271.96     17.57     74.96     63.47      0.00     -0.02      2.00 
   271.97     17.57     74.96     63.47      0.01     -0.02      2.00 
   271.98     17.57     74.95     63.47      0.01     -0.03      2.00 
   271.99     17.58     74.94     63.47      0.01     -0.04      2.00 
   272.00     17.58     74.94     63.47      0.01     -0.05      2.41 
   272.01     17.58     74.94     63.47      0.02     -0.05      2.41 
   272.02     17.58     74.93     63.47      0.02     -0.06      1.59 
   272.03     17.58     74.93     63.47      0.02     -0.07      1.59 
   272.04     17.58     74.92     63.47      0.03     -0.08      1.24 
   272.05     17.59     74.92     63.47      0.03     -0.08      0.82 
   272.06     17.59     74.92     63.47      0.03     -0.08      0.82 
   272.07     17.59     74.92     63.47      0.03     -0.09      0.82 
   272.08     17.59     74.91     63.47      0.03     -0.08      0.82 
   272.09     17.59     74.91     63.47      0.03     -0.09      0.82 
   272.10     17.59     74.91     63.47      0.03     -0.08      0.82 
   272.11     17.59     74.92     63.48      0.03     -0.08      0.82 
   272.12     17.59     74.92     63.47      0.03     -0.08      1.18 
   272.13     17.59     74.92     63.48      0.02     -0.07      1.18 
   272.14     17.59     74.92     63.47      0.02     -0.07      1.18 
   272.15     17.59     74.92     63.48      0.02     -0.06      1.18 
   272.16     17.59     74.92     63.48      0.02     -0.06      1.18 
   272.17     17.59     74.92     63.48      0.02     -0.06      0.76 
   272.18     17.59     74.92     63.48      0.02     -0.05      0.76 
   272.19     17.59     74.92     63.48      0.02     -0.05      1.18 
   272.20     17.59     74.91     63.48      0.02     -0.05      1.18 
   272.21     17.59     74.91     63.48      0.02     -0.05      1.18 
   272.22     17.59     74.90     63.48      0.02     -0.05      1.18 
   272.23     17.60     74.90     63.48      0.02     -0.06      1.18 
   272.24     17.60     74.89     63.48      0.02     -0.07      1.18 
   272.25     17.60     74.88     63.48      0.03     -0.08      0.76 
   272.26     17.60     74.88     63.47      0.03     -0.09      0.76 
   272.27     17.60     74.87     63.47      0.03     -0.08      0.76 
   272.28     17.60     74.88     63.48      0.03     -0.08      1.12 
   272.29     17.60     74.88     63.48      0.03     -0.09      0.76 
   272.30     17.60     74.88     63.48      0.03     -0.09      1.18 
   272.31     17.60     74.88     63.48      0.03     -0.08      1.18 
   272.32     17.60     74.88     63.47      0.03     -0.09      1.18 
   272.33     17.60     74.88     63.47      0.03     -0.07      1.18 
   272.34     17.59     74.89     63.47      0.02     -0.06      1.18 
   272.35     17.59     74.90     63.47      0.02     -0.06      1.18 
   272.36     17.59     74.91     63.47      0.02     -0.05      0.76 
   272.37     17.58     74.92     63.47      0.01     -0.04      0.76 
   272.38     17.58     74.93     63.47      0.01     -0.04      1.18 
   272.39     17.58     74.93     63.47      0.01     -0.05      1.18 
   272.40     17.58     74.93     63.47      0.01     -0.05      1.18 
   272.41     17.58     74.93     63.47      0.01     -0.04      1.18 
   272.42     17.58     74.94     63.47      0.01     -0.03      1.18 
   272.43     17.57     74.95     63.47      0.00     -0.02      1.18 
   272.44     17.57     74.95     63.47     -0.00     -0.01      1.18 
   272.45     17.57     74.96     63.47     -0.00     -0.00      0.82 
   272.46     17.57     74.96     63.47     -0.00      0.00      0.82 
   272.47     17.57     74.96     63.47     -0.00      0.00      0.82 
   272.48     17.57     74.96     63.47     -0.00      0.00      0.82 
   272.49     17.57     74.96     63.47     -0.00      0.01      0.82 
   272.50     17.57     74.96     63.47     -0.01      0.01      0.82 
   272.51     17.57     74.97     63.47     -0.01      0.02      0.82 
   272.52     17.57     74.97     63.47     -0.00      0.00      0.82 
   272.53     17.57     74.97     63.47     -0.00      0.00      0.82 
   272.54     17.57     74.96     63.47      0.00     -0.01      0.82 
   272.55     17.57     74.97     63.48      0.00     -0.01      0.41 
   272.56     17.57     74.97     63.48      0.00     -0.01      0.41 
   272.57     17.57     74.97     63.48      0.00     -0.00      0.41 
   272.58     17.57     74.97     63.48     -0.00      0.00      0.41 
   272.59     17.57     74.97     63.48     -0.00      0.00      0.41 
   272.60     17.57     74.97     63.48     -0.00      0.00      0.82 
