#Written by Robertson Geologging WinLogger V1.0/370
~VERSION INFORMATION
#------------------------------------------------------------------------------
 VERS. 2.0 : CWLS LOG ASCII STANDARD - VERSION 2.0
 WRAP. NO  : ONE LINE PER DEPTH STEP
~WELL INFORMATION
#MNEM.UNIT         DATA                                DESCRIPTION OF MNEMONIC
#------------------------------------------------------------------------------
 STRT.M         68.0800                            :   START DEPTH
 STOP.M        450.0500                            :   STOP DEPTH
 STEP.M          0.0100                            :   STEP VALUE
 NULL.        -999.2500                            :   NULL VALUE
 COMP.    WHITE YOUN GREEN                         :   COMPANY NAME
 WELL.    EASINGTON SHAFT                          :   WELL NAME
 FLD.     EASINGTON                                :   FIELD NAME
 LOC.     N/A                                      :   LOCATION
 PROV.    N/A                                      :   PROVINCE
 SRVC.    N/A                                      :   SERVICE COMPANY NAME
 DATE.    12 Dec 06                                :   DATE
 UWI.     N/A                                      :   UNIQUE WELL IDENTIFIER
~PARAMETER INFORMATION
#MNEMO.UNIT         VALUE                 DESCRIPTION OF MNEMONIC
#------------------------------------------------------------------------------
~OTHER INFORMATION SECTION
#------------------------------------------------------------------------------
 lLOGGING DOWN
~CURVE INFORMATION
#MNEMO.UNIT         API CODE              CURVE DESCRIPTION
#------------------------------------------------------------------------------
 DEPTH.M                                 :   0     Depth
 TEMP.DegC                               :   1     Temperature
 CN25.mS/cm                              :   2     Conductivity@25DegC
 COND.mS/cm                              :   3     Conductivity
 DELT.DegC                               :   4     Delta T
 DELC.mS/cm                              :   5     Delta C
 NGAM.CPS                                :   6     Natural Gamma
#------------------------------------------------------------------------------
~A  DEPTH     TEMP      CN25      COND      DELT      DELC      NGAM      
# ...
    92.94     11.42      8.83      1.44      0.01     -0.01      0.00 
    92.95     11.42      8.83      1.44      0.01     -0.01      0.00 
    92.96     11.42      8.83      1.44      0.01     -0.01      0.00 
    92.97     11.42      8.83      1.44      0.00     -0.00      0.00 
    92.98     11.42      8.83      1.44      0.01     -0.00      0.00 
    92.99     11.42      8.83      1.44      0.01     -0.01      0.00 
    93.00     11.42      8.83      1.43      0.01     -0.01      0.00 
    93.01     11.42      8.83      1.44      0.01     -0.01      0.00 
    93.02     11.42      8.83      1.44      0.01     -0.00      0.00 
    93.03     11.42      8.83      1.44      0.01     -0.01      0.00 
    93.04     11.42      8.83      1.44      0.01     -0.01      0.00 
    93.05     11.42      8.83      1.44      0.01     -0.01      0.00 
    93.06     11.42      8.83      1.44      0.01     -0.01      0.00 
    93.07     11.42      8.83      1.44      0.01     -0.01      0.00 
    93.08     11.42      8.83      1.44      0.01     -0.01      0.00 
    93.09     11.43      8.83      1.44      0.01     -0.02      0.00 
    93.10     11.43      8.82      1.44      0.01     -0.01      0.00 
    93.11     11.43      8.82      1.44      0.01     -0.02      0.00 
    93.12     11.43      8.82      1.44      0.01     -0.01      0.00 
    93.13     11.43      8.82      1.44      0.01     -0.01      0.00 
    93.14     11.43      8.82      1.44      0.01     -0.01      0.00 
    93.15     11.43      8.82      1.44      0.01     -0.00      0.00 
    93.16     11.43      8.83      1.44      0.00     -0.00      0.00 
    93.17     11.43      8.83      1.44      0.00     -0.00      0.00 
    93.18     11.43      8.83      1.44      0.00     -0.00      0.00 
    93.19     11.43      8.82      1.43      0.00     -0.01      0.00 
    93.20     11.42      8.83      1.44      0.00     -0.00      0.00 
    93.21     11.42      8.83      1.44      0.00     -0.00      0.00 
    93.22     11.42      8.83      1.44      0.00     -0.00      0.00 
    93.23     11.42      8.83      1.44      0.00     -0.00      0.00 
    93.24     11.42      8.83      1.43      0.00     -0.01      0.00 
    93.25     11.42      8.83      1.44      0.00     -0.00      0.00 
    93.26     11.42      8.83      1.44      0.00     -0.00      0.00 
    93.27     11.42      8.83      1.44      0.00     -0.00      0.00 
    93.28     11.42      8.83      1.44      0.00     -0.00      0.00 
    93.29     11.42      8.83      1.44      0.00     -0.00      0.00 
    93.30     11.42      8.84      1.44      0.00      0.00      0.00 
    93.31     11.41      8.84      1.44      0.00     -0.00      0.00 
    93.32     11.41      8.84      1.44      0.00      0.00      0.41 
    93.33     11.41      8.84      1.44     -0.00      0.00      0.41 
    93.34     11.41      8.84      1.43     -0.00      0.00      0.41 
    93.35     11.41      8.84      1.44     -0.00      0.00      0.41 
    93.36     11.41      8.84      1.43     -0.00      0.00      0.41 
    93.37     11.41      8.84      1.44     -0.00      0.00      0.41 
    93.38     11.41      8.84      1.44     -0.00      0.00      0.41 
    93.39     11.41      8.84      1.44     -0.00      0.01      0.41 
    93.40     11.41      8.84      1.44     -0.00      0.00      0.41 
    93.41     11.41      8.84      1.44     -0.00      0.00      0.41 
    93.42     11.42      8.84      1.44     -0.00      0.00      0.41 
    93.43     11.42      8.83      1.44     -0.00      0.00      0.41 
    93.44     11.42      8.83      1.44     -0.00      0.00      0.41 
    93.45     11.42      8.83      1.44      0.00      0.00      0.41 
    93.46     11.42      8.83      1.44     -0.00      0.00      0.41 
    93.47     11.42      8.83      1.44      0.00      0.00      0.41 
    93.48     11.42      8.83      1.44      0.00     -0.00      0.41 
    93.49     11.42      8.83      1.44      0.00     -0.00      0.00 
    93.50     11.42      8.83      1.44      0.00     -0.00      0.00 
    93.51     11.42      8.83      1.44      0.00      0.00      0.00 
    93.52     11.42      8.83      1.44      0.00      0.00      0.00 
    93.53     11.42      8.83      1.43      0.00     -0.00      0.00 
    93.54     11.42      8.83      1.44      0.00      0.00      0.00 
    93.55     11.42      8.83      1.44      0.00     -0.00      0.00 
    93.56     11.42      8.83      1.44      0.00     -0.00      0.00 
    93.57     11.42      8.83      1.44      0.00     -0.00      0.00 
    93.58     11.42      8.83      1.43      0.01     -0.01      0.00 
    93.59     11.42      8.83      1.44      0.00     -0.00      0.00 
    93.60     11.42      8.83      1.44      0.00     -0.00      0.00 
    93.61     11.42      8.83      1.44      0.00      0.00      0.00 
    93.62     11.42      8.83      1.44      0.00     -0.00      0.00 
    93.63     11.42      8.84      1.44      0.00      0.00      0.41 
    93.64     11.42      8.84      1.44      0.00      0.00      0.41 
    93.65     11.42      8.83      1.43      0.00     -0.00      0.41 
    93.66     11.42      8.84      1.44     -0.00      0.00      0.41 
    93.67     11.41      8.84      1.44     -0.00     -0.00      0.41 
    93.68     11.41      8.84      1.44     -0.00      0.00      0.41 
    93.69     11.41      8.84      1.44     -0.00      0.01      0.41 
    93.70     11.42      8.84      1.44     -0.00      0.00      0.41 
    93.71     11.42      8.83      1.44      0.00      0.00      0.41 
    93.72     11.42      8.83      1.44      0.00     -0.00      0.41 
    93.73     11.42      8.83      1.44      0.00     -0.00      0.41 
    93.74     11.42      8.83      1.44      0.00     -0.00      0.41 
    93.75     11.42      8.83      1.44      0.00      0.00      0.41 
    93.76     11.42      8.83      1.44      0.00     -0.00      0.41 
    93.77     11.42      8.83      1.44      0.00     -0.00      0.41 
    93.78     11.42      8.83      1.44      0.00     -0.00      0.41 
    93.79     11.42      8.83      1.44      0.00     -0.00      0.41 
    93.80     11.42      8.83      1.44      0.00     -0.00      0.00 
    93.81     11.42      8.83      1.43      0.00     -0.01      0.00 
    93.82     11.42      8.83      1.44     -0.00     -0.00      0.00 
    93.83     11.42      8.83      1.44      0.00     -0.00      0.00 
    93.84     11.42      8.83      1.44      0.00     -0.00      0.00 
    93.85     11.42      8.83      1.44      0.00     -0.00      0.00 
    93.86     11.42      8.83      1.43      0.00     -0.01      0.00 
    93.87     11.42      8.84      1.44      0.00      0.00      0.00 
    93.88     11.42      8.83      1.44      0.00     -0.00      0.00 
    93.89     11.42      8.84      1.44      0.00     -0.00      0.00 
    93.90     11.42      8.84      1.44      0.00      0.00      0.00 
    93.91     11.42      8.83      1.44      0.00      0.00      0.41 
    93.92     11.42      8.84      1.44     -0.00      0.01      0.41 
    93.93     11.42      8.83      1.44     -0.00      0.00      0.41 
    93.94     11.42      8.84      1.44     -0.00      0.01      0.41 
    93.95     11.42      8.83      1.44     -0.00      0.00      0.41 
    93.96     11.42      8.83      1.44     -0.00      0.00      0.41 
    93.97     11.42      8.84      1.44     -0.00      0.01      0.41 
    93.98     11.42      8.83      1.44     -0.00      0.00      0.41 
    93.99     11.42      8.84      1.44     -0.00      0.01      0.41 
    94.00     11.42      8.83      1.44     -0.00      0.00      0.41 
    94.01     11.42      8.84      1.44     -0.01      0.00      0.41 
    94.02     11.42      8.83      1.44     -0.01      0.01      0.41 
    94.03     11.42      8.84      1.44     -0.01      0.01      0.41 
    94.04     11.42      8.84      1.44     -0.00      0.01      0.41 
    94.05     11.42      8.83      1.44     -0.01      0.01      0.41 
    94.06     11.42      8.84      1.44     -0.01      0.01      0.41 
