#Written by Robertson Geologging WinLogger V1.0/370
~VERSION INFORMATION
#------------------------------------------------------------------------------
 VERS. 2.0 : CWLS LOG ASCII STANDARD - VERSION 2.0
 WRAP. NO  : ONE LINE PER DEPTH STEP
~WELL INFORMATION
#MNEM.UNIT         DATA                                DESCRIPTION OF MNEMONIC
#------------------------------------------------------------------------------
 STRT.M         68.0800                            :   START DEPTH
 STOP.M        450.0500                            :   STOP DEPTH
 STEP.M          0.0100                            :   STEP VALUE
 NULL.        -999.2500                            :   NULL VALUE
 COMP.    WHITE YOUN GREEN                         :   COMPANY NAME
 WELL.    EASINGTON SHAFT                          :   WELL NAME
 FLD.     EASINGTON                                :   FIELD NAME
 LOC.     N/A                                      :   LOCATION
 PROV.    N/A                                      :   PROVINCE
 SRVC.    N/A                                      :   SERVICE COMPANY NAME
 DATE.    12 Dec 06                                :   DATE
 UWI.     N/A                                      :   UNIQUE WELL IDENTIFIER
~PARAMETER INFORMATION
#MNEMO.UNIT         VALUE                 DESCRIPTION OF MNEMONIC
#------------------------------------------------------------------------------
~OTHER INFORMATION SECTION
#------------------------------------------------------------------------------
 lLOGGING DOWN
~CURVE INFORMATION
#MNEMO.UNIT         API CODE              CURVE DESCRIPTION
#------------------------------------------------------------------------------
 DEPTH.M                                 :   0     Depth
 TEMP.DegC                               :   1     Temperature
 CN25.mS/cm                              :   2     Conductivity@25DegC
 COND.mS/cm                              :   3     Conductivity
 DELT.DegC                               :   4     Delta T
 DELC.mS/cm                              :   5     Delta C
 NGAM.CPS                                :   6     Natural Gamma
#------------------------------------------------------------------------------
~A  DEPTH     TEMP      CN25      COND      DELT      DELC      NGAM      
# ...
   373.18     18.25     84.52     73.43      0.01     -0.04      0.00 
   373.19     18.25     84.52     73.43      0.01     -0.03      0.00 
   373.20     18.25     84.52     73.43      0.00     -0.01      0.41 
   373.21     18.25     84.53     73.43     -0.00     -0.00      0.82 
   373.22     18.25     84.53     73.43     -0.00      0.00      1.24 
   373.23     18.25     84.53     73.43     -0.00      0.00      1.24 
   373.24     18.25     84.53     73.43     -0.00     -0.00      1.24 
   373.25     18.25     84.53     73.43      0.00     -0.01      1.24 
   373.26     18.25     84.53     73.43     -0.00     -0.00      1.24 
   373.27     18.24     84.55     73.43     -0.01      0.01      1.24 
   373.28     18.24     84.56     73.43     -0.01      0.02      1.65 
   373.29     18.24     84.56     73.43     -0.01      0.03      1.65 
   373.30     18.24     84.56     73.43     -0.01      0.03      1.65 
   373.31     18.24     84.56     73.43     -0.01      0.02      2.06 
   373.32     18.24     84.55     73.43     -0.01      0.02      2.06 
   373.33     18.24     84.56     73.43     -0.01      0.02      2.06 
   373.34     18.23     84.57     73.43     -0.01      0.02      2.47 
   373.35     18.23     84.57     73.43     -0.01      0.03      2.47 
   373.36     18.23     84.58     73.43     -0.02      0.05      2.47 
   373.37     18.23     84.59     73.43     -0.02      0.06      2.47 
   373.38     18.23     84.58     73.43     -0.02      0.07      2.06 
   373.39     18.23     84.58     73.43     -0.03      0.08      2.06 
   373.40     18.23     84.57     73.43     -0.02      0.07      2.06 
   373.41     18.23     84.56     73.43     -0.02      0.05      2.06 
   373.42     18.24     84.56     73.44     -0.01      0.04      2.06 
   373.43     18.24     84.54     73.43     -0.00      0.00      2.47 
   373.44     18.25     84.54     73.44      0.01     -0.02      2.47 
   373.45     18.25     84.53     73.43      0.01     -0.03      2.06 
   373.46     18.25     84.52     73.43      0.01     -0.04      2.06 
   373.47     18.26     84.50     73.43      0.02     -0.06      2.06 
   373.48     18.26     84.48     73.43      0.02     -0.08      2.47 
   373.49     18.27     84.47     73.43      0.03     -0.10      2.47 
   373.50     18.27     84.47     73.43      0.03     -0.11      2.47 
   373.51     18.27     84.47     73.43      0.03     -0.11      2.06 
   373.52     18.26     84.48     73.44      0.03     -0.09      2.06 
   373.53     18.26     84.49     73.43      0.02     -0.08      2.06 
   373.54     18.26     84.50     73.44      0.02     -0.06      1.65 
   373.55     18.25     84.51     73.43      0.01     -0.04      1.65 
   373.56     18.25     84.51     73.44      0.01     -0.05      2.06 
   373.57     18.26     84.50     73.44      0.02     -0.06      2.06 
   373.58     18.26     84.50     73.44      0.02     -0.07      2.06 
   373.59     18.26     84.50     73.44      0.02     -0.08      2.06 
   373.60     18.26     84.50     73.44      0.03     -0.09      2.06 
   373.61     18.25     84.51     73.43      0.02     -0.09      2.47 
   373.62     18.25     84.51     73.43      0.02     -0.08      2.47 
   373.63     18.25     84.51     73.43      0.02     -0.08      2.47 
   373.64     18.25     84.52     73.43      0.02     -0.08      2.47 
   373.65     18.25     84.51     73.43      0.02     -0.08      1.65 
   373.66     18.25     84.51     73.43      0.02     -0.09      1.65 
   373.67     18.25     84.51     73.43      0.02     -0.08      1.65 
   373.68     18.25     84.50     73.43      0.02     -0.07      1.65 
   373.69     18.25     84.51     73.43      0.01     -0.06      1.65 
   373.70     18.25     84.51     73.43      0.01     -0.05      1.65 
   373.71     18.25     84.51     73.43      0.01     -0.03      2.06 
   373.72     18.25     84.52     73.43      0.00     -0.02      2.06 
   373.73     18.25     84.52     73.43      0.01     -0.03      1.24 
   373.74     18.25     84.51     73.43      0.01     -0.03      1.24 
   373.75     18.25     84.50     73.43      0.01     -0.04      1.24 
   373.76     18.25     84.50     73.43      0.01     -0.03      1.24 
   373.77     18.25     84.50     73.43      0.01     -0.03      0.82 
   373.78     18.25     84.50     73.43      0.01     -0.03      0.82 
   373.79     18.25     84.51     73.43      0.00     -0.02      0.82 
   373.80     18.25     84.51     73.43      0.01     -0.03      1.24 
   373.81     18.25     84.52     73.43      0.01     -0.02      1.65 
   373.82     18.25     84.52     73.43      0.01     -0.03      2.06 
   373.83     18.25     84.52     73.43      0.01     -0.03      2.06 
   373.84     18.25     84.52     73.43      0.01     -0.03      2.06 
   373.85     18.25     84.53     73.43      0.01     -0.02      2.06 
   373.86     18.24     84.54     73.43      0.00     -0.01      2.06 
   373.87     18.24     84.55     73.43     -0.00     -0.01      2.06 
   373.88     18.23     84.56     73.43     -0.00      0.00      1.65 
   373.89     18.23     84.57     73.43     -0.00     -0.00      1.65 
   373.90     18.23     84.57     73.43     -0.00     -0.00      1.65 
   373.91     18.23     84.57     73.43     -0.00      0.00      1.65 
   373.92     18.23     84.56     73.43     -0.00     -0.00      1.65 
   373.93     18.23     84.56     73.43      0.00     -0.01      2.06 
   373.94     18.24     84.56     73.43      0.00     -0.02      2.06 
   373.95     18.24     84.55     73.43      0.01     -0.03      1.65 
   373.96     18.24     84.55     73.43      0.01     -0.04      1.65 
   373.97     18.24     84.54     73.43      0.02     -0.06      1.24 
   373.98     18.25     84.53     73.43      0.02     -0.08      1.24 
   373.99     18.25     84.52     73.43      0.03     -0.09      0.82 
   374.00     18.25     84.52     73.43      0.03     -0.09      0.82 
   374.01     18.25     84.52     73.43      0.02     -0.08      1.24 
   374.02     18.25     84.52     73.43      0.02     -0.07      1.24 
   374.03     18.24     84.53     73.43      0.02     -0.05      1.24 
   374.04     18.24     84.54     73.43      0.01     -0.04      1.24 
   374.05     18.24     84.54     73.43      0.01     -0.03      1.24 
   374.06     18.24     84.54     73.43      0.01     -0.03      2.06 
   374.07     18.24     84.54     73.43      0.01     -0.02      2.06 
   374.08     18.24     84.54     73.43      0.00     -0.01      2.06 
   374.09     18.24     84.54     73.43      0.00     -0.00      2.06 
   374.10     18.24     84.54     73.43     -0.00      0.00      1.65 
   374.11     18.24     84.53     73.43      0.00     -0.01      1.65 
   374.12     18.25     84.53     73.43      0.00     -0.02      1.65 
   374.13     18.25     84.53     73.43      0.00     -0.02      2.06 
   374.14     18.25     84.53     73.43      0.00     -0.02      2.06 
   374.15     18.24     84.53     73.43     -0.00      0.00      1.65 
   374.16     18.24     84.54     73.43     -0.01      0.02      1.65 
   374.17     18.24     84.54     73.43     -0.01      0.03      1.65 
   374.18     18.24     84.55     73.43     -0.01      0.03      1.24 
   374.19     18.24     84.54     73.43     -0.01      0.02      1.24 
   374.20     18.24     84.54     73.43     -0.01      0.01      2.47 
   374.21     18.24     84.54     73.43     -0.00      0.01      2.47 
   374.22     18.24     84.54     73.43     -0.00      0.02      2.47 
   374.23     18.24     84.53     73.43     -0.00      0.01      1.65 
   374.24     18.25     84.52     73.43     -0.00     -0.00      1.65 
   374.25     18.25     84.51     73.43      0.00     -0.02      2.06 
   374.26     18.25     84.50     73.43      0.01     -0.05      2.06 
   374.27     18.26     84.49     73.43      0.02     -0.07      2.47 
   374.28     18.26     84.49     73.43      0.02     -0.08      2.47 
   374.29     18.26     84.49     73.43      0.02     -0.08      2.47 
   374.30     18.26     84.49     73.43      0.02     -0.07      2.06 
