#Written by Robertson Geologging WinLogger V1.0/370
~VERSION INFORMATION
#------------------------------------------------------------------------------
 VERS. 2.0 : CWLS LOG ASCII STANDARD - VERSION 2.0
 WRAP. NO  : ONE LINE PER DEPTH STEP
~WELL INFORMATION
#MNEM.UNIT         DATA                                DESCRIPTION OF MNEMONIC
#------------------------------------------------------------------------------
 STRT.M         68.0800                            :   START DEPTH
 STOP.M        450.0500                            :   STOP DEPTH
 STEP.M          0.0100                            :   STEP VALUE
 NULL.        -999.2500                            :   NULL VALUE
 COMP.    WHITE YOUN GREEN                         :   COMPANY NAME
 WELL.    EASINGTON SHAFT                          :   WELL NAME
 FLD.     EASINGTON                                :   FIELD NAME
 LOC.     N/A                                      :   LOCATION
 PROV.    N/A                                      :   PROVINCE
 SRVC.    N/A                                      :   SERVICE COMPANY NAME
 DATE.    12 Dec 06                                :   DATE
 UWI.     N/A                                      :   UNIQUE WELL IDENTIFIER
~PARAMETER INFORMATION
#MNEMO.UNIT         VALUE                 DESCRIPTION OF MNEMONIC
#------------------------------------------------------------------------------
~OTHER INFORMATION SECTION
#------------------------------------------------------------------------------
 lLOGGING DOWN
~CURVE INFORMATION
#MNEMO.UNIT         API CODE              CURVE DESCRIPTION
#------------------------------------------------------------------------------
 DEPTH.M                                 :   0     Depth
 TEMP.DegC                               :   1     Temperature
 CN25.mS/cm                              :   2     Conductivity@25DegC
 COND.mS/cm                              :   3     Conductivity
 DELT.DegC                               :   4     Delta T
 DELC.mS/cm                              :   5     Delta C
 NGAM.CPS                                :   6     Natural Gamma
#------------------------------------------------------------------------------
~A  DEPTH     TEMP      CN25      COND      DELT      DELC      NGAM      
# ...
   424.03     18.55     88.22     77.47     -0.06      0.40      0.35 
   424.04     18.55     88.21     77.47     -0.06      0.39      0.00 
   424.05     18.55     88.21     77.47     -0.06      0.39      0.00 
   424.06     18.55     88.21     77.47     -0.06      0.40      0.41 
   424.07     18.55     88.22     77.47     -0.07      0.41      0.41 
   424.08     18.55     88.24     77.48     -0.07      0.42      0.82 
   424.09     18.54     88.24     77.47     -0.07      0.42      1.24 
   424.10     18.55     88.24     77.48     -0.07      0.42      1.24 
   424.11     18.55     88.22     77.48     -0.07      0.40      1.24 
   424.12     18.55     88.21     77.48     -0.06      0.37      1.24 
   424.13     18.55     88.21     77.48     -0.05      0.36      1.24 
   424.14     18.56     88.21     77.48     -0.05      0.34      1.24 
   424.15     18.55     88.22     77.48     -0.05      0.34      1.24 
   424.16     18.55     88.23     77.48     -0.05      0.34      1.24 
   424.17     18.55     88.23     77.48     -0.05      0.34      1.24 
   424.18     18.55     88.23     77.48     -0.05      0.34      1.24 
   424.19     18.55     88.23     77.48     -0.05      0.34      1.24 
   424.20     18.55     88.24     77.49     -0.05      0.34      1.24 
   424.21     18.55     88.24     77.48     -0.05      0.33      1.24 
   424.22     18.55     88.25     77.49     -0.05      0.35      1.24 
   424.23     18.54     88.26     77.49     -0.06      0.37      0.82 
   424.24     18.54     88.26     77.49     -0.06      0.37      0.82 
   424.25     18.54     88.28     77.49     -0.07      0.39      0.41 
   424.26     18.53     88.29     77.49     -0.07      0.40      0.00 
   424.27     18.53     88.31     77.49     -0.08      0.41      0.00 
   424.28     18.52     88.33     77.49     -0.08      0.43      0.00 
   424.29     18.52     88.35     77.50     -0.08      0.44      0.00 
   424.30     18.51     88.37     77.50     -0.09      0.45      0.00 
   424.31     18.51     88.37     77.49     -0.09      0.46      0.41 
   424.32     18.51     88.38     77.50     -0.10      0.48      0.76 
   424.33     18.51     88.37     77.49     -0.10      0.49      1.18 
   424.34     18.51     88.38     77.50     -0.10      0.50      1.18 
   424.35     18.51     88.38     77.50     -0.11      0.50      1.88 
   424.36     18.51     88.38     77.50     -0.10      0.50      1.88 
   424.37     18.51     88.38     77.50     -0.10      0.50      1.88 
   424.38     18.51     88.37     77.50     -0.10      0.48      1.88 
   424.39     18.52     88.36     77.50     -0.09      0.45      1.88 
   424.40     18.52     88.36     77.50     -0.09      0.44      1.88 
   424.41     18.52     88.35     77.50     -0.08      0.41      1.88 
   424.42     18.52     88.35     77.51     -0.08      0.40      1.88 
   424.43     18.52     88.36     77.51     -0.07      0.38      1.88 
   424.44     18.52     88.37     77.51     -0.07      0.36      1.88 
   424.45     18.51     88.38     77.51     -0.07      0.36      1.88 
   424.46     18.51     88.40     77.52     -0.07      0.36      1.88 
   424.47     18.51     88.40     77.51     -0.06      0.34      1.88 
   424.48     18.51     88.40     77.51     -0.06      0.34      1.47 
   424.49     18.51     88.39     77.51     -0.06      0.33      1.12 
   424.50     18.51     88.39     77.51     -0.06      0.33      0.71 
   424.51     18.51     88.40     77.52     -0.07      0.34      0.71 
   424.52     18.50     88.42     77.52     -0.07      0.35      0.00 
   424.53     18.50     88.43     77.52     -0.08      0.36      0.00 
   424.54     18.50     88.43     77.52     -0.08      0.37      0.00 
   424.55     18.50     88.44     77.52     -0.08      0.38      0.00 
   424.56     18.50     88.44     77.52     -0.08      0.38      0.00 
   424.57     18.50     88.44     77.52     -0.08      0.38      1.24 
   424.58     18.50     88.45     77.53     -0.08      0.39      1.65 
   424.59     18.50     88.44     77.53     -0.08      0.38      1.65 
   424.60     18.50     88.45     77.53     -0.08      0.38      1.65 
   424.61     18.50     88.45     77.53     -0.08      0.38      1.65 
   424.62     18.50     88.43     77.53     -0.07      0.36      1.65 
   424.63     18.50     88.43     77.53     -0.07      0.36      1.65 
   424.64     18.51     88.43     77.53     -0.07      0.35      2.47 
   424.65     18.51     88.42     77.53     -0.07      0.34      2.82 
   424.66     18.51     88.42     77.54     -0.06      0.33      3.65 
   424.67     18.51     88.42     77.54     -0.06      0.32      3.65 
   424.68     18.51     88.41     77.54     -0.06      0.31      3.65 
   424.69     18.52     88.40     77.54     -0.05      0.29      3.65 
   424.70     18.52     88.40     77.54     -0.05      0.29      4.06 
   424.71     18.52     88.41     77.54     -0.05      0.28      4.47 
   424.72     18.51     88.41     77.54     -0.05      0.27      4.82 
   424.73     18.51     88.42     77.54     -0.04      0.26      5.24 
   424.74     18.51     88.41     77.54     -0.04      0.25      4.00 
   424.75     18.51     88.41     77.54     -0.04      0.24      3.59 
   424.76     18.51     88.41     77.54     -0.04      0.23      4.00 
   424.77     18.51     88.42     77.54     -0.04      0.23      4.00 
   424.78     18.51     88.42     77.54     -0.04      0.24      4.00 
   424.79     18.51     88.44     77.54     -0.05      0.26      4.00 
   424.80     18.50     88.46     77.54     -0.06      0.29      4.35 
   424.81     18.50     88.48     77.54     -0.06      0.32      3.53 
   424.82     18.49     88.50     77.54     -0.08      0.36      3.59 
   424.83     18.49     88.50     77.54     -0.08      0.38      2.76 
   424.84     18.49     88.50     77.54     -0.08      0.39      2.76 
   424.85     18.49     88.51     77.55     -0.09      0.40      2.76 
   424.86     18.49     88.51     77.55     -0.09      0.41      2.76 
   424.87     18.49     88.52     77.56     -0.09      0.43      2.35 
   424.88     18.48     88.52     77.55     -0.10      0.44      1.94 
   424.89     18.48     88.53     77.55     -0.10      0.44      1.59 
   424.90     18.48     88.53     77.56     -0.09      0.43      1.18 
   424.91     18.48     88.53     77.56     -0.09      0.41      1.18 
   424.92     18.49     88.51     77.56     -0.08      0.38      1.18 
   424.93     18.49     88.51     77.56     -0.07      0.36      0.76 
   424.94     18.49     88.51     77.56     -0.07      0.34      1.59 
   424.95     18.49     88.50     77.56     -0.07      0.33      1.94 
   424.96     18.49     88.51     77.56     -0.07      0.33      1.94 
   424.97     18.49     88.51     77.56     -0.06      0.32      1.59 
   424.98     18.49     88.52     77.56     -0.06      0.31      1.59 
   424.99     18.49     88.52     77.56     -0.06      0.30      1.59 
   425.00     18.49     88.53     77.56     -0.06      0.30      1.59 
   425.01     18.49     88.52     77.56     -0.06      0.30      1.59 
   425.02     18.49     88.52     77.56     -0.06      0.30      1.59 
   425.03     18.49     88.52     77.56     -0.06      0.31      1.59 
   425.04     18.49     88.52     77.56     -0.06      0.31      2.00 
   425.05     18.49     88.52     77.56     -0.06      0.31      2.00 
   425.06     18.49     88.53     77.57     -0.06      0.31      2.00 
   425.07     18.49     88.54     77.57     -0.06      0.30      2.00 
   425.08     18.49     88.53     77.57     -0.06      0.29      2.00 
   425.09     18.49     88.52     77.57     -0.06      0.28      2.41 
   425.10     18.49     88.52     77.57     -0.06      0.29      2.41 
   425.11     18.49     88.51     77.57     -0.06      0.30      1.94 
   425.12     18.49     88.52     77.57     -0.07      0.31      1.59 
   425.13     18.49     88.53     77.57     -0.07      0.32      1.59 
   425.14     18.49     88.53     77.57     -0.07      0.32      1.59 
   425.15     18.49     88.53     77.58     -0.06      0.30      1.59 
