#Written by Robertson Geologging WinLogger V1.0/370
~VERSION INFORMATION
#------------------------------------------------------------------------------
 VERS. 2.0 : CWLS LOG ASCII STANDARD - VERSION 2.0
 WRAP. NO  : ONE LINE PER DEPTH STEP
~WELL INFORMATION
#MNEM.UNIT         DATA                                DESCRIPTION OF MNEMONIC
#------------------------------------------------------------------------------
 STRT.M         68.0800                            :   START DEPTH
 STOP.M        450.0500                            :   STOP DEPTH
 STEP.M          0.0100                            :   STEP VALUE
 NULL.        -999.2500                            :   NULL VALUE
 COMP.    WHITE YOUN GREEN                         :   COMPANY NAME
 WELL.    EASINGTON SHAFT                          :   WELL NAME
 FLD.     EASINGTON                                :   FIELD NAME
 LOC.     N/A                                      :   LOCATION
 PROV.    N/A                                      :   PROVINCE
 SRVC.    N/A                                      :   SERVICE COMPANY NAME
 DATE.    12 Dec 06                                :   DATE
 UWI.     N/A                                      :   UNIQUE WELL IDENTIFIER
~PARAMETER INFORMATION
#MNEMO.UNIT         VALUE                 DESCRIPTION OF MNEMONIC
#------------------------------------------------------------------------------
~OTHER INFORMATION SECTION
#------------------------------------------------------------------------------
 lLOGGING DOWN
~CURVE INFORMATION
#MNEMO.UNIT         API CODE              CURVE DESCRIPTION
#------------------------------------------------------------------------------
 DEPTH.M                                 :   0     Depth
 TEMP.DegC                               :   1     Temperature
 CN25.mS/cm                              :   2     Conductivity@25DegC
 COND.mS/cm                              :   3     Conductivity
 DELT.DegC                               :   4     Delta T
 DELC.mS/cm                              :   5     Delta C
 NGAM.CPS                                :   6     Natural Gamma
#------------------------------------------------------------------------------
~A  DEPTH     TEMP      CN25      COND      DELT      DELC      NGAM      
# ...
   220.63     16.83     75.50     62.13      0.00      0.00      1.88 
   220.64     16.83     75.49     62.12      0.00      0.00      1.88 
   220.65     16.84     75.50     62.13      0.00      0.01      1.53 
   220.66     16.84     75.49     62.12      0.00      0.00      1.53 
   220.67     16.83     75.50     62.13      0.00      0.01      2.00 
   220.68     16.84     75.50     62.13      0.00      0.01      2.00 
   220.69     16.84     75.49     62.13      0.00      0.01      2.41 
   220.70     16.84     75.49     62.13      0.00     -0.00      2.35 
   220.71     16.84     75.49     62.13      0.01     -0.00      2.35 
   220.72     16.84     75.49     62.13      0.01      0.00      2.35 
   220.73     16.84     75.49     62.13      0.01      0.00      2.76 
   220.74     16.84     75.49     62.13      0.01      0.00      2.76 
   220.75     16.84     75.50     62.13      0.01      0.01      2.76 
   220.76     16.84     75.49     62.13      0.00     -0.00      2.76 
   220.77     16.84     75.50     62.13      0.01      0.00      2.76 
   220.78     16.84     75.49     62.12      0.01     -0.01      2.76 
   220.79     16.84     75.50     62.13      0.01     -0.00      2.76 
   220.80     16.83     75.50     62.12      0.00     -0.01      2.82 
   220.81     16.83     75.51     62.12      0.00      0.01      2.82 
   220.82     16.83     75.51     62.12     -0.00      0.01      3.24 
   220.83     16.83     75.51     62.12     -0.00      0.01      3.65 
   220.84     16.83     75.51     62.12     -0.00      0.01      2.82 
   220.85     16.83     75.52     62.13     -0.00      0.01      2.82 
   220.86     16.83     75.51     62.12      0.00      0.00      2.41 
   220.87     16.83     75.51     62.13      0.00      0.00      2.47 
   220.88     16.83     75.50     62.12      0.00     -0.00      2.47 
   220.89     16.83     75.51     62.13      0.00      0.00      2.47 
   220.90     16.83     75.50     62.12      0.00      0.00      2.06 
   220.91     16.84     75.50     62.13     -0.00      0.02      2.47 
   220.92     16.84     75.49     62.13     -0.00      0.01      2.47 
   220.93     16.84     75.49     62.13      0.00      0.01      2.47 
   220.94     16.84     75.49     62.13      0.00      0.01      2.47 
   220.95     16.84     75.49     62.13      0.00      0.00      2.47 
   220.96     16.84     75.48     62.12      0.00      0.00      2.06 
   220.97     16.84     75.49     62.13      0.00      0.01      1.65 
   220.98     16.84     75.49     62.12      0.00      0.01      2.35 
   220.99     16.83     75.50     62.13      0.00      0.01      1.94 
   221.00     16.83     75.50     62.12      0.00      0.00      1.94 
   221.01     16.83     75.50     62.13      0.01     -0.00      1.94 
   221.02     16.84     75.49     62.12      0.01     -0.02      1.94 
   221.03     16.84     75.50     62.13      0.01     -0.01      2.35 
   221.04     16.84     75.50     62.13      0.01     -0.01      1.94 
   221.05     16.84     75.49     62.13      0.01     -0.01      1.94 
   221.06     16.84     75.49     62.13      0.01     -0.00      1.94 
   221.07     16.84     75.49     62.13      0.01     -0.01      2.35 
   221.08     16.84     75.49     62.13      0.01     -0.01      1.94 
   221.09     16.84     75.48     62.13      0.01     -0.01      1.94 
   221.10     16.84     75.48     62.13      0.01     -0.01      1.94 
   221.11     16.84     75.48     62.13      0.01     -0.01      1.94 
   221.12     16.84     75.48     62.13      0.01     -0.01      2.35 
   221.13     16.84     75.48     62.13      0.01     -0.02      2.35 
   221.14     16.84     75.48     62.12      0.01     -0.02      2.35 
   221.15     16.84     75.49     62.12      0.01     -0.02      1.65 
   221.16     16.83     75.50     62.12      0.01     -0.02      1.65 
   221.17     16.83     75.50     62.12      0.01     -0.02      1.65 
   221.18     16.83     75.51     62.13      0.01     -0.01      1.65 
   221.19     16.83     75.50     62.12      0.01     -0.02      1.65 
   221.20     16.83     75.51     62.13      0.01     -0.01      1.24 
   221.21     16.83     75.50     62.12      0.00     -0.00      1.65 
   221.22     16.83     75.51     62.13      0.00      0.01      1.65 
   221.23     16.83     75.51     62.12     -0.00      0.00      1.65 
   221.24     16.83     75.52     62.13     -0.00      0.02      1.24 
   221.25     16.83     75.52     62.13     -0.00      0.02      1.24 
   221.26     16.83     75.51     62.13     -0.00      0.02      1.24 
   221.27     16.83     75.52     62.13     -0.00      0.03      1.24 
   221.28     16.83     75.51     62.13     -0.00      0.02      1.24 
   221.29     16.83     75.51     62.13     -0.00      0.02      0.82 
   221.30     16.83     75.52     62.13     -0.00      0.02      0.82 
   221.31     16.83     75.52     62.13     -0.00      0.01      1.18 
   221.32     16.83     75.52     62.13     -0.00      0.01      1.18 
   221.33     16.83     75.52     62.13      0.00      0.00      1.18 
   221.34     16.83     75.52     62.13      0.00      0.01      0.76 
   221.35     16.83     75.51     62.13      0.00      0.00      0.76 
   221.36     16.83     75.51     62.13      0.00      0.01      0.76 
   221.37     16.83     75.52     62.13      0.00      0.01      1.18 
   221.38     16.83     75.51     62.13     -0.00      0.01      1.12 
   221.39     16.83     75.52     62.13     -0.00      0.02      1.12 
   221.40     16.83     75.52     62.13     -0.00      0.02      1.12 
   221.41     16.83     75.52     62.13     -0.01      0.03      1.12 
   221.42     16.83     75.52     62.13     -0.01      0.03      1.47 
   221.43     16.83     75.51     62.13     -0.01      0.03      1.47 
   221.44     16.83     75.52     62.13     -0.00      0.03      1.47 
   221.45     16.83     75.51     62.13     -0.00      0.03      1.47 
   221.46     16.83     75.51     62.13     -0.00      0.02      1.47 
   221.47     16.84     75.50     62.13      0.00      0.01      1.47 
   221.48     16.84     75.48     62.12      0.00     -0.00      1.12 
   221.49     16.84     75.48     62.13      0.01     -0.02      1.12 
   221.50     16.85     75.47     62.13      0.01     -0.03      1.47 
   221.51     16.85     75.47     62.13      0.01     -0.03      1.47 
   221.52     16.85     75.47     62.13      0.02     -0.04      1.47 
   221.53     16.85     75.47     62.13      0.02     -0.03      1.47 
   221.54     16.84     75.47     62.13      0.01     -0.03      1.41 
   221.55     16.84     75.47     62.13      0.01     -0.03      1.06 
   221.56     16.84     75.47     62.12      0.01     -0.03      1.06 
   221.57     16.84     75.48     62.13      0.01     -0.03      1.06 
   221.58     16.84     75.48     62.13      0.01     -0.02      1.06 
   221.59     16.84     75.49     62.13      0.01     -0.02      0.71 
   221.60     16.84     75.49     62.13      0.01     -0.01      0.71 
   221.61     16.84     75.49     62.13      0.01     -0.01      1.06 
   221.62     16.84     75.49     62.13      0.01     -0.01      1.06 
   221.63     16.84     75.49     62.13      0.01     -0.01      1.06 
   221.64     16.84     75.48     62.13      0.01     -0.02      1.06 
   221.65     16.85     75.47     62.13      0.01     -0.02      1.06 
   221.66     16.85     75.47     62.13      0.01     -0.03      1.06 
   221.67     16.85     75.47     62.13      0.01     -0.03      0.71 
   221.68     16.85     75.46     62.13      0.01     -0.03      1.12 
   221.69     16.85     75.46     62.13      0.01     -0.03      1.12 
   221.70     16.85     75.46     62.13      0.01     -0.03      1.12 
   221.71     16.85     75.46     62.13      0.01     -0.03      0.76 
   221.72     16.85     75.46     62.13      0.01     -0.03      0.76 
   221.73     16.85     75.46     62.13      0.01     -0.03      0.76 
   221.74     16.85     75.47     62.13      0.01     -0.03      0.76 
   221.75     16.85     75.47     62.13      0.01     -0.02      0.76 
