#Written by Robertson Geologging WinLogger V1.0/370
~VERSION INFORMATION
#------------------------------------------------------------------------------
 VERS. 2.0 : CWLS LOG ASCII STANDARD - VERSION 2.0
 WRAP. NO  : ONE LINE PER DEPTH STEP
~WELL INFORMATION
#MNEM.UNIT         DATA                                DESCRIPTION OF MNEMONIC
#------------------------------------------------------------------------------
 STRT.M         68.0800                            :   START DEPTH
 STOP.M        450.0500                            :   STOP DEPTH
 STEP.M          0.0100                            :   STEP VALUE
 NULL.        -999.2500                            :   NULL VALUE
 COMP.    WHITE YOUN GREEN                         :   COMPANY NAME
 WELL.    EASINGTON SHAFT                          :   WELL NAME
 FLD.     EASINGTON                                :   FIELD NAME
 LOC.     N/A                                      :   LOCATION
 PROV.    N/A                                      :   PROVINCE
 SRVC.    N/A                                      :   SERVICE COMPANY NAME
 DATE.    12 Dec 06                                :   DATE
 UWI.     N/A                                      :   UNIQUE WELL IDENTIFIER
~PARAMETER INFORMATION
#MNEMO.UNIT         VALUE                 DESCRIPTION OF MNEMONIC
#------------------------------------------------------------------------------
~OTHER INFORMATION SECTION
#------------------------------------------------------------------------------
 lLOGGING DOWN
~CURVE INFORMATION
#MNEMO.UNIT         API CODE              CURVE DESCRIPTION
#------------------------------------------------------------------------------
 DEPTH.M                                 :   0     Depth
 TEMP.DegC                               :   1     Temperature
 CN25.mS/cm                              :   2     Conductivity@25DegC
 COND.mS/cm                              :   3     Conductivity
 DELT.DegC                               :   4     Delta T
 DELC.mS/cm                              :   5     Delta C
 NGAM.CPS                                :   6     Natural Gamma
#------------------------------------------------------------------------------
~A  DEPTH     TEMP      CN25      COND      DELT      DELC      NGAM      
# ...
   296.34     17.60     74.88     63.48      0.00     -0.01      1.18 
   296.35     17.60     74.88     63.48      0.01     -0.01      1.18 
   296.36     17.60     74.87     63.48      0.01     -0.02      1.18 
   296.37     17.61     74.87     63.48      0.01     -0.02      1.18 
   296.38     17.61     74.86     63.48      0.01     -0.02      1.18 
   296.39     17.61     74.87     63.48      0.01     -0.01      0.76 
   296.40     17.60     74.88     63.48      0.00     -0.01      0.41 
   296.41     17.60     74.88     63.48     -0.00      0.00      0.41 
   296.42     17.60     74.89     63.48     -0.00      0.01      0.00 
   296.43     17.59     74.90     63.48     -0.01      0.03      0.00 
   296.44     17.59     74.91     63.48     -0.01      0.04      0.00 
   296.45     17.59     74.91     63.48     -0.01      0.05      0.35 
   296.46     17.59     74.92     63.48     -0.02      0.06      0.35 
   296.47     17.59     74.93     63.48     -0.02      0.07      0.35 
   296.48     17.59     74.93     63.48     -0.02      0.07      0.35 
   296.49     17.59     74.93     63.48     -0.02      0.07      0.35 
   296.50     17.59     74.92     63.48     -0.02      0.06      0.35 
   296.51     17.59     74.92     63.48     -0.02      0.05      0.35 
   296.52     17.59     74.92     63.48     -0.01      0.05      0.35 
   296.53     17.59     74.91     63.48     -0.01      0.03      0.35 
   296.54     17.59     74.90     63.48     -0.01      0.02      0.35 
   296.55     17.60     74.90     63.48     -0.00      0.02      0.76 
   296.56     17.60     74.90     63.48      0.00      0.00      0.76 
   296.57     17.60     74.90     63.48      0.01     -0.01      0.76 
   296.58     17.60     74.90     63.48      0.01     -0.03      0.76 
   296.59     17.60     74.90     63.48      0.01     -0.03      0.76 
   296.60     17.60     74.90     63.48      0.01     -0.03      0.76 
   296.61     17.60     74.90     63.48      0.01     -0.04      0.76 
   296.62     17.59     74.91     63.48      0.01     -0.03      0.41 
   296.63     17.59     74.91     63.48      0.01     -0.02      0.41 
   296.64     17.59     74.91     63.48      0.01     -0.02      0.76 
   296.65     17.59     74.92     63.48      0.01     -0.02      0.76 
   296.66     17.59     74.92     63.48      0.01     -0.02      0.76 
   296.67     17.59     74.92     63.48      0.01     -0.01      0.76 
   296.68     17.59     74.91     63.48      0.00     -0.01      0.76 
   296.69     17.59     74.92     63.48     -0.00      0.01      1.18 
   296.70     17.59     74.92     63.48     -0.00      0.02      1.18 
   296.71     17.59     74.92     63.48     -0.00      0.02      1.18 
   296.72     17.59     74.91     63.48     -0.00      0.01      0.76 
   296.73     17.59     74.91     63.48     -0.00      0.01      0.76 
   296.74     17.59     74.91     63.48     -0.00      0.01      0.76 
   296.75     17.59     74.91     63.48     -0.00      0.01      0.76 
   296.76     17.59     74.92     63.48     -0.01      0.02      0.76 
   296.77     17.59     74.92     63.48     -0.01      0.02      0.76 
   296.78     17.59     74.92     63.48     -0.01      0.02      0.76 
   296.79     17.59     74.92     63.48     -0.00      0.02      1.18 
   296.80     17.59     74.92     63.48     -0.00      0.01      1.18 
   296.81     17.59     74.91     63.48     -0.00      0.01      1.24 
   296.82     17.59     74.91     63.48     -0.00      0.01      1.24 
   296.83     17.59     74.91     63.48     -0.00      0.02      1.24 
   296.84     17.59     74.90     63.48     -0.00      0.02      1.24 
   296.85     17.60     74.89     63.48     -0.00      0.01      1.24 
   296.86     17.60     74.90     63.48     -0.00      0.01      0.82 
   296.87     17.60     74.89     63.48     -0.00      0.01      0.82 
   296.88     17.60     74.89     63.48     -0.00      0.02      1.24 
   296.89     17.60     74.90     63.48     -0.00      0.02      1.24 
   296.90     17.60     74.90     63.48     -0.00      0.02      1.24 
   296.91     17.59     74.90     63.48     -0.00      0.02      1.65 
   296.92     17.59     74.91     63.49     -0.00      0.02      1.65 
   296.93     17.59     74.91     63.48     -0.00      0.02      2.00 
   296.94     17.59     74.91     63.48     -0.00      0.02      2.00 
   296.95     17.59     74.91     63.49     -0.00      0.02      2.00 
   296.96     17.59     74.91     63.49     -0.00      0.02      1.59 
   296.97     17.60     74.90     63.48     -0.00      0.01      1.59 
   296.98     17.60     74.90     63.49      0.00      0.01      1.18 
   296.99     17.60     74.89     63.49      0.00      0.00      1.59 
   297.00     17.60     74.89     63.48      0.00     -0.00      1.59 
   297.01     17.60     74.89     63.49      0.00      0.01      1.59 
   297.02     17.60     74.88     63.49     -0.00      0.01      1.59 
   297.03     17.61     74.87     63.48     -0.00      0.01      1.59 
   297.04     17.61     74.88     63.49     -0.00      0.02      1.59 
   297.05     17.60     74.88     63.49     -0.00      0.02      1.18 
   297.06     17.60     74.89     63.49     -0.00      0.02      1.18 
   297.07     17.60     74.89     63.49     -0.00      0.02      1.18 
   297.08     17.60     74.89     63.48     -0.00      0.02      0.76 
   297.09     17.60     74.89     63.48     -0.01      0.03      0.76 
   297.10     17.60     74.89     63.48     -0.01      0.03      0.41 
   297.11     17.60     74.89     63.48     -0.00      0.01      0.41 
   297.12     17.60     74.88     63.48     -0.00      0.00      0.41 
   297.13     17.60     74.88     63.48      0.00     -0.00      0.41 
   297.14     17.60     74.88     63.48      0.01     -0.01      0.41 
   297.15     17.60     74.88     63.48      0.01     -0.03      0.41 
   297.16     17.60     74.88     63.48      0.01     -0.03      0.00 
   297.17     17.61     74.87     63.48      0.01     -0.04      0.35 
   297.18     17.61     74.86     63.48      0.01     -0.04      1.06 
   297.19     17.61     74.87     63.49      0.01     -0.03      1.06 
   297.20     17.61     74.87     63.48      0.01     -0.04      1.06 
   297.21     17.61     74.87     63.48      0.01     -0.04      1.06 
   297.22     17.60     74.88     63.49      0.01     -0.03      1.06 
   297.23     17.60     74.89     63.49      0.01     -0.02      1.88 
   297.24     17.60     74.89     63.48      0.01     -0.03      1.88 
   297.25     17.60     74.90     63.49      0.01     -0.02      1.88 
   297.26     17.60     74.90     63.49      0.01     -0.02      1.88 
   297.27     17.60     74.90     63.48      0.01     -0.02      1.88 
   297.28     17.60     74.90     63.49      0.01     -0.01      2.29 
   297.29     17.60     74.90     63.49      0.00     -0.01      2.29 
   297.30     17.60     74.90     63.48      0.00     -0.00      2.71 
   297.31     17.60     74.90     63.49      0.00      0.01      2.71 
   297.32     17.60     74.90     63.49     -0.00      0.01      2.71 
   297.33     17.60     74.90     63.49     -0.00      0.02      2.71 
   297.34     17.60     74.89     63.49     -0.00      0.01      2.35 
   297.35     17.60     74.90     63.49     -0.01      0.02      1.65 
   297.36     17.60     74.90     63.49     -0.01      0.03      1.65 
   297.37     17.60     74.90     63.49     -0.01      0.04      1.65 
   297.38     17.59     74.91     63.49     -0.01      0.04      1.65 
   297.39     17.59     74.92     63.49     -0.01      0.04      2.06 
   297.40     17.59     74.92     63.49     -0.01      0.04      1.59 
   297.41     17.59     74.92     63.49     -0.01      0.03      2.00 
   297.42     17.59     74.92     63.48     -0.00      0.01      2.00 
   297.43     17.59     74.92     63.49     -0.00      0.02      2.00 
   297.44     17.59     74.92     63.48     -0.00      0.01      2.00 
   297.45     17.59     74.92     63.48      0.00      0.00      1.94 
   297.46     17.59     74.93     63.49      0.00     -0.00      2.35 
