#Written by Robertson Geologging WinLogger V1.0/370
~VERSION INFORMATION
#------------------------------------------------------------------------------
 VERS. 2.0 : CWLS LOG ASCII STANDARD - VERSION 2.0
 WRAP. NO  : ONE LINE PER DEPTH STEP
~WELL INFORMATION
#MNEM.UNIT         DATA                                DESCRIPTION OF MNEMONIC
#------------------------------------------------------------------------------
 STRT.M         72.0100                            :   START DEPTH
 STOP.M        461.6800                            :   STOP DEPTH
 STEP.M          0.0100                            :   STEP VALUE
 NULL.        -999.2500                            :   NULL VALUE
 COMP.    White Young Gteen                        :   COMPANY NAME
 WELL.    Easington  Shaft                         :   WELL NAME
 FLD.     Easington                                :   FIELD NAME
 LOC.     N/A                                      :   LOCATION
 PROV.    N/A                                      :   PROVINCE
 SRVC.    N/A                                      :   SERVICE COMPANY NAME
 DATE.    04 Oct 05                                :   DATE
 UWI.     N/A                                      :   UNIQUE WELL IDENTIFIER
~PARAMETER INFORMATION
#MNEMO.UNIT         VALUE                 DESCRIPTION OF MNEMONIC
#------------------------------------------------------------------------------
~OTHER INFORMATION SECTION
#------------------------------------------------------------------------------
 TCGS1365
~CURVE INFORMATION
#MNEMO.UNIT         API CODE              CURVE DESCRIPTION
#------------------------------------------------------------------------------
 DEPTH.M                                 :   0     Depth
 TEMP.DegC                               :   1     Temperature
 CN25.mS/cm                              :   2     Conductivity@25DegC
 COND.mS/cm                              :   3     Conductivity
 DELT.DegC                               :   4     Delta T
 DELC.mS/cm                              :   5     Delta C
 NGAM.CPS                                :   6     Natural Gamma
#------------------------------------------------------------------------------
~A  DEPTH     TEMP      CN25      COND      DELT      DELC      NGAM      
# ...
   434.74     18.42     90.95     79.49      0.05      0.02      1.65 
   434.75     18.42     90.95     79.49      0.06      0.01      2.47 
   434.76     18.42     90.95     79.49      0.06      0.00      3.29 
   434.77     18.42     90.97     79.50      0.06      0.00      3.71 
   434.78     18.42     90.99     79.50      0.05      0.02      2.88 
   434.79     18.41     90.99     79.50      0.05      0.03      2.47 
   434.80     18.41     91.00     79.50      0.04      0.04      2.47 
   434.81     18.41     91.01     79.50      0.04      0.05      2.47 
   434.82     18.41     91.01     79.50      0.04      0.06      2.06 
   434.83     18.41     91.01     79.50      0.04      0.07      2.47 
   434.84     18.41     91.02     79.50      0.03      0.08      2.47 
   434.85     18.40     91.02     79.50      0.03      0.09      2.88 
   434.86     18.40     91.04     79.50      0.02      0.11      2.88 
   434.87     18.40     91.05     79.51      0.01      0.14      3.29 
   434.88     18.40     91.06     79.51      0.01      0.16      3.29 
   434.89     18.40     91.05     79.50      0.00      0.17      3.29 
   434.90     18.40     91.06     79.51      0.00      0.17      3.29 
   434.91     18.40     91.06     79.51      0.00      0.18      3.29 
   434.92     18.40     91.06     79.51      0.01      0.16      2.47 
   434.93     18.40     91.06     79.52      0.01      0.16      1.65 
   434.94     18.40     91.05     79.52      0.01      0.15      1.24 
   434.95     18.40     91.05     79.52      0.02      0.13      1.24 
   434.96     18.41     91.04     79.52      0.02      0.12      1.71 
   434.97     18.41     91.03     79.52      0.03      0.10      1.71 
   434.98     18.41     91.03     79.52      0.03      0.08      2.12 
   434.99     18.41     91.02     79.52      0.04      0.06      2.12 
   435.00     18.42     91.01     79.52      0.04      0.04      1.71 
   435.01     18.42     91.01     79.53      0.05      0.02      1.71 
   435.02     18.42     90.99     79.53      0.05      0.00      2.53 
   435.03     18.42     90.99     79.53      0.06     -0.01      2.53 
   435.04     18.43     90.98     79.53      0.06     -0.02      2.53 
   435.05     18.43     90.97     79.53      0.06     -0.03      2.53 
   435.06     18.43     90.97     79.53      0.06     -0.02      2.53 
   435.07     18.43     90.97     79.53      0.06     -0.02      2.53 
   435.08     18.43     90.98     79.53      0.05     -0.00      2.53 
   435.09     18.43     90.98     79.53      0.05     -0.01      2.53 
   435.10     18.43     90.97     79.53      0.06     -0.03      2.53 
   435.11     18.44     90.95     79.53      0.06     -0.03      2.53 
   435.12     18.44     90.94     79.53      0.06     -0.05      2.53 
   435.13     18.44     90.94     79.54      0.06     -0.04      3.71 
   435.14     18.45     90.92     79.54      0.06     -0.05      3.71 
   435.15     18.45     90.93     79.54      0.06     -0.04      3.29 
   435.16     18.45     90.93     79.54      0.06     -0.03      3.71 
   435.17     18.45     90.93     79.54      0.05     -0.02      3.71 
   435.18     18.45     90.94     79.54      0.05     -0.00      3.71 
   435.19     18.45     90.94     79.55      0.05      0.01      3.29 
   435.20     18.45     90.94     79.55      0.04      0.02      3.29 
   435.21     18.44     90.96     79.55      0.03      0.05      2.88 
   435.22     18.44     90.98     79.55      0.03      0.07      4.12 
   435.23     18.43     91.00     79.55      0.02      0.10      4.12 
   435.24     18.43     91.01     79.55      0.01      0.11      4.12 
   435.25     18.42     91.02     79.55      0.01      0.12      4.94 
   435.26     18.42     91.02     79.55      0.01      0.13      4.94 
   435.27     18.43     91.02     79.55      0.01      0.11      4.94 
   435.28     18.43     91.02     79.56      0.02      0.09      4.94 
   435.29     18.43     91.01     79.56      0.03      0.07      5.35 
   435.30     18.43     90.99     79.56      0.04      0.03      4.94 
   435.31     18.44     90.98     79.56      0.04      0.01      4.94 
   435.32     18.44     90.97     79.56      0.05     -0.00      4.94 
   435.33     18.45     90.95     79.56      0.05     -0.02      4.94 
   435.34     18.45     90.94     79.56      0.06     -0.05      4.94 
   435.35     18.45     90.94     79.56      0.06     -0.06      4.94 
   435.36     18.45     90.93     79.56      0.06     -0.07      4.12 
   435.37     18.46     90.93     79.56      0.07     -0.08      4.12 
   435.38     18.46     90.93     79.57      0.07     -0.08      4.12 
   435.39     18.46     90.92     79.57      0.07     -0.08      2.88 
   435.40     18.46     90.91     79.57      0.07     -0.09      3.71 
   435.41     18.47     90.90     79.57      0.07     -0.09      4.12 
   435.42     18.47     90.89     79.57      0.07     -0.08      3.71 
   435.43     18.47     90.90     79.57      0.07     -0.08      4.12 
   435.44     18.47     90.90     79.57      0.06     -0.07      4.12 
   435.45     18.47     90.90     79.57      0.06     -0.07      4.12 
   435.46     18.47     90.91     79.57      0.06     -0.07      4.12 
   435.47     18.47     90.91     79.58      0.06     -0.06      3.35 
   435.48     18.47     90.91     79.58      0.06     -0.05      3.35 
   435.49     18.46     90.92     79.58      0.05     -0.03      3.35 
   435.50     18.46     90.92     79.58      0.05     -0.01      3.35 
   435.51     18.46     90.93     79.58      0.04      0.01      3.76 
   435.52     18.46     90.95     79.58      0.04      0.02      3.76 
   435.53     18.45     90.97     79.59      0.04      0.03      3.76 
   435.54     18.45     90.97     79.59      0.04      0.03      3.76 
   435.55     18.45     90.97     79.59      0.04      0.02      3.76 
   435.56     18.45     90.97     79.59      0.04      0.00      3.76 
   435.57     18.45     90.96     79.59      0.04     -0.01      2.94 
   435.58     18.45     90.96     79.59      0.05     -0.01      2.53 
   435.59     18.45     90.97     79.59      0.04     -0.01      2.53 
   435.60     18.45     90.98     79.59      0.05     -0.01      2.53 
   435.61     18.44     91.00     79.59      0.05     -0.02      2.53 
   435.62     18.44     91.00     79.59      0.04     -0.01      2.53 
   435.63     18.44     91.01     79.59      0.04     -0.01      2.12 
   435.64     18.44     91.01     79.59      0.04     -0.01      2.12 
   435.65     18.45     91.00     79.60      0.04      0.01      2.53 
   435.66     18.45     90.99     79.60      0.03      0.02      2.53 
   435.67     18.45     90.99     79.60      0.03      0.03      2.53 
   435.68     18.45     90.99     79.60      0.03      0.04      2.12 
   435.69     18.45     90.98     79.60      0.03      0.03      2.12 
   435.70     18.46     90.96     79.60      0.04      0.00      2.12 
   435.71     18.46     90.94     79.60      0.04     -0.01      2.12 
   435.72     18.47     90.93     79.60      0.05     -0.02      2.12 
   435.73     18.47     90.91     79.60      0.05     -0.04      2.12 
   435.74     18.48     90.90     79.60      0.05     -0.05      2.94 
   435.75     18.48     90.89     79.60      0.06     -0.06      2.94 
   435.76     18.48     90.90     79.60      0.06     -0.07      2.94 
   435.77     18.48     90.90     79.60      0.06     -0.08      2.53 
   435.78     18.47     90.92     79.61      0.06     -0.07      2.53 
   435.79     18.47     90.93     79.61      0.06     -0.07      2.94 
   435.80     18.47     90.93     79.61      0.06     -0.07      2.94 
   435.81     18.47     90.95     79.61      0.06     -0.05      2.47 
   435.82     18.47     90.95     79.61      0.06     -0.06      2.53 
   435.83     18.47     90.95     79.61      0.06     -0.06      2.53 
   435.84     18.47     90.95     79.61      0.06     -0.07      2.53 
   435.85     18.47     90.95     79.61      0.07     -0.09      2.53 
   435.86     18.47     90.95     79.62      0.07     -0.10      2.53 
