#Written by Robertson Geologging WinLogger V1.0/370
~VERSION INFORMATION
#------------------------------------------------------------------------------
 VERS. 2.0 : CWLS LOG ASCII STANDARD - VERSION 2.0
 WRAP. NO  : ONE LINE PER DEPTH STEP
~WELL INFORMATION
#MNEM.UNIT         DATA                                DESCRIPTION OF MNEMONIC
#------------------------------------------------------------------------------
 STRT.M         72.0100                            :   START DEPTH
 STOP.M        461.6800                            :   STOP DEPTH
 STEP.M          0.0100                            :   STEP VALUE
 NULL.        -999.2500                            :   NULL VALUE
 COMP.    White Young Gteen                        :   COMPANY NAME
 WELL.    Easington  Shaft                         :   WELL NAME
 FLD.     Easington                                :   FIELD NAME
 LOC.     N/A                                      :   LOCATION
 PROV.    N/A                                      :   PROVINCE
 SRVC.    N/A                                      :   SERVICE COMPANY NAME
 DATE.    04 Oct 05                                :   DATE
 UWI.     N/A                                      :   UNIQUE WELL IDENTIFIER
~PARAMETER INFORMATION
#MNEMO.UNIT         VALUE                 DESCRIPTION OF MNEMONIC
#------------------------------------------------------------------------------
~OTHER INFORMATION SECTION
#------------------------------------------------------------------------------
 TCGS1365
~CURVE INFORMATION
#MNEMO.UNIT         API CODE              CURVE DESCRIPTION
#------------------------------------------------------------------------------
 DEPTH.M                                 :   0     Depth
 TEMP.DegC                               :   1     Temperature
 CN25.mS/cm                              :   2     Conductivity@25DegC
 COND.mS/cm                              :   3     Conductivity
 DELT.DegC                               :   4     Delta T
 DELC.mS/cm                              :   5     Delta C
 NGAM.CPS                                :   6     Natural Gamma
#------------------------------------------------------------------------------
~A  DEPTH     TEMP      CN25      COND      DELT      DELC      NGAM      
# ...
   149.98     12.09     10.67      3.31      0.01     -0.01      0.00 
   149.99     12.09     10.67      3.31      0.00     -0.00      0.00 
   150.00     12.09     10.67      3.31      0.00     -0.00      0.00 
   150.01     12.10     10.67      3.31      0.01     -0.01      0.00 
   150.02     12.10     10.66      3.31      0.01     -0.01      0.41 
   150.03     12.10     10.66      3.31      0.01     -0.02      0.41 
   150.04     12.10     10.66      3.31      0.02     -0.01      0.41 
   150.05     12.10     10.67      3.31      0.01     -0.01      0.41 
   150.06     12.10     10.66      3.31      0.01     -0.01      0.41 
   150.07     12.09     10.67      3.31      0.01     -0.01      0.41 
   150.08     12.09     10.67      3.31      0.00     -0.00      0.41 
   150.09     12.09     10.67      3.31      0.00     -0.00      0.41 
   150.10     12.10     10.67      3.31      0.01     -0.01      0.41 
   150.11     12.10     10.67      3.31      0.01     -0.01      0.41 
   150.12     12.10     10.67      3.31      0.01     -0.01      0.41 
   150.13     12.09     10.67      3.31      0.00     -0.00      0.41 
   150.14     12.09     10.67      3.31     -0.00     -0.00      0.41 
   150.15     12.09     10.68      3.31     -0.00      0.01      0.41 
   150.16     12.09     10.68      3.31     -0.01      0.01      0.41 
   150.17     12.09     10.68      3.31     -0.01      0.01      0.41 
   150.18     12.08     10.68      3.31     -0.01      0.01      0.41 
   150.19     12.08     10.68      3.31     -0.01      0.01      0.00 
   150.20     12.08     10.68      3.31     -0.01      0.02      0.00 
   150.21     12.08     10.68      3.31     -0.01      0.01      0.00 
   150.22     12.08     10.69      3.31     -0.01      0.02      0.00 
   150.23     12.08     10.69      3.31     -0.01      0.01      0.00 
   150.24     12.08     10.69      3.31     -0.01      0.01      0.00 
   150.25     12.08     10.68      3.31     -0.01      0.02      0.00 
   150.26     12.08     10.68      3.31     -0.01      0.01      0.00 
   150.27     12.09     10.68      3.31     -0.01      0.01      0.00 
   150.28     12.09     10.68      3.31     -0.01      0.01      0.00 
   150.29     12.09     10.68      3.31     -0.01      0.01      0.00 
   150.30     12.09     10.68      3.31     -0.01      0.01      0.00 
   150.31     12.08     10.68      3.31     -0.01      0.01      0.00 
   150.32     12.08     10.68      3.31     -0.01      0.01      0.00 
   150.33     12.08     10.68      3.31     -0.01      0.01      0.00 
   150.34     12.09     10.68      3.31     -0.01      0.00      0.00 
   150.35     12.09     10.68      3.31     -0.00      0.00      0.00 
   150.36     12.09     10.68      3.31      0.00     -0.00      0.00 
   150.37     12.09     10.67      3.31      0.00     -0.01      0.00 
   150.38     12.09     10.67      3.31      0.01     -0.01      0.00 
   150.39     12.09     10.67      3.31      0.01     -0.01      0.00 
   150.40     12.09     10.67      3.31      0.01     -0.01      0.00 
   150.41     12.09     10.67      3.31      0.01     -0.01      0.00 
   150.42     12.09     10.67      3.31      0.01     -0.01      0.00 
   150.43     12.09     10.67      3.31      0.02     -0.01      0.00 
   150.44     12.09     10.67      3.31      0.02     -0.02      0.00 
   150.45     12.09     10.68      3.31      0.01     -0.01      0.00 
   150.46     12.09     10.68      3.31      0.01     -0.01      0.00 
   150.47     12.09     10.68      3.31      0.01     -0.01      0.00 
   150.48     12.09     10.68      3.31      0.01     -0.00      0.00 
   150.49     12.09     10.68      3.31      0.01     -0.01      0.00 
   150.50     12.09     10.68      3.31      0.01     -0.01      0.00 
   150.51     12.09     10.67      3.31      0.01     -0.00      0.00 
   150.52     12.09     10.67      3.31      0.00     -0.00      0.00 
   150.53     12.09     10.67      3.31      0.00     -0.00      0.00 
   150.54     12.09     10.67      3.31      0.00     -0.00      0.00 
   150.55     12.09     10.67      3.31      0.00     -0.00      0.00 
   150.56     12.09     10.67      3.31      0.00      0.00      0.00 
   150.57     12.09     10.67      3.31     -0.00      0.00      0.00 
   150.58     12.09     10.67      3.31     -0.00      0.01      0.00 
   150.59     12.09     10.67      3.31     -0.00      0.00      0.00 
   150.60     12.09     10.67      3.31     -0.00      0.00      0.00 
   150.61     12.09     10.67      3.31     -0.00      0.01      0.00 
   150.62     12.09     10.67      3.31     -0.00      0.00      0.00 
   150.63     12.09     10.67      3.31     -0.00     -0.00      0.00 
   150.64     12.09     10.67      3.31      0.00      0.00      0.00 
   150.65     12.09     10.67      3.31      0.00     -0.00      0.00 
   150.66     12.09     10.67      3.31      0.00      0.00      0.00 
   150.67     12.09     10.68      3.31      0.00      0.00      0.00 
   150.68     12.09     10.67      3.31      0.00     -0.00      0.00 
   150.69     12.09     10.68      3.31     -0.00     -0.00      0.00 
   150.70     12.09     10.68      3.31      0.00     -0.00      0.00 
   150.71     12.09     10.68      3.31      0.00      0.00      0.00 
   150.72     12.09     10.68      3.31      0.00     -0.00      0.00 
   150.73     12.09     10.67      3.31      0.00     -0.01      0.00 
   150.74     12.09     10.67      3.31      0.00     -0.00      0.00 
   150.75     12.09     10.67      3.31      0.00     -0.01      0.00 
   150.76     12.10     10.67      3.31      0.01     -0.01      0.00 
   150.77     12.10     10.67      3.31      0.01     -0.01      0.00 
   150.78     12.10     10.67      3.31      0.01     -0.01      0.00 
   150.79     12.10     10.67      3.31      0.01     -0.01      0.00 
   150.80     12.10     10.67      3.31      0.01     -0.01      0.00 
   150.81     12.10     10.67      3.31      0.01     -0.01      0.00 
   150.82     12.10     10.67      3.31      0.01     -0.01      0.41 
   150.83     12.10     10.67      3.31      0.01     -0.01      0.76 
   150.84     12.09     10.67      3.31      0.01     -0.00      0.76 
   150.85     12.09     10.67      3.31      0.00     -0.00      0.76 
   150.86     12.09     10.67      3.31      0.00     -0.00      0.76 
   150.87     12.09     10.67      3.31      0.00      0.00      0.76 
   150.88     12.09     10.68      3.31      0.00      0.00      0.76 
   150.89     12.09     10.68      3.31      0.00     -0.00      0.76 
   150.90     12.09     10.68      3.31      0.00     -0.00      0.76 
   150.91     12.09     10.68      3.31      0.00     -0.00      0.76 
   150.92     12.09     10.68      3.31      0.00      0.00      1.18 
   150.93     12.09     10.68      3.31     -0.00      0.00      1.18 
   150.94     12.09     10.68      3.31     -0.00      0.00      1.18 
   150.95     12.09     10.68      3.31     -0.00      0.00      1.18 
   150.96     12.09     10.67      3.31     -0.00      0.00      1.18 
   150.97     12.09     10.68      3.31     -0.00      0.01      1.18 
   150.98     12.09     10.68      3.31     -0.00      0.00      1.18 
   150.99     12.09     10.67      3.31     -0.00     -0.00      0.76 
   151.00     12.09     10.67      3.31     -0.01      0.01      0.41 
   151.01     12.09     10.67      3.31     -0.01      0.01      0.41 
   151.02     12.09     10.67      3.31     -0.01      0.01      0.41 
   151.03     12.09     10.67      3.31     -0.01      0.01      0.41 
   151.04     12.09     10.67      3.31     -0.01      0.00      0.41 
   151.05     12.09     10.67      3.31     -0.00      0.01      0.41 
   151.06     12.09     10.67      3.31     -0.00      0.00      0.41 
   151.07     12.09     10.67      3.31     -0.00      0.00      0.41 
   151.08     12.09     10.67      3.31     -0.00      0.00      0.41 
   151.09     12.09     10.67      3.31     -0.00      0.00      0.00 
   151.10     12.09     10.67      3.31     -0.00      0.01      0.00 
