#Written by Robertson Geologging WinLogger V1.0/370
~VERSION INFORMATION
#------------------------------------------------------------------------------
 VERS. 2.0 : CWLS LOG ASCII STANDARD - VERSION 2.0
 WRAP. NO  : ONE LINE PER DEPTH STEP
~WELL INFORMATION
#MNEM.UNIT         DATA                                DESCRIPTION OF MNEMONIC
#------------------------------------------------------------------------------
 STRT.M         72.0100                            :   START DEPTH
 STOP.M        461.6800                            :   STOP DEPTH
 STEP.M          0.0100                            :   STEP VALUE
 NULL.        -999.2500                            :   NULL VALUE
 COMP.    White Young Gteen                        :   COMPANY NAME
 WELL.    Easington  Shaft                         :   WELL NAME
 FLD.     Easington                                :   FIELD NAME
 LOC.     N/A                                      :   LOCATION
 PROV.    N/A                                      :   PROVINCE
 SRVC.    N/A                                      :   SERVICE COMPANY NAME
 DATE.    04 Oct 05                                :   DATE
 UWI.     N/A                                      :   UNIQUE WELL IDENTIFIER
~PARAMETER INFORMATION
#MNEMO.UNIT         VALUE                 DESCRIPTION OF MNEMONIC
#------------------------------------------------------------------------------
~OTHER INFORMATION SECTION
#------------------------------------------------------------------------------
 TCGS1365
~CURVE INFORMATION
#MNEMO.UNIT         API CODE              CURVE DESCRIPTION
#------------------------------------------------------------------------------
 DEPTH.M                                 :   0     Depth
 TEMP.DegC                               :   1     Temperature
 CN25.mS/cm                              :   2     Conductivity@25DegC
 COND.mS/cm                              :   3     Conductivity
 DELT.DegC                               :   4     Delta T
 DELC.mS/cm                              :   5     Delta C
 NGAM.CPS                                :   6     Natural Gamma
#------------------------------------------------------------------------------
~A  DEPTH     TEMP      CN25      COND      DELT      DELC      NGAM      
# ...
   175.97     12.14     10.73      3.39      0.04      0.05      0.82 
   175.98     12.14     10.73      3.40      0.04      0.05      0.82 
   175.99     12.15     10.73      3.40      0.04      0.05      0.82 
   176.00     12.15     10.73      3.40      0.05      0.04      0.82 
   176.01     12.15     10.73      3.40      0.05      0.04      0.82 
   176.02     12.15     10.73      3.40      0.05      0.04      0.82 
   176.03     12.15     10.73      3.40      0.05      0.04      0.82 
   176.04     12.15     10.73      3.40      0.05      0.03      1.24 
   176.05     12.15     10.73      3.40      0.05      0.03      0.82 
   176.06     12.15     10.73      3.40      0.06      0.03      0.82 
   176.07     12.15     10.73      3.40      0.06      0.03      0.82 
   176.08     12.15     10.73      3.40      0.06      0.03      0.82 
   176.09     12.16     10.73      3.40      0.06      0.03      0.82 
   176.10     12.16     10.73      3.40      0.06      0.02      0.82 
   176.11     12.16     10.73      3.40      0.06      0.03      1.24 
   176.12     12.16     10.74      3.41      0.05      0.03      0.82 
   176.13     12.15     10.73      3.40      0.05      0.03      0.82 
   176.14     12.15     10.73      3.40      0.05      0.03      0.82 
   176.15     12.15     10.74      3.41      0.05      0.04      0.82 
   176.16     12.15     10.74      3.41      0.05      0.04      0.82 
   176.17     12.15     10.74      3.41      0.05      0.04      0.82 
   176.18     12.15     10.74      3.41      0.05      0.04      0.82 
   176.19     12.15     10.74      3.41      0.05      0.04      1.29 
   176.20     12.15     10.74      3.41      0.04      0.04      1.29 
   176.21     12.15     10.75      3.41      0.04      0.05      0.88 
   176.22     12.15     10.75      3.42      0.04      0.05      0.88 
   176.23     12.15     10.75      3.41      0.04      0.04      0.88 
   176.24     12.15     10.75      3.42      0.05      0.05      0.88 
   176.25     12.16     10.75      3.42      0.05      0.04      0.88 
   176.26     12.16     10.74      3.42      0.05      0.04      0.88 
   176.27     12.16     10.74      3.42      0.05      0.04      1.29 
   176.28     12.16     10.74      3.42      0.05      0.03      0.88 
   176.29     12.16     10.75      3.42      0.05      0.04      0.88 
   176.30     12.16     10.75      3.42      0.05      0.04      0.88 
   176.31     12.16     10.75      3.42      0.05      0.04      0.88 
   176.32     12.16     10.75      3.42      0.05      0.04      0.88 
   176.33     12.16     10.74      3.42      0.05      0.04      0.88 
   176.34     12.16     10.75      3.42      0.05      0.04      0.88 
   176.35     12.16     10.75      3.42      0.05      0.04      0.88 
   176.36     12.16     10.75      3.42      0.05      0.03      0.41 
   176.37     12.16     10.75      3.43      0.05      0.04      0.41 
   176.38     12.16     10.75      3.42      0.05      0.04      0.41 
   176.39     12.16     10.75      3.43      0.05      0.04      0.41 
   176.40     12.17     10.75      3.43      0.06      0.03      0.41 
   176.41     12.17     10.75      3.43      0.06      0.03      0.41 
   176.42     12.17     10.75      3.43      0.06      0.03      0.41 
   176.43     12.17     10.75      3.43      0.06      0.03      0.41 
   176.44     12.17     10.75      3.43      0.06      0.03      0.47 
   176.45     12.17     10.75      3.43      0.06      0.03      0.47 
   176.46     12.17     10.75      3.43      0.06      0.03      0.47 
   176.47     12.17     10.75      3.43      0.06      0.03      0.94 
   176.48     12.17     10.75      3.43      0.06      0.03      0.94 
   176.49     12.17     10.76      3.44      0.06      0.03      0.94 
   176.50     12.17     10.76      3.44      0.06      0.03      0.94 
   176.51     12.17     10.75      3.44      0.06      0.03      0.94 
   176.52     12.17     10.76      3.44      0.06      0.04      0.94 
   176.53     12.17     10.76      3.44      0.06      0.04      0.94 
   176.54     12.17     10.76      3.44      0.05      0.04      1.41 
   176.55     12.17     10.76      3.44      0.05      0.04      1.41 
   176.56     12.17     10.76      3.44      0.05      0.05      1.41 
   176.57     12.17     10.76      3.44      0.05      0.05      1.41 
   176.58     12.17     10.77      3.44      0.05      0.05      1.41 
   176.59     12.17     10.76      3.44      0.05      0.05      1.41 
   176.60     12.17     10.77      3.45      0.05      0.05      1.41 
   176.61     12.17     10.77      3.44      0.05      0.04      0.94 
   176.62     12.17     10.77      3.45      0.05      0.05      0.94 
   176.63     12.17     10.77      3.45      0.05      0.04      0.94 
   176.64     12.18     10.76      3.45      0.06      0.04      0.88 
   176.65     12.18     10.77      3.45      0.06      0.04      0.88 
   176.66     12.18     10.77      3.45      0.06      0.04      0.88 
   176.67     12.18     10.77      3.45      0.06      0.04      0.88 
   176.68     12.18     10.77      3.45      0.06      0.04      0.88 
   176.69     12.18     10.77      3.45      0.06      0.04      0.88 
   176.70     12.18     10.77      3.45      0.05      0.04      0.88 
   176.71     12.18     10.77      3.46      0.05      0.05      0.41 
   176.72     12.18     10.77      3.46      0.05      0.05      0.41 
   176.73     12.18     10.77      3.46      0.05      0.05      0.41 
   176.74     12.18     10.77      3.46      0.05      0.05      0.41 
   176.75     12.18     10.77      3.46      0.05      0.05      0.41 
   176.76     12.18     10.77      3.46      0.04      0.06      0.41 
   176.77     12.18     10.78      3.46      0.04      0.06      0.41 
   176.78     12.18     10.77      3.46      0.04      0.05      0.41 
   176.79     12.18     10.78      3.46      0.04      0.06      0.41 
   176.80     12.18     10.78      3.46      0.04      0.06      0.82 
   176.81     12.18     10.78      3.46      0.04      0.06      0.41 
   176.82     12.18     10.78      3.46      0.04      0.06      0.41 
   176.83     12.19     10.78      3.47      0.04      0.06      0.41 
   176.84     12.19     10.78      3.47      0.04      0.06      0.41 
   176.85     12.19     10.78      3.46      0.04      0.06      0.41 
   176.86     12.19     10.78      3.47      0.05      0.06      0.41 
   176.87     12.19     10.78      3.47      0.05      0.05      0.41 
   176.88     12.19     10.78      3.47      0.05      0.05      0.41 
   176.89     12.20     10.78      3.47      0.05      0.05      0.41 
   176.90     12.20     10.78      3.47      0.06      0.05      0.41 
   176.91     12.20     10.77      3.47      0.06      0.05      0.41 
   176.92     12.20     10.77      3.47      0.06      0.05      0.41 
   176.93     12.20     10.77      3.47      0.05      0.04      0.41 
   176.94     12.20     10.78      3.47      0.05      0.05      0.41 
   176.95     12.20     10.78      3.47      0.05      0.05      0.41 
   176.96     12.20     10.78      3.48      0.05      0.05      0.41 
   176.97     12.20     10.78      3.48      0.05      0.05      0.00 
   176.98     12.19     10.79      3.48      0.05      0.05      0.00 
   176.99     12.19     10.79      3.48      0.04      0.06      0.00 
   177.00     12.19     10.80      3.48      0.04      0.07      0.00 
   177.01     12.19     10.80      3.48      0.04      0.07      0.00 
   177.02     12.19     10.80      3.48      0.04      0.07      0.00 
   177.03     12.19     10.80      3.48      0.04      0.07      0.00 
   177.04     12.19     10.80      3.49      0.04      0.07      0.00 
   177.05     12.19     10.80      3.49      0.04      0.07      0.00 
   177.06     12.19     10.80      3.49      0.04      0.07      0.00 
   177.07     12.20     10.80      3.49      0.04      0.07      0.00 
   177.08     12.20     10.80      3.49      0.04      0.07      0.00 
   177.09     12.20     10.80      3.49      0.04      0.07      0.00 
