#Written by Robertson Geologging WinLogger V1.0/370
~VERSION INFORMATION
#------------------------------------------------------------------------------
 VERS. 2.0 : CWLS LOG ASCII STANDARD - VERSION 2.0
 WRAP. NO  : ONE LINE PER DEPTH STEP
~WELL INFORMATION
#MNEM.UNIT         DATA                                DESCRIPTION OF MNEMONIC
#------------------------------------------------------------------------------
 STRT.M         72.0100                            :   START DEPTH
 STOP.M        461.6800                            :   STOP DEPTH
 STEP.M          0.0100                            :   STEP VALUE
 NULL.        -999.2500                            :   NULL VALUE
 COMP.    White Young Gteen                        :   COMPANY NAME
 WELL.    Easington  Shaft                         :   WELL NAME
 FLD.     Easington                                :   FIELD NAME
 LOC.     N/A                                      :   LOCATION
 PROV.    N/A                                      :   PROVINCE
 SRVC.    N/A                                      :   SERVICE COMPANY NAME
 DATE.    04 Oct 05                                :   DATE
 UWI.     N/A                                      :   UNIQUE WELL IDENTIFIER
~PARAMETER INFORMATION
#MNEMO.UNIT         VALUE                 DESCRIPTION OF MNEMONIC
#------------------------------------------------------------------------------
~OTHER INFORMATION SECTION
#------------------------------------------------------------------------------
 TCGS1365
~CURVE INFORMATION
#MNEMO.UNIT         API CODE              CURVE DESCRIPTION
#------------------------------------------------------------------------------
 DEPTH.M                                 :   0     Depth
 TEMP.DegC                               :   1     Temperature
 CN25.mS/cm                              :   2     Conductivity@25DegC
 COND.mS/cm                              :   3     Conductivity
 DELT.DegC                               :   4     Delta T
 DELC.mS/cm                              :   5     Delta C
 NGAM.CPS                                :   6     Natural Gamma
#------------------------------------------------------------------------------
~A  DEPTH     TEMP      CN25      COND      DELT      DELC      NGAM      
# ...
   227.95     16.98     74.02     61.24      0.01     -0.02      2.06 
   227.96     16.98     74.02     61.25      0.00     -0.00      2.06 
   227.97     16.98     74.03     61.25      0.00      0.00      2.06 
   227.98     16.98     74.03     61.25      0.00      0.00      1.65 
   227.99     16.98     74.03     61.25      0.00      0.00      1.65 
   228.00     16.98     74.03     61.25     -0.00      0.01      1.65 
   228.01     16.98     74.03     61.24     -0.00      0.01      2.06 
   228.02     16.98     74.03     61.24     -0.00      0.01      1.65 
   228.03     16.98     74.03     61.24     -0.00      0.01      2.06 
   228.04     16.98     74.03     61.25     -0.00      0.01      2.06 
   228.05     16.98     74.03     61.25      0.00      0.01      2.06 
   228.06     16.98     74.04     61.25      0.00      0.01      2.06 
   228.07     16.98     74.03     61.25      0.00      0.00      2.06 
   228.08     16.98     74.03     61.25      0.00      0.00      2.06 
   228.09     16.98     74.03     61.24      0.00      0.00      2.47 
   228.10     16.98     74.02     61.24     -0.00      0.01      1.65 
   228.11     16.98     74.02     61.24     -0.00      0.00      1.65 
   228.12     16.98     74.03     61.25     -0.00      0.01      1.24 
   228.13     16.98     74.03     61.25     -0.00      0.02      1.24 
   228.14     16.98     74.03     61.25     -0.00      0.02      1.24 
   228.15     16.98     74.04     61.25     -0.01      0.03      1.24 
   228.16     16.98     74.04     61.25     -0.01      0.04      1.24 
   228.17     16.98     74.04     61.25     -0.01      0.03      1.24 
   228.18     16.97     74.04     61.24     -0.01      0.02      0.82 
   228.19     16.98     74.03     61.24     -0.01      0.02      0.82 
   228.20     16.98     74.04     61.24     -0.00      0.01      0.41 
   228.21     16.98     74.04     61.24     -0.00      0.01      0.41 
   228.22     16.98     74.04     61.24     -0.00      0.01      0.41 
   228.23     16.98     74.04     61.24     -0.00      0.00      0.41 
   228.24     16.98     74.03     61.24     -0.00     -0.00      0.41 
   228.25     16.98     74.03     61.24      0.00     -0.01      0.82 
   228.26     16.98     74.02     61.24      0.00     -0.01      0.41 
   228.27     16.98     74.02     61.24      0.00     -0.01      0.41 
   228.28     16.98     74.01     61.24      0.01     -0.02      0.41 
   228.29     16.99     74.02     61.25      0.01     -0.01      0.41 
   228.30     16.99     74.02     61.25      0.01     -0.02      0.41 
   228.31     16.99     74.01     61.24      0.01     -0.02      0.41 
   228.32     16.99     74.01     61.24      0.01     -0.02      0.41 
   228.33     16.99     74.01     61.24      0.01     -0.01      0.41 
   228.34     16.99     74.01     61.24      0.01     -0.01      0.82 
   228.35     16.99     74.01     61.24      0.00     -0.01      0.82 
   228.36     16.98     74.01     61.24      0.00     -0.00      0.82 
   228.37     16.98     74.02     61.24      0.00      0.00      0.82 
   228.38     16.98     74.02     61.24     -0.00      0.01      0.82 
   228.39     16.98     74.03     61.24     -0.00      0.02      0.82 
   228.40     16.98     74.03     61.24     -0.01      0.02      0.82 
   228.41     16.98     74.04     61.24     -0.01      0.02      1.24 
   228.42     16.98     74.04     61.25     -0.01      0.03      0.82 
   228.43     16.98     74.04     61.25     -0.01      0.03      0.82 
   228.44     16.98     74.04     61.24     -0.01      0.02      0.82 
   228.45     16.98     74.04     61.24     -0.00      0.02      0.82 
   228.46     16.98     74.04     61.24     -0.00      0.01      0.82 
   228.47     16.98     74.04     61.24      0.00      0.01      0.82 
   228.48     16.98     74.04     61.24      0.00      0.00      1.24 
   228.49     16.98     74.04     61.24      0.00      0.00      1.65 
   228.50     16.98     74.04     61.24      0.00      0.00      1.65 
   228.51     16.98     74.04     61.24      0.00     -0.00      1.24 
   228.52     16.98     74.04     61.24      0.00     -0.00      1.24 
   228.53     16.98     74.04     61.24      0.01     -0.01      1.24 
   228.54     16.98     74.03     61.24      0.01     -0.01      1.24 
   228.55     16.98     74.03     61.24      0.00     -0.01      1.24 
   228.56     16.98     74.03     61.24      0.00     -0.01      1.24 
   228.57     16.98     74.03     61.24     -0.00      0.00      1.24 
   228.58     16.98     74.03     61.24     -0.00      0.01      0.82 
   228.59     16.98     74.03     61.24     -0.00      0.01      0.82 
   228.60     16.98     74.03     61.24     -0.00      0.00      0.82 
   228.61     16.98     74.03     61.24     -0.00      0.00      0.82 
   228.62     16.98     74.03     61.24     -0.00      0.01      0.82 
   228.63     16.98     74.03     61.24     -0.00      0.01      0.82 
   228.64     16.98     74.03     61.24     -0.01      0.02      0.82 
   228.65     16.98     74.04     61.24     -0.01      0.02      0.41 
   228.66     16.98     74.04     61.24     -0.01      0.03      0.00 
   228.67     16.98     74.04     61.25     -0.01      0.03      0.00 
   228.68     16.98     74.04     61.25     -0.01      0.02      0.00 
   228.69     16.98     74.04     61.25     -0.00      0.02      0.00 
   228.70     16.98     74.03     61.24     -0.00      0.00      0.41 
   228.71     16.98     74.02     61.24      0.00      0.00      0.82 
   228.72     16.98     74.02     61.24      0.00     -0.00      0.82 
   228.73     16.98     74.02     61.24      0.00     -0.01      0.82 
   228.74     16.98     74.02     61.24      0.00     -0.01      1.24 
   228.75     16.98     74.02     61.24      0.00     -0.01      1.65 
   228.76     16.98     74.02     61.24      0.00     -0.00      1.65 
   228.77     16.98     74.03     61.24     -0.00      0.01      1.65 
   228.78     16.98     74.04     61.24     -0.00      0.01      1.65 
   228.79     16.98     74.04     61.24     -0.00      0.01      1.65 
   228.80     16.98     74.04     61.24     -0.01      0.02      2.06 
   228.81     16.97     74.05     61.25     -0.01      0.03      2.06 
   228.82     16.97     74.05     61.25     -0.01      0.03      2.06 
   228.83     16.97     74.05     61.25     -0.01      0.03      2.06 
   228.84     16.97     74.05     61.25     -0.01      0.03      2.06 
   228.85     16.97     74.05     61.25     -0.01      0.04      2.06 
   228.86     16.97     74.05     61.25     -0.01      0.03      2.06 
   228.87     16.98     74.04     61.25     -0.01      0.03      1.65 
   228.88     16.98     74.04     61.25     -0.00      0.02      1.24 
   228.89     16.98     74.04     61.25     -0.00      0.01      1.24 
   228.90     16.98     74.04     61.25     -0.00      0.01      1.24 
   228.91     16.98     74.03     61.24     -0.00      0.01      0.82 
   228.92     16.98     74.03     61.24     -0.00      0.01      0.82 
   228.93     16.98     74.04     61.24     -0.01      0.02      0.82 
   228.94     16.98     74.03     61.24     -0.01      0.02      0.82 
   228.95     16.98     74.03     61.24     -0.00      0.01      1.24 
   228.96     16.98     74.03     61.24     -0.00      0.00      1.24 
   228.97     16.98     74.02     61.24     -0.00     -0.00      0.82 
   228.98     16.98     74.02     61.24      0.00     -0.01      0.82 
   228.99     16.98     74.02     61.24      0.00     -0.01      0.82 
   229.00     16.98     74.02     61.24      0.00     -0.01      0.82 
   229.01     16.98     74.02     61.24      0.00     -0.01      0.82 
   229.02     16.98     74.03     61.25      0.00     -0.00      0.82 
   229.03     16.98     74.03     61.25      0.00     -0.00      0.82 
   229.04     16.98     74.04     61.25      0.00      0.00      0.82 
   229.05     16.98     74.04     61.25      0.00      0.00      1.24 
   229.06     16.98     74.04     61.25     -0.00      0.01      1.24 
   229.07     16.98     74.04     61.25     -0.00      0.01      1.24 
