#Written by Robertson Geologging WinLogger V1.0/370
~VERSION INFORMATION
#------------------------------------------------------------------------------
 VERS. 2.0 : CWLS LOG ASCII STANDARD - VERSION 2.0
 WRAP. NO  : ONE LINE PER DEPTH STEP
~WELL INFORMATION
#MNEM.UNIT         DATA                                DESCRIPTION OF MNEMONIC
#------------------------------------------------------------------------------
 STRT.M         72.0100                            :   START DEPTH
 STOP.M        461.6800                            :   STOP DEPTH
 STEP.M          0.0100                            :   STEP VALUE
 NULL.        -999.2500                            :   NULL VALUE
 COMP.    White Young Gteen                        :   COMPANY NAME
 WELL.    Easington  Shaft                         :   WELL NAME
 FLD.     Easington                                :   FIELD NAME
 LOC.     N/A                                      :   LOCATION
 PROV.    N/A                                      :   PROVINCE
 SRVC.    N/A                                      :   SERVICE COMPANY NAME
 DATE.    04 Oct 05                                :   DATE
 UWI.     N/A                                      :   UNIQUE WELL IDENTIFIER
~PARAMETER INFORMATION
#MNEMO.UNIT         VALUE                 DESCRIPTION OF MNEMONIC
#------------------------------------------------------------------------------
~OTHER INFORMATION SECTION
#------------------------------------------------------------------------------
 TCGS1365
~CURVE INFORMATION
#MNEMO.UNIT         API CODE              CURVE DESCRIPTION
#------------------------------------------------------------------------------
 DEPTH.M                                 :   0     Depth
 TEMP.DegC                               :   1     Temperature
 CN25.mS/cm                              :   2     Conductivity@25DegC
 COND.mS/cm                              :   3     Conductivity
 DELT.DegC                               :   4     Delta T
 DELC.mS/cm                              :   5     Delta C
 NGAM.CPS                                :   6     Natural Gamma
#------------------------------------------------------------------------------
~A  DEPTH     TEMP      CN25      COND      DELT      DELC      NGAM      
# ...
   253.94     17.86     74.31     63.63      0.02     -0.06      0.00 
   253.95     17.86     74.31     63.62      0.02     -0.05      0.00 
   253.96     17.85     74.31     63.62      0.02     -0.04      0.00 
   253.97     17.85     74.32     63.62      0.01     -0.03      0.00 
   253.98     17.85     74.32     63.62      0.01     -0.02      0.00 
   253.99     17.85     74.33     63.62      0.00     -0.01      0.00 
   254.00     17.85     74.33     63.62      0.00     -0.00      0.00 
   254.01     17.85     74.34     63.63     -0.00      0.01      0.00 
   254.02     17.84     74.35     63.63     -0.01      0.03      0.00 
   254.03     17.84     74.36     63.63     -0.01      0.03      0.00 
   254.04     17.84     74.36     63.62     -0.01      0.03      0.00 
   254.05     17.84     74.36     63.62     -0.01      0.03      0.00 
   254.06     17.84     74.36     63.62     -0.01      0.03      0.41 
   254.07     17.84     74.37     63.62     -0.01      0.03      0.41 
   254.08     17.84     74.37     63.63     -0.00      0.03      0.41 
   254.09     17.84     74.37     63.62     -0.00      0.01      0.41 
   254.10     17.84     74.36     63.62      0.00     -0.00      0.41 
   254.11     17.84     74.36     63.63      0.01     -0.01      0.41 
   254.12     17.84     74.36     63.63      0.01     -0.01      0.41 
   254.13     17.84     74.35     63.63      0.01     -0.02      0.41 
   254.14     17.84     74.34     63.62      0.01     -0.02      0.41 
   254.15     17.85     74.34     63.63      0.01     -0.01      0.41 
   254.16     17.85     74.34     63.63      0.00     -0.00      0.41 
   254.17     17.85     74.34     63.62      0.01     -0.01      0.41 
   254.18     17.85     74.33     63.62      0.01     -0.02      0.41 
   254.19     17.85     74.33     63.62      0.01     -0.02      0.41 
   254.20     17.85     74.34     63.63      0.01     -0.01      0.41 
   254.21     17.85     74.33     63.62      0.00     -0.01      0.41 
   254.22     17.85     74.34     63.62      0.00     -0.00      0.41 
   254.23     17.84     74.34     63.62      0.00      0.00      0.00 
   254.24     17.84     74.35     63.62     -0.00      0.01      0.00 
   254.25     17.84     74.36     63.63     -0.00      0.02      0.00 
   254.26     17.84     74.36     63.62     -0.01      0.03      0.00 
   254.27     17.84     74.36     63.62     -0.01      0.03      0.00 
   254.28     17.84     74.37     63.63     -0.01      0.04      0.41 
   254.29     17.84     74.36     63.63     -0.01      0.05      0.41 
   254.30     17.84     74.35     63.63     -0.01      0.05      0.41 
   254.31     17.84     74.34     63.62     -0.01      0.04      0.41 
   254.32     17.85     74.35     63.63     -0.01      0.05      0.41 
   254.33     17.85     74.34     63.63     -0.01      0.04      0.41 
   254.34     17.85     74.33     63.62     -0.01      0.02      0.88 
   254.35     17.85     74.32     63.62     -0.00      0.00      0.88 
   254.36     17.85     74.32     63.62      0.00     -0.00      0.88 
   254.37     17.85     74.32     63.62      0.01     -0.01      0.88 
   254.38     17.86     74.31     63.62      0.01     -0.02      0.88 
   254.39     17.86     74.31     63.62      0.01     -0.03      0.88 
   254.40     17.86     74.31     63.62      0.01     -0.03      0.88 
   254.41     17.85     74.32     63.62      0.01     -0.02      1.29 
   254.42     17.85     74.32     63.62      0.01     -0.02      1.29 
   254.43     17.85     74.32     63.62      0.00     -0.02      1.29 
   254.44     17.85     74.33     63.62     -0.00      0.00      1.29 
   254.45     17.85     74.33     63.62     -0.00      0.01      0.88 
   254.46     17.85     74.34     63.62     -0.01      0.03      0.88 
   254.47     17.84     74.34     63.62     -0.01      0.04      0.88 
   254.48     17.84     74.34     63.62     -0.02      0.05      0.88 
   254.49     17.85     74.34     63.62     -0.02      0.05      0.88 
   254.50     17.85     74.34     63.62     -0.02      0.05      1.29 
   254.51     17.85     74.34     63.62     -0.02      0.05      0.82 
   254.52     17.85     74.33     63.62     -0.01      0.04      0.82 
   254.53     17.85     74.33     63.62     -0.01      0.03      0.82 
   254.54     17.85     74.32     63.62     -0.01      0.02      1.24 
   254.55     17.85     74.32     63.62     -0.00      0.01      1.24 
   254.56     17.86     74.31     63.62      0.00     -0.00      1.24 
   254.57     17.86     74.30     63.62      0.01     -0.01      1.24 
   254.58     17.86     74.30     63.62      0.01     -0.03      0.82 
   254.59     17.86     74.30     63.62      0.01     -0.04      0.82 
   254.60     17.86     74.29     63.62      0.02     -0.05      0.82 
   254.61     17.86     74.29     63.62      0.02     -0.05      0.82 
   254.62     17.86     74.29     63.62      0.02     -0.06      0.82 
   254.63     17.86     74.29     63.62      0.02     -0.06      1.24 
   254.64     17.86     74.29     63.62      0.02     -0.06      1.24 
   254.65     17.86     74.30     63.62      0.02     -0.05      1.24 
   254.66     17.86     74.30     63.62      0.02     -0.05      1.24 
   254.67     17.86     74.30     63.63      0.02     -0.04      0.82 
   254.68     17.86     74.30     63.63      0.01     -0.03      0.82 
   254.69     17.86     74.31     63.63      0.01     -0.02      0.82 
   254.70     17.86     74.31     63.62      0.01     -0.01      0.82 
   254.71     17.85     74.32     63.62      0.00     -0.01      0.41 
   254.72     17.85     74.32     63.62      0.00      0.00      0.41 
   254.73     17.85     74.33     63.62     -0.00      0.01      0.41 
   254.74     17.85     74.34     63.62     -0.01      0.02      0.41 
   254.75     17.85     74.35     63.63     -0.01      0.03      0.41 
   254.76     17.84     74.35     63.62     -0.01      0.04      0.41 
   254.77     17.84     74.35     63.62     -0.01      0.04      0.41 
   254.78     17.84     74.35     63.62     -0.01      0.04      0.41 
   254.79     17.84     74.35     63.62     -0.01      0.04      0.41 
   254.80     17.84     74.35     63.62     -0.01      0.04      0.00 
   254.81     17.84     74.35     63.63     -0.01      0.04      0.00 
   254.82     17.84     74.35     63.63     -0.01      0.04      0.41 
   254.83     17.84     74.35     63.63     -0.01      0.04      0.41 
   254.84     17.84     74.36     63.63     -0.01      0.04      0.41 
   254.85     17.84     74.36     63.63     -0.01      0.04      0.41 
   254.86     17.84     74.36     63.63     -0.01      0.04      0.41 
   254.87     17.84     74.36     63.63     -0.01      0.03      0.41 
   254.88     17.84     74.36     63.63     -0.01      0.03      1.35 
   254.89     17.84     74.36     63.63     -0.01      0.03      1.35 
   254.90     17.84     74.36     63.63     -0.01      0.04      1.76 
   254.91     17.84     74.36     63.63     -0.01      0.04      2.59 
   254.92     17.84     74.36     63.63     -0.01      0.05      3.06 
   254.93     17.84     74.37     63.63     -0.02      0.06      3.06 
   254.94     17.84     74.38     63.63     -0.02      0.06      3.06 
   254.95     17.84     74.37     63.63     -0.02      0.06      3.06 
   254.96     17.84     74.37     63.63     -0.02      0.05      3.06 
   254.97     17.84     74.36     63.63     -0.01      0.04      3.47 
   254.98     17.84     74.36     63.63     -0.01      0.04      3.88 
   254.99     17.84     74.36     63.63     -0.01      0.03      3.88 
   255.00     17.84     74.36     63.63     -0.01      0.02      3.88 
   255.01     17.84     74.36     63.63     -0.00      0.01      3.88 
   255.02     17.84     74.36     63.63      0.00      0.00      3.88 
   255.03     17.84     74.36     63.63      0.00     -0.00      3.88 
   255.04     17.85     74.35     63.63      0.01     -0.01      4.29 
   255.05     17.85     74.34     63.63      0.01     -0.03      3.35 
   255.06     17.85     74.33     63.63      0.01     -0.04      3.35 
