#Written by Robertson Geologging WinLogger V1.0/370
~VERSION INFORMATION
#------------------------------------------------------------------------------
 VERS. 2.0 : CWLS LOG ASCII STANDARD - VERSION 2.0
 WRAP. NO  : ONE LINE PER DEPTH STEP
~WELL INFORMATION
#MNEM.UNIT         DATA                                DESCRIPTION OF MNEMONIC
#------------------------------------------------------------------------------
 STRT.M         72.0100                            :   START DEPTH
 STOP.M        461.6800                            :   STOP DEPTH
 STEP.M          0.0100                            :   STEP VALUE
 NULL.        -999.2500                            :   NULL VALUE
 COMP.    White Young Gteen                        :   COMPANY NAME
 WELL.    Easington  Shaft                         :   WELL NAME
 FLD.     Easington                                :   FIELD NAME
 LOC.     N/A                                      :   LOCATION
 PROV.    N/A                                      :   PROVINCE
 SRVC.    N/A                                      :   SERVICE COMPANY NAME
 DATE.    04 Oct 05                                :   DATE
 UWI.     N/A                                      :   UNIQUE WELL IDENTIFIER
~PARAMETER INFORMATION
#MNEMO.UNIT         VALUE                 DESCRIPTION OF MNEMONIC
#------------------------------------------------------------------------------
~OTHER INFORMATION SECTION
#------------------------------------------------------------------------------
 TCGS1365
~CURVE INFORMATION
#MNEMO.UNIT         API CODE              CURVE DESCRIPTION
#------------------------------------------------------------------------------
 DEPTH.M                                 :   0     Depth
 TEMP.DegC                               :   1     Temperature
 CN25.mS/cm                              :   2     Conductivity@25DegC
 COND.mS/cm                              :   3     Conductivity
 DELT.DegC                               :   4     Delta T
 DELC.mS/cm                              :   5     Delta C
 NGAM.CPS                                :   6     Natural Gamma
#------------------------------------------------------------------------------
~A  DEPTH     TEMP      CN25      COND      DELT      DELC      NGAM      
# ...
   382.76     18.73     84.47     74.71      0.01     -0.03      0.88 
   382.77     18.73     84.47     74.71      0.01     -0.03      1.35 
   382.78     18.73     84.47     74.71      0.01     -0.04      1.35 
   382.79     18.73     84.47     74.71      0.01     -0.04      1.35 
   382.80     18.73     84.46     74.71      0.01     -0.04      1.35 
   382.81     18.73     84.46     74.71      0.01     -0.03      1.35 
   382.82     18.73     84.47     74.71      0.01     -0.03      1.76 
   382.83     18.73     84.48     74.71      0.00     -0.00      1.76 
   382.84     18.73     84.47     74.71     -0.00      0.00      1.35 
   382.85     18.73     84.47     74.71     -0.00     -0.00      1.35 
   382.86     18.73     84.47     74.71     -0.00      0.00      1.76 
   382.87     18.73     84.46     74.71      0.00     -0.02      1.76 
   382.88     18.73     84.47     74.71      0.01     -0.03      1.76 
   382.89     18.73     84.48     74.71      0.01     -0.02      1.76 
   382.90     18.73     84.49     74.71      0.01     -0.02      1.29 
   382.91     18.73     84.49     74.71      0.01     -0.02      1.29 
   382.92     18.73     84.49     74.71      0.01     -0.02      1.29 
   382.93     18.73     84.49     74.71      0.01     -0.02      1.29 
   382.94     18.73     84.49     74.71      0.01     -0.04      1.29 
   382.95     18.73     84.49     74.71      0.01     -0.03      1.29 
   382.96     18.73     84.50     74.71      0.01     -0.03      1.29 
   382.97     18.72     84.50     74.71      0.01     -0.02      1.29 
   382.98     18.72     84.50     74.71      0.00     -0.01      1.29 
   382.99     18.72     84.50     74.71      0.00     -0.00      0.88 
   383.00     18.72     84.50     74.71      0.00     -0.01      1.29 
   383.01     18.72     84.50     74.71      0.00     -0.00      1.29 
   383.02     18.72     84.50     74.71      0.00     -0.01      1.29 
   383.03     18.73     84.49     74.71      0.01     -0.03      1.29 
   383.04     18.73     84.49     74.71      0.01     -0.03      1.29 
   383.05     18.73     84.49     74.71      0.01     -0.04      1.29 
   383.06     18.73     84.48     74.71      0.01     -0.05      1.29 
   383.07     18.73     84.48     74.71      0.02     -0.05      1.29 
   383.08     18.73     84.48     74.71      0.01     -0.04      1.29 
   383.09     18.73     84.47     74.71      0.01     -0.05      1.29 
   383.10     18.73     84.47     74.71      0.01     -0.04      1.29 
   383.11     18.73     84.47     74.71      0.01     -0.03      0.82 
   383.12     18.74     84.46     74.71      0.01     -0.04      0.82 
   383.13     18.74     84.46     74.71      0.01     -0.02      0.82 
   383.14     18.73     84.46     74.71      0.00     -0.01      1.29 
   383.15     18.73     84.47     74.71      0.00     -0.01      1.29 
   383.16     18.73     84.47     74.71      0.00     -0.00      1.29 
   383.17     18.73     84.47     74.71      0.00     -0.01      0.88 
   383.18     18.73     84.47     74.71      0.01     -0.02      0.88 
   383.19     18.73     84.47     74.71      0.01     -0.03      1.29 
   383.20     18.73     84.48     74.71      0.01     -0.03      0.88 
   383.21     18.73     84.48     74.71      0.01     -0.04      0.88 
   383.22     18.73     84.48     74.71      0.01     -0.04      0.88 
   383.23     18.73     84.48     74.71      0.01     -0.04      1.29 
   383.24     18.73     84.48     74.71      0.01     -0.05      1.29 
   383.25     18.73     84.47     74.71      0.02     -0.06      1.29 
   383.26     18.73     84.47     74.71      0.02     -0.06      1.29 
   383.27     18.74     84.46     74.71      0.02     -0.07      1.71 
   383.28     18.74     84.46     74.71      0.02     -0.06      1.71 
   383.29     18.74     84.46     74.71      0.01     -0.04      1.71 
   383.30     18.74     84.46     74.71      0.01     -0.04      1.71 
   383.31     18.74     84.45     74.71      0.01     -0.04      1.24 
   383.32     18.74     84.45     74.71      0.01     -0.04      1.71 
   383.33     18.74     84.45     74.71      0.01     -0.04      1.71 
   383.34     18.74     84.45     74.71      0.01     -0.05      2.12 
   383.35     18.74     84.45     74.71      0.01     -0.05      2.12 
   383.36     18.73     84.47     74.71      0.01     -0.03      1.71 
   383.37     18.73     84.47     74.71      0.01     -0.03      1.71 
   383.38     18.73     84.47     74.71      0.01     -0.03      1.71 
   383.39     18.73     84.46     74.71      0.01     -0.03      1.71 
   383.40     18.74     84.46     74.71      0.01     -0.03      1.71 
   383.41     18.74     84.45     74.71      0.01     -0.05      1.71 
   383.42     18.74     84.45     74.71      0.02     -0.05      1.71 
   383.43     18.74     84.44     74.71      0.02     -0.06      1.71 
   383.44     18.74     84.44     74.71      0.02     -0.07      1.29 
   383.45     18.74     84.44     74.70      0.02     -0.07      1.29 
   383.46     18.74     84.44     74.70      0.02     -0.07      1.71 
   383.47     18.74     84.44     74.70      0.02     -0.07      1.71 
   383.48     18.74     84.45     74.70      0.02     -0.06      1.71 
   383.49     18.73     84.46     74.70      0.02     -0.05      1.24 
   383.50     18.73     84.47     74.70      0.01     -0.05      1.24 
   383.51     18.73     84.48     74.70      0.01     -0.04      0.82 
   383.52     18.72     84.50     74.70      0.01     -0.02      1.24 
   383.53     18.72     84.51     74.70      0.00     -0.01      1.24 
   383.54     18.72     84.51     74.70      0.00     -0.01      1.71 
   383.55     18.72     84.51     74.70     -0.00     -0.00      1.71 
   383.56     18.72     84.52     74.71     -0.00      0.01      1.71 
   383.57     18.72     84.51     74.71     -0.00      0.00      1.29 
   383.58     18.72     84.51     74.71      0.00     -0.01      1.29 
   383.59     18.72     84.50     74.71      0.00     -0.02      1.29 
   383.60     18.72     84.50     74.71      0.00     -0.01      1.29 
   383.61     18.73     84.49     74.71      0.01     -0.02      1.29 
   383.62     18.73     84.49     74.71      0.01     -0.03      1.29 
   383.63     18.73     84.48     74.71      0.01     -0.04      1.71 
   383.64     18.73     84.47     74.71      0.01     -0.04      1.71 
   383.65     18.73     84.47     74.71      0.02     -0.05      1.71 
   383.66     18.73     84.47     74.71      0.01     -0.04      1.71 
   383.67     18.73     84.46     74.71      0.01     -0.05      1.71 
   383.68     18.74     84.46     74.71      0.01     -0.05      1.71 
   383.69     18.73     84.46     74.71      0.01     -0.03      1.29 
   383.70     18.74     84.46     74.71      0.01     -0.04      1.29 
   383.71     18.74     84.45     74.71      0.01     -0.03      0.82 
   383.72     18.74     84.45     74.71      0.01     -0.03      0.82 
   383.73     18.74     84.46     74.71      0.00     -0.01      1.24 
   383.74     18.73     84.47     74.71      0.00      0.00      1.71 
   383.75     18.73     84.47     74.71     -0.00     -0.00      1.71 
   383.76     18.73     84.47     74.71     -0.00      0.01      1.71 
   383.77     18.73     84.47     74.70     -0.00      0.01      1.71 
   383.78     18.73     84.49     74.71     -0.01      0.02      1.71 
   383.79     18.72     84.49     74.71     -0.01      0.03      1.71 
   383.80     18.72     84.49     74.70     -0.01      0.03      0.88 
   383.81     18.72     84.50     74.70     -0.01      0.03      0.88 
   383.82     18.72     84.50     74.70     -0.01      0.02      1.35 
   383.83     18.72     84.51     74.71     -0.01      0.03      1.35 
   383.84     18.72     84.50     74.70     -0.01      0.03      1.35 
   383.85     18.72     84.49     74.70     -0.01      0.02      1.35 
   383.86     18.72     84.49     74.70     -0.01      0.03      1.35 
   383.87     18.72     84.49     74.71     -0.01      0.02      1.35 
   383.88     18.73     84.49     74.71     -0.00      0.02      1.35 
