#Written by Robertson Geologging WinLogger V1.0/370
~VERSION INFORMATION
#------------------------------------------------------------------------------
 VERS. 2.0 : CWLS LOG ASCII STANDARD - VERSION 2.0
 WRAP. NO  : ONE LINE PER DEPTH STEP
~WELL INFORMATION
#MNEM.UNIT         DATA                                DESCRIPTION OF MNEMONIC
#------------------------------------------------------------------------------
 STRT.M         72.0100                            :   START DEPTH
 STOP.M        461.6800                            :   STOP DEPTH
 STEP.M          0.0100                            :   STEP VALUE
 NULL.        -999.2500                            :   NULL VALUE
 COMP.    White Young Gteen                        :   COMPANY NAME
 WELL.    Easington  Shaft                         :   WELL NAME
 FLD.     Easington                                :   FIELD NAME
 LOC.     N/A                                      :   LOCATION
 PROV.    N/A                                      :   PROVINCE
 SRVC.    N/A                                      :   SERVICE COMPANY NAME
 DATE.    04 Oct 05                                :   DATE
 UWI.     N/A                                      :   UNIQUE WELL IDENTIFIER
~PARAMETER INFORMATION
#MNEMO.UNIT         VALUE                 DESCRIPTION OF MNEMONIC
#------------------------------------------------------------------------------
~OTHER INFORMATION SECTION
#------------------------------------------------------------------------------
 TCGS1365
~CURVE INFORMATION
#MNEMO.UNIT         API CODE              CURVE DESCRIPTION
#------------------------------------------------------------------------------
 DEPTH.M                                 :   0     Depth
 TEMP.DegC                               :   1     Temperature
 CN25.mS/cm                              :   2     Conductivity@25DegC
 COND.mS/cm                              :   3     Conductivity
 DELT.DegC                               :   4     Delta T
 DELC.mS/cm                              :   5     Delta C
 NGAM.CPS                                :   6     Natural Gamma
#------------------------------------------------------------------------------
~A  DEPTH     TEMP      CN25      COND      DELT      DELC      NGAM      
    72.01      0.00     15.89      0.00      0.00      0.00      0.00 
    72.02      0.00     15.89      0.00      0.00      0.00      0.00 
    72.03      0.00     15.89      0.00      0.00      0.00      0.00 
    72.04      0.00     15.89      0.00      0.00      0.00      0.00 
    72.05      0.00     15.89      0.00      0.00      0.00      0.00 
    72.06      0.00     15.89      0.00      0.00      0.00      0.00 
    72.07      0.00     15.89      0.00      0.00      0.00      0.00 
    72.08      0.00     15.89      0.00      0.00      0.00      0.00 
    72.09      0.00     15.89      0.00      0.00      0.00      0.00 
    72.10      0.00     15.89      0.00      0.00      0.00      0.00 
    72.11      0.00     15.89      0.00      0.00      0.00      0.00 
    72.12      0.00     15.89      0.00      0.00      0.00      0.00 
    72.13      0.00     15.89      0.00      0.00      0.00      0.00 
    72.14      0.00     15.89      0.00      0.00      0.00      0.00 
    72.15      0.00     15.89      0.00      0.00      0.00      0.00 
    72.16      0.00     15.89      0.00      0.00      0.00      0.00 
    72.17      0.00     15.89      0.00      0.00      0.00      0.00 
    72.18      0.00     15.89      0.00      0.00      0.00      0.00 
    72.19      0.00     15.89      0.00      0.00      0.00      0.00 
    72.20      0.00     15.89      0.00      0.00      0.00      0.00 
    72.21      0.00     15.89      0.00      0.00      0.00      0.00 
    72.22      0.00     15.89      0.00      0.00      0.00      0.00 
    72.23      0.00     15.89      0.00      0.00      0.00      0.00 
    72.24      0.00     15.89      0.00      0.00      0.00      0.00 
    72.25      0.00     15.89      0.00      0.00      0.00      0.00 
    72.26      0.00     15.89      0.00      0.00      0.00      0.00 
    72.27      0.00     15.89      0.00      0.00      0.00      0.00 
    72.28      0.00     15.89      0.00      0.00      0.00      0.00 
    72.29      0.00     15.89      0.00      0.00      0.00      0.00 
    72.30      0.00     15.89      0.00      0.00      0.00      0.00 
    72.31      0.00     15.89      0.00      0.00      0.00      0.00 
    72.32      0.00     15.89      0.00      0.00      0.00      0.00 
    72.33      0.00     15.89      0.00      0.00      0.00      0.00 
    72.34      0.00     15.89      0.00      0.00      0.00      0.00 
    72.35      0.00     15.89      0.00      0.00      0.00      0.00 
    72.36      0.00     15.89      0.00      0.00      0.00      0.00 
    72.37      0.00     15.89      0.00      0.00      0.00      0.00 
    72.38      0.00     15.89      0.00      0.00      0.00      0.00 
    72.39      0.00     15.89      0.00      0.00      0.00      0.00 
    72.40      0.00     15.89      0.00      0.00      0.00      0.00 
    72.41      0.00     15.89      0.00      0.00      0.00      0.00 
    72.42      0.00     15.89      0.00      0.00      0.00      0.00 
    72.43      0.00     15.89      0.00      0.00      0.00      0.00 
    72.44      0.00     15.89      0.00      0.00      0.00      0.00 
    72.45      0.00     15.89      0.00      0.00      0.00      0.00 
    72.46      0.00     15.89      0.00      0.00      0.00      0.00 
    72.47      0.00     15.89      0.00      0.00      0.00      0.00 
    72.48      0.00     15.89      0.00      0.00      0.00      0.00 
    72.49      0.00     15.89      0.00      0.00      0.00      0.00 
    72.50      0.00     15.89      0.00      0.00      0.00      0.00 
    72.51      0.00     15.89      0.00      0.00      0.00      0.00 
    72.52      0.00     15.89      0.00      0.00      0.00      0.00 
    72.53      0.00     15.89      0.00      0.00      0.00      0.00 
    72.54      0.00     15.89      0.00      0.00      0.00      0.00 
    72.55      0.00     15.89      0.00      0.00      0.00      0.00 
    72.56      0.00     15.89      0.00      0.00      0.00      0.00 
    72.57      0.00     15.89      0.00      0.00      0.00      0.00 
    72.58      0.00     15.89      0.00      0.00      0.00      0.00 
    72.59      0.00     15.89      0.00      0.00      0.00      0.00 
    72.60      0.00     15.89      0.00      0.00      0.00      0.00 
    72.61      0.00     15.89      0.00      0.00      0.00      0.00 
    72.62      0.00     15.89      0.00      0.00      0.00      0.00 
    72.63      0.00     15.89      0.00      0.00      0.00      0.00 
    72.64      0.00     15.89      0.00      0.00      0.00      0.00 
    72.65      0.00     15.89      0.00      0.00      0.00      0.00 
    72.66      0.00     15.89      0.00      0.00      0.00      0.00 
    72.67      0.00     15.89      0.00      0.00      0.00      0.00 
    72.68      0.00     15.89      0.00      0.00      0.00      0.00 
    72.69      0.00     15.89      0.00      0.00      0.00      0.00 
    72.70      0.00     15.89      0.00      0.00      0.00      0.00 
    72.71      0.00     15.89      0.00      0.00      0.00      0.00 
    72.72      0.00     15.89      0.00      0.00      0.00      0.00 
    72.73      0.00     15.89      0.00      0.00      0.00      0.00 
    72.74      0.00     15.89      0.00      0.00      0.00      0.00 
    72.75      0.00     15.89      0.00      0.00      0.00      0.00 
    72.76      0.00     15.89      0.00      0.00      0.00      0.00 
    72.77      0.00     15.89      0.00      0.00      0.00      0.00 
    72.78      0.00     15.89      0.00      0.00      0.00      0.00 
    72.79      0.00     15.89      0.00      0.00      0.00      0.00 
    72.80      0.00     15.89      0.00      0.00      0.00      0.00 
    72.81      0.00     15.89      0.00      0.00      0.00      0.00 
    72.82      0.00     15.89      0.00      0.00      0.00      0.00 
    72.83      0.00     15.89      0.00      0.00      0.00      0.00 
    72.84      0.00     15.89      0.00      0.00      0.00      0.00 
    72.85      0.00     15.89      0.00      0.00      0.00      0.00 
    72.86      0.00     15.89      0.00      0.00      0.00      0.00 
    72.87      0.00     15.89      0.00      0.00      0.00      0.00 
    72.88      0.00     15.89      0.00      0.00      0.00      0.00 
    72.89      0.00     15.89      0.00      0.00      0.00      0.00 
    72.90      0.00     15.89      0.00      0.00      0.00      0.00 
    72.91      0.00     15.89      0.00      0.00      0.00      0.00 
    72.92      0.00     15.89      0.00      0.00      0.00      0.00 
    72.93      0.00     15.89      0.00      0.00      0.00      0.00 
    72.94      0.00     15.89      0.00      0.00      0.00      0.00 
    72.95      0.00     15.89      0.00      0.00      0.00      0.00 
    72.96      0.00     15.89      0.00      0.00      0.00      0.00 
    72.97      0.00     15.89      0.00      0.00      0.00      0.00 
    72.98      0.00     15.89      0.00      0.00      0.00      0.00 
    72.99      0.00     15.89      0.00      0.00      0.00      0.00 
    73.00      0.00     15.89      0.00      0.00      0.00      0.00 
    73.01      0.00     15.89      0.00      0.00      0.00      0.00 
    73.02      0.00     15.89      0.00      0.00      0.00      0.00 
    73.03      0.00     15.89      0.00      0.00      0.00      0.00 
    73.04      0.00     15.89      0.00      0.00      0.00      0.00 
    73.05      0.00     15.89      0.00      0.00      0.00      0.00 
    73.06      0.00     15.89      0.00      0.00      0.00      0.00 
    73.07      0.00     15.89      0.00      0.00      0.00      0.00 
    73.08      0.00     15.89      0.00      0.00      0.00      0.00 
    73.09      0.00     15.89      0.00      0.00      0.00      0.00 
    73.10      0.00     15.89      0.00      0.00      0.00      0.00 
    73.11      0.00     15.89      0.00      0.00      0.00      0.00 
    73.12      0.00     15.89      0.00      0.00      0.00      0.00 
    73.13      0.00     15.89      0.00      0.00      0.00      0.00 
