#Written by Robertson Geologging WinLogger V1.0/370
~VERSION INFORMATION
#------------------------------------------------------------------------------
 VERS. 2.0 : CWLS LOG ASCII STANDARD - VERSION 2.0
 WRAP. NO  : ONE LINE PER DEPTH STEP
~WELL INFORMATION
#MNEM.UNIT         DATA                                DESCRIPTION OF MNEMONIC
#------------------------------------------------------------------------------
 STRT.M         72.0100                            :   START DEPTH
 STOP.M        461.6800                            :   STOP DEPTH
 STEP.M          0.0100                            :   STEP VALUE
 NULL.        -999.2500                            :   NULL VALUE
 COMP.    White Young Gteen                        :   COMPANY NAME
 WELL.    Easington  Shaft                         :   WELL NAME
 FLD.     Easington                                :   FIELD NAME
 LOC.     N/A                                      :   LOCATION
 PROV.    N/A                                      :   PROVINCE
 SRVC.    N/A                                      :   SERVICE COMPANY NAME
 DATE.    04 Oct 05                                :   DATE
 UWI.     N/A                                      :   UNIQUE WELL IDENTIFIER
~PARAMETER INFORMATION
#MNEMO.UNIT         VALUE                 DESCRIPTION OF MNEMONIC
#------------------------------------------------------------------------------
~OTHER INFORMATION SECTION
#------------------------------------------------------------------------------
 TCGS1365
~CURVE INFORMATION
#MNEMO.UNIT         API CODE              CURVE DESCRIPTION
#------------------------------------------------------------------------------
 DEPTH.M                                 :   0     Depth
 TEMP.DegC                               :   1     Temperature
 CN25.mS/cm                              :   2     Conductivity@25DegC
 COND.mS/cm                              :   3     Conductivity
 DELT.DegC                               :   4     Delta T
 DELC.mS/cm                              :   5     Delta C
 NGAM.CPS                                :   6     Natural Gamma
#------------------------------------------------------------------------------
~A  DEPTH     TEMP      CN25      COND      DELT      DELC      NGAM      
# ...
   201.96     14.25     17.19     10.33     -0.00      0.01      0.82 
   201.97     14.25     17.19     10.33     -0.00      0.01      0.41 
   201.98     14.25     17.20     10.33     -0.00      0.01      0.41 
   201.99     14.25     17.20     10.33     -0.00      0.01      0.41 
   202.00     14.25     17.20     10.33     -0.01      0.02      0.00 
   202.01     14.25     17.20     10.33     -0.01      0.02      0.00 
   202.02     14.25     17.20     10.33     -0.01      0.02      0.00 
   202.03     14.25     17.21     10.33     -0.01      0.02      0.00 
   202.04     14.24     17.21     10.33     -0.01      0.03      0.00 
   202.05     14.24     17.21     10.33     -0.01      0.03      0.00 
   202.06     14.24     17.21     10.33     -0.01      0.03      0.00 
   202.07     14.24     17.21     10.33     -0.01      0.03      0.00 
   202.08     14.25     17.21     10.33     -0.01      0.02      0.00 
   202.09     14.25     17.20     10.33     -0.01      0.02      0.00 
   202.10     14.25     17.20     10.33     -0.01      0.02      0.00 
   202.11     14.26     17.19     10.33     -0.01      0.02      0.00 
   202.12     14.26     17.19     10.33     -0.01      0.02      0.00 
   202.13     14.26     17.19     10.33     -0.01      0.01      0.47 
   202.14     14.26     17.19     10.33     -0.01      0.02      0.47 
   202.15     14.26     17.19     10.33     -0.00      0.01      0.47 
   202.16     14.26     17.19     10.33     -0.00      0.01      0.47 
   202.17     14.26     17.19     10.33     -0.00      0.00      0.47 
   202.18     14.26     17.18     10.33      0.00     -0.00      0.47 
   202.19     14.26     17.18     10.33      0.00     -0.00      0.47 
   202.20     14.26     17.19     10.33      0.01     -0.00      0.47 
   202.21     14.26     17.19     10.33      0.01     -0.00      0.47 
   202.22     14.26     17.19     10.33      0.01     -0.01      0.47 
   202.23     14.26     17.19     10.33      0.01     -0.01      0.47 
   202.24     14.26     17.18     10.33      0.01     -0.01      0.47 
   202.25     14.26     17.18     10.33      0.02     -0.02      0.47 
   202.26     14.26     17.18     10.33      0.02     -0.02      0.47 
   202.27     14.26     17.19     10.33      0.02     -0.02      0.47 
   202.28     14.26     17.18     10.33      0.02     -0.02      0.47 
   202.29     14.26     17.19     10.33      0.01     -0.01      0.88 
   202.30     14.26     17.19     10.33      0.01     -0.01      0.41 
   202.31     14.26     17.19     10.33      0.01     -0.01      0.41 
   202.32     14.26     17.19     10.33      0.01     -0.02      0.41 
   202.33     14.26     17.19     10.33      0.01     -0.01      0.41 
   202.34     14.25     17.19     10.33      0.01     -0.01      0.41 
   202.35     14.25     17.20     10.33      0.00     -0.00      0.41 
   202.36     14.25     17.20     10.33      0.00      0.00      0.41 
   202.37     14.25     17.20     10.33      0.00      0.01      0.41 
   202.38     14.25     17.20     10.33     -0.00      0.00      0.41 
   202.39     14.25     17.20     10.33     -0.00      0.01      0.41 
   202.40     14.25     17.20     10.33      0.00      0.00      0.41 
   202.41     14.25     17.20     10.33      0.00      0.01      0.41 
   202.42     14.25     17.20     10.33      0.00      0.00      0.82 
   202.43     14.26     17.19     10.33      0.00      0.00      0.82 
   202.44     14.26     17.19     10.33      0.00     -0.00      0.82 
   202.45     14.26     17.19     10.33      0.01     -0.00      0.82 
   202.46     14.26     17.19     10.33      0.01     -0.01      0.41 
   202.47     14.26     17.18     10.33      0.01     -0.01      0.41 
   202.48     14.26     17.18     10.33      0.01     -0.01      0.41 
   202.49     14.26     17.19     10.33      0.01     -0.00      0.41 
   202.50     14.26     17.18     10.33      0.01     -0.01      0.41 
   202.51     14.26     17.19     10.33      0.00     -0.00      0.82 
   202.52     14.26     17.19     10.33      0.00     -0.00      0.82 
   202.53     14.26     17.19     10.33      0.00      0.00      0.82 
   202.54     14.26     17.20     10.33      0.00      0.00      0.82 
   202.55     14.25     17.20     10.33      0.00      0.00      0.82 
   202.56     14.25     17.20     10.33     -0.00      0.01      0.82 
   202.57     14.25     17.20     10.33     -0.00      0.01      0.82 
   202.58     14.25     17.21     10.33     -0.00      0.01      0.82 
   202.59     14.25     17.20     10.33     -0.00      0.01      0.41 
   202.60     14.25     17.20     10.33     -0.00      0.00      0.41 
   202.61     14.25     17.21     10.33     -0.00      0.01      0.41 
   202.62     14.25     17.21     10.33     -0.00      0.01      0.41 
   202.63     14.25     17.21     10.33     -0.00      0.01      0.41 
   202.64     14.25     17.21     10.33     -0.00      0.01      0.41 
   202.65     14.25     17.21     10.33     -0.00      0.01      0.41 
   202.66     14.25     17.21     10.33     -0.00      0.01      0.41 
   202.67     14.25     17.20     10.33      0.00      0.00      0.41 
   202.68     14.25     17.20     10.33      0.00     -0.00      0.00 
   202.69     14.25     17.20     10.33      0.00     -0.00      0.00 
   202.70     14.25     17.20     10.33      0.00      0.00      0.00 
   202.71     14.25     17.20     10.33      0.00      0.00      0.00 
   202.72     14.25     17.20     10.33      0.00      0.00      0.00 
   202.73     14.25     17.20     10.33      0.00      0.00      0.00 
   202.74     14.25     17.20     10.33      0.00     -0.00      0.00 
   202.75     14.25     17.20     10.33      0.00      0.00      0.47 
   202.76     14.25     17.20     10.33      0.00      0.01      0.47 
   202.77     14.25     17.20     10.33     -0.00      0.01      0.47 
   202.78     14.25     17.20     10.33     -0.00      0.01      0.47 
   202.79     14.25     17.20     10.34     -0.00      0.01      0.47 
   202.80     14.25     17.20     10.33     -0.00      0.01      0.88 
   202.81     14.25     17.19     10.33     -0.00      0.01      0.88 
   202.82     14.25     17.20     10.33     -0.00      0.01      0.88 
   202.83     14.26     17.19     10.33     -0.00      0.01      0.88 
   202.84     14.26     17.19     10.33     -0.00      0.01      0.88 
   202.85     14.26     17.20     10.33     -0.00      0.01      0.88 
   202.86     14.26     17.19     10.33      0.00      0.00      0.88 
   202.87     14.26     17.19     10.33      0.00      0.00      0.88 
   202.88     14.26     17.19     10.33      0.00     -0.00      0.88 
   202.89     14.26     17.20     10.33      0.00      0.00      0.88 
   202.90     14.26     17.19     10.33      0.00     -0.00      0.88 
   202.91     14.26     17.19     10.33      0.00      0.00      0.88 
   202.92     14.26     17.20     10.33     -0.00      0.01      0.41 
   202.93     14.26     17.20     10.33     -0.00      0.01      0.41 
   202.94     14.25     17.20     10.33     -0.00      0.01      0.41 
   202.95     14.25     17.20     10.33      0.00      0.00      0.82 
   202.96     14.26     17.20     10.33      0.00      0.00      0.82 
   202.97     14.26     17.20     10.33      0.01     -0.00      0.41 
   202.98     14.26     17.19     10.33      0.01     -0.01      0.41 
   202.99     14.26     17.19     10.33      0.01     -0.01      0.41 
   203.00     14.26     17.19     10.33      0.01     -0.01      0.41 
   203.01     14.26     17.19     10.33      0.01     -0.01      0.41 
   203.02     14.26     17.19     10.33      0.01     -0.01      0.41 
   203.03     14.26     17.19     10.33      0.02     -0.02      0.41 
   203.04     14.26     17.19     10.33      0.02     -0.02      0.41 
   203.05     14.26     17.18     10.33      0.02     -0.02      0.41 
   203.06     14.26     17.19     10.33      0.02     -0.02      0.82 
   203.07     14.26     17.19     10.33      0.01     -0.02      0.82 
   203.08     14.26     17.19     10.33      0.01     -0.01      0.82 
