#Written by Robertson Geologging WinLogger V1.0/370
~VERSION INFORMATION
#------------------------------------------------------------------------------
 VERS. 2.0 : CWLS LOG ASCII STANDARD - VERSION 2.0
 WRAP. NO  : ONE LINE PER DEPTH STEP
~WELL INFORMATION
#MNEM.UNIT         DATA                                DESCRIPTION OF MNEMONIC
#------------------------------------------------------------------------------
 STRT.M         72.0100                            :   START DEPTH
 STOP.M        461.6800                            :   STOP DEPTH
 STEP.M          0.0100                            :   STEP VALUE
 NULL.        -999.2500                            :   NULL VALUE
 COMP.    White Young Gteen                        :   COMPANY NAME
 WELL.    Easington  Shaft                         :   WELL NAME
 FLD.     Easington                                :   FIELD NAME
 LOC.     N/A                                      :   LOCATION
 PROV.    N/A                                      :   PROVINCE
 SRVC.    N/A                                      :   SERVICE COMPANY NAME
 DATE.    04 Oct 05                                :   DATE
 UWI.     N/A                                      :   UNIQUE WELL IDENTIFIER
~PARAMETER INFORMATION
#MNEMO.UNIT         VALUE                 DESCRIPTION OF MNEMONIC
#------------------------------------------------------------------------------
~OTHER INFORMATION SECTION
#------------------------------------------------------------------------------
 TCGS1365
~CURVE INFORMATION
#MNEMO.UNIT         API CODE              CURVE DESCRIPTION
#------------------------------------------------------------------------------
 DEPTH.M                                 :   0     Depth
 TEMP.DegC                               :   1     Temperature
 CN25.mS/cm                              :   2     Conductivity@25DegC
 COND.mS/cm                              :   3     Conductivity
 DELT.DegC                               :   4     Delta T
 DELC.mS/cm                              :   5     Delta C
 NGAM.CPS                                :   6     Natural Gamma
#------------------------------------------------------------------------------
~A  DEPTH     TEMP      CN25      COND      DELT      DELC      NGAM      
# ...
    98.00     11.55      8.93      1.61      0.02      0.01      0.00 
    98.01     11.55      8.93      1.60      0.02      0.01      0.00 
    98.02     11.55      8.93      1.60      0.01      0.01      0.00 
    98.03     11.55      8.94      1.61      0.01      0.02      0.00 
    98.04     11.55      8.94      1.61      0.01      0.02      0.00 
    98.05     11.55      8.93      1.60      0.01      0.02      0.00 
    98.06     11.55      8.94      1.61      0.01      0.02      0.00 
    98.07     11.55      8.94      1.61      0.00      0.02      0.00 
    98.08     11.55      8.94      1.61      0.00      0.02      0.00 
    98.09     11.54      8.94      1.60      0.00      0.02      0.00 
    98.10     11.54      8.94      1.61      0.00      0.02      0.00 
    98.11     11.54      8.94      1.61      0.00      0.03      0.00 
    98.12     11.55      8.94      1.61     -0.00      0.03      0.00 
    98.13     11.54      8.94      1.61     -0.00      0.03      0.00 
    98.14     11.54      8.94      1.61     -0.00      0.03      0.00 
    98.15     11.54      8.94      1.61      0.00      0.02      0.00 
    98.16     11.54      8.94      1.61      0.00      0.02      0.00 
    98.17     11.55      8.94      1.61      0.00      0.02      0.00 
    98.18     11.55      8.94      1.61      0.01      0.01      0.00 
    98.19     11.55      8.93      1.61      0.01      0.01      0.00 
    98.20     11.55      8.94      1.61      0.01      0.02      0.00 
    98.21     11.55      8.94      1.61      0.01      0.02      0.00 
    98.22     11.55      8.94      1.61      0.01      0.01      0.00 
    98.23     11.55      8.94      1.61      0.01      0.01      0.00 
    98.24     11.55      8.93      1.61      0.01      0.01      0.00 
    98.25     11.55      8.93      1.61      0.02      0.00      0.00 
    98.26     11.55      8.94      1.61      0.02      0.01      0.00 
    98.27     11.55      8.93      1.61      0.02      0.00      0.00 
    98.28     11.55      8.93      1.61      0.02      0.00      0.00 
    98.29     11.55      8.93      1.61      0.02      0.00      0.00 
    98.30     11.55      8.93      1.61      0.02      0.00      0.00 
    98.31     11.55      8.93      1.61      0.02      0.00      0.00 
    98.32     11.55      8.93      1.61      0.02     -0.00      0.00 
    98.33     11.55      8.93      1.61      0.01      0.00      0.00 
    98.34     11.55      8.93      1.61      0.01      0.01      0.00 
    98.35     11.55      8.93      1.61      0.01      0.01      0.00 
    98.36     11.55      8.93      1.61      0.01      0.01      0.00 
    98.37     11.55      8.93      1.61      0.01      0.01      0.82 
    98.38     11.55      8.94      1.61      0.00      0.02      0.82 
    98.39     11.55      8.94      1.61      0.00      0.02      0.82 
    98.40     11.55      8.94      1.61     -0.00      0.02      0.82 
    98.41     11.54      8.94      1.61     -0.00      0.02      0.82 
    98.42     11.54      8.94      1.61     -0.00      0.02      1.18 
    98.43     11.54      8.95      1.61     -0.01      0.03      1.18 
    98.44     11.54      8.95      1.61     -0.01      0.02      1.18 
    98.45     11.54      8.95      1.61     -0.00      0.02      1.18 
    98.46     11.54      8.95      1.61     -0.00      0.02      1.18 
    98.47     11.54      8.95      1.61     -0.00      0.02      1.18 
    98.48     11.54      8.95      1.61     -0.00      0.02      1.18 
    98.49     11.54      8.95      1.61     -0.00      0.02      1.18 
    98.50     11.54      8.95      1.61     -0.00      0.02      1.18 
    98.51     11.54      8.95      1.61     -0.00      0.02      1.18 
    98.52     11.54      8.95      1.61     -0.00      0.02      1.18 
    98.53     11.54      8.95      1.61     -0.00      0.02      1.18 
    98.54     11.54      8.94      1.61     -0.00      0.02      0.35 
    98.55     11.55      8.94      1.61      0.00      0.02      0.35 
    98.56     11.55      8.94      1.61      0.00      0.01      0.35 
    98.57     11.55      8.94      1.61      0.00      0.01      0.35 
    98.58     11.55      8.94      1.61      0.00      0.01      0.35 
    98.59     11.55      8.94      1.61      0.00      0.01      0.00 
    98.60     11.55      8.95      1.61      0.00      0.02      0.00 
    98.61     11.55      8.94      1.61      0.00      0.01      0.00 
    98.62     11.55      8.94      1.61      0.00      0.01      0.00 
    98.63     11.55      8.94      1.61      0.00      0.01      0.00 
    98.64     11.55      8.94      1.61      0.01      0.00      0.00 
    98.65     11.55      8.94      1.61      0.01      0.01      0.00 
    98.66     11.55      8.94      1.61      0.01      0.01      0.00 
    98.67     11.55      8.94      1.61      0.00      0.01      0.00 
    98.68     11.55      8.94      1.61      0.00      0.01      0.00 
    98.69     11.55      8.94      1.61      0.00      0.01      0.00 
    98.70     11.55      8.94      1.61     -0.00      0.02      0.00 
    98.71     11.55      8.94      1.61     -0.00      0.01      0.00 
    98.72     11.55      8.94      1.61      0.00      0.01      0.00 
    98.73     11.55      8.94      1.61      0.00      0.01      0.00 
    98.74     11.55      8.94      1.61     -0.00      0.02      0.00 
    98.75     11.55      8.94      1.61     -0.00      0.02      0.00 
    98.76     11.55      8.94      1.61     -0.00      0.02      0.00 
    98.77     11.55      8.94      1.61     -0.00      0.02      0.00 
    98.78     11.55      8.94      1.61     -0.00      0.02      0.00 
    98.79     11.55      8.94      1.61     -0.00      0.02      0.00 
    98.80     11.55      8.94      1.61     -0.00      0.01      0.00 
    98.81     11.55      8.94      1.61     -0.00      0.01      0.00 
    98.82     11.55      8.94      1.61      0.00      0.01      0.00 
    98.83     11.55      8.94      1.61      0.00      0.01      0.00 
    98.84     11.54      8.95      1.61      0.00      0.01      0.00 
    98.85     11.54      8.95      1.61      0.00      0.01      0.00 
    98.86     11.54      8.95      1.61      0.00      0.01      0.00 
    98.87     11.55      8.95      1.61      0.00      0.01      0.00 
    98.88     11.55      8.95      1.61      0.00      0.01      0.00 
    98.89     11.55      8.95      1.61      0.00      0.01      0.00 
    98.90     11.54      8.95      1.61     -0.00      0.01      0.00 
    98.91     11.54      8.95      1.61     -0.00      0.02      0.00 
    98.92     11.55      8.95      1.61     -0.00      0.01      0.00 
    98.93     11.55      8.94      1.61     -0.00      0.01      0.00 
    98.94     11.55      8.94      1.61     -0.00      0.01      0.00 
    98.95     11.55      8.94      1.61      0.00      0.01      0.00 
    98.96     11.55      8.94      1.61     -0.00      0.01      0.00 
    98.97     11.55      8.94      1.61     -0.00      0.01      0.00 
    98.98     11.55      8.95      1.61     -0.01      0.02      0.00 
    98.99     11.54      8.95      1.61     -0.01      0.02      0.41 
    99.00     11.54      8.95      1.61     -0.01      0.02      0.41 
    99.01     11.54      8.95      1.61     -0.01      0.02      0.41 
    99.02     11.54      8.95      1.61     -0.00      0.01      0.41 
    99.03     11.54      8.95      1.61     -0.01      0.02      0.41 
    99.04     11.54      8.96      1.62     -0.01      0.02      0.41 
    99.05     11.54      8.96      1.62     -0.01      0.02      0.41 
    99.06     11.54      8.95      1.61     -0.01      0.02      0.41 
    99.07     11.54      8.95      1.61     -0.01      0.02      0.41 
    99.08     11.54      8.95      1.61     -0.01      0.02      0.41 
    99.09     11.54      8.95      1.61     -0.01      0.02      0.41 
    99.10     11.54      8.95      1.61     -0.00      0.01      0.76 
    99.11     11.54      8.95      1.61     -0.00      0.01      0.76 
    99.12     11.54      8.95      1.61     -0.00      0.01      0.76 
