#Written by Robertson Geologging WinLogger V1.0/370
~VERSION INFORMATION
#------------------------------------------------------------------------------
 VERS. 2.0 : CWLS LOG ASCII STANDARD - VERSION 2.0
 WRAP. NO  : ONE LINE PER DEPTH STEP
~WELL INFORMATION
#MNEM.UNIT         DATA                                DESCRIPTION OF MNEMONIC
#------------------------------------------------------------------------------
 STRT.M         72.0100                            :   START DEPTH
 STOP.M        461.6800                            :   STOP DEPTH
 STEP.M          0.0100                            :   STEP VALUE
 NULL.        -999.2500                            :   NULL VALUE
 COMP.    White Young Gteen                        :   COMPANY NAME
 WELL.    Easington  Shaft                         :   WELL NAME
 FLD.     Easington                                :   FIELD NAME
 LOC.     N/A                                      :   LOCATION
 PROV.    N/A                                      :   PROVINCE
 SRVC.    N/A                                      :   SERVICE COMPANY NAME
 DATE.    04 Oct 05                                :   DATE
 UWI.     N/A                                      :   UNIQUE WELL IDENTIFIER
~PARAMETER INFORMATION
#MNEMO.UNIT         VALUE                 DESCRIPTION OF MNEMONIC
#------------------------------------------------------------------------------
~OTHER INFORMATION SECTION
#------------------------------------------------------------------------------
 TCGS1365
~CURVE INFORMATION
#MNEMO.UNIT         API CODE              CURVE DESCRIPTION
#------------------------------------------------------------------------------
 DEPTH.M                                 :   0     Depth
 TEMP.DegC                               :   1     Temperature
 CN25.mS/cm                              :   2     Conductivity@25DegC
 COND.mS/cm                              :   3     Conductivity
 DELT.DegC                               :   4     Delta T
 DELC.mS/cm                              :   5     Delta C
 NGAM.CPS                                :   6     Natural Gamma
#------------------------------------------------------------------------------
~A  DEPTH     TEMP      CN25      COND      DELT      DELC      NGAM      
# ...
   330.78     17.95     74.28     63.82      0.00     -0.01      1.59 
   330.79     17.95     74.28     63.82      0.01     -0.01      2.00 
   330.80     17.95     74.27     63.82      0.01     -0.02      2.00 
   330.81     17.95     74.27     63.82      0.01     -0.03      2.00 
   330.82     17.96     74.26     63.82      0.01     -0.04      2.00 
   330.83     17.96     74.26     63.83      0.01     -0.04      1.59 
   330.84     17.96     74.25     63.83      0.01     -0.04      2.00 
   330.85     17.96     74.25     63.83      0.01     -0.03      2.82 
   330.86     17.96     74.25     63.83      0.01     -0.03      2.47 
   330.87     17.96     74.25     63.83      0.01     -0.02      2.47 
   330.88     17.96     74.26     63.83      0.00     -0.01      2.47 
   330.89     17.95     74.27     63.83     -0.00      0.01      2.47 
   330.90     17.95     74.28     63.83     -0.00      0.02      2.47 
   330.91     17.95     74.29     63.83     -0.01      0.02      2.06 
   330.92     17.94     74.29     63.83     -0.01      0.03      2.06 
   330.93     17.94     74.29     63.83     -0.01      0.03      2.41 
   330.94     17.94     74.29     63.83     -0.00      0.02      2.41 
   330.95     17.95     74.29     63.83     -0.00      0.02      3.24 
   330.96     17.95     74.29     63.83      0.00      0.01      2.82 
   330.97     17.95     74.29     63.83      0.00      0.01      3.24 
   330.98     17.95     74.28     63.83      0.00      0.01      3.24 
   330.99     17.95     74.28     63.83      0.00      0.00      3.24 
   331.00     17.95     74.28     63.83      0.00      0.00      3.24 
   331.01     17.95     74.28     63.83      0.00      0.00      3.24 
   331.02     17.95     74.28     63.83      0.00      0.01      2.41 
   331.03     17.95     74.29     63.83      0.00      0.00      2.41 
   331.04     17.94     74.29     63.82     -0.00      0.01      2.76 
   331.05     17.94     74.30     63.83     -0.00      0.01      2.35 
   331.06     17.94     74.30     63.82     -0.00      0.01      2.35 
   331.07     17.94     74.31     63.83     -0.01      0.03      2.35 
   331.08     17.93     74.32     63.82     -0.01      0.02      2.35 
   331.09     17.93     74.33     63.82     -0.01      0.02      2.35 
   331.10     17.93     74.33     63.83     -0.01      0.02      2.00 
   331.11     17.93     74.33     63.83     -0.01      0.02      2.00 
   331.12     17.93     74.33     63.83     -0.00      0.01      1.18 
   331.13     17.93     74.32     63.83     -0.00      0.01      1.18 
   331.14     17.93     74.32     63.83     -0.00      0.01      0.76 
   331.15     17.93     74.32     63.83     -0.00      0.01      0.76 
   331.16     17.94     74.32     63.83     -0.00      0.01      0.76 
   331.17     17.94     74.31     63.83     -0.00      0.02      0.76 
   331.18     17.94     74.31     63.83     -0.01      0.03      0.35 
   331.19     17.94     74.31     63.83     -0.01      0.04      0.71 
   331.20     17.94     74.31     63.83     -0.02      0.05      0.71 
   331.21     17.94     74.31     63.83     -0.02      0.05      0.35 
   331.22     17.94     74.30     63.83     -0.01      0.05      0.35 
   331.23     17.94     74.30     63.83     -0.01      0.05      0.35 
   331.24     17.94     74.30     63.83     -0.01      0.04      0.35 
   331.25     17.95     74.29     63.83     -0.01      0.04      0.76 
   331.26     17.95     74.28     63.83     -0.01      0.03      0.76 
   331.27     17.95     74.28     63.83     -0.01      0.03      0.76 
   331.28     17.95     74.27     63.83     -0.00      0.02      1.18 
   331.29     17.96     74.27     63.83      0.00      0.01      1.53 
   331.30     17.96     74.26     63.83      0.00      0.00      1.53 
   331.31     17.96     74.26     63.83      0.00      0.00      1.94 
   331.32     17.96     74.26     63.83      0.00      0.00      1.94 
   331.33     17.95     74.27     63.83      0.00      0.01      1.94 
   331.34     17.95     74.26     63.82      0.00     -0.00      1.94 
   331.35     17.95     74.26     63.82      0.00     -0.01      1.94 
   331.36     17.95     74.27     63.82      0.00     -0.02      1.59 
   331.37     17.95     74.28     63.82      0.01     -0.02      1.94 
   331.38     17.95     74.29     63.83      0.00     -0.01      1.94 
   331.39     17.94     74.29     63.83      0.00     -0.00      1.94 
   331.40     17.94     74.30     63.82      0.00     -0.00      1.94 
   331.41     17.94     74.29     63.83      0.00     -0.01      1.94 
   331.42     17.94     74.29     63.83      0.01     -0.02      1.53 
   331.43     17.94     74.29     63.83      0.01     -0.02      1.53 
   331.44     17.94     74.30     63.82      0.01     -0.01      1.53 
   331.45     17.94     74.31     63.83      0.00      0.00      1.12 
   331.46     17.94     74.31     63.83     -0.00      0.01      0.76 
   331.47     17.94     74.32     63.83     -0.01      0.02      1.12 
   331.48     17.94     74.32     63.83     -0.01      0.03      0.71 
   331.49     17.94     74.31     63.83     -0.01      0.02      0.71 
   331.50     17.94     74.32     63.83     -0.01      0.02      0.71 
   331.51     17.94     74.32     63.83     -0.01      0.02      0.71 
   331.52     17.94     74.32     63.83     -0.01      0.02      0.71 
   331.53     17.93     74.32     63.83     -0.01      0.03      1.12 
   331.54     17.93     74.32     63.83     -0.01      0.03      0.76 
   331.55     17.93     74.32     63.83     -0.01      0.03      0.76 
   331.56     17.94     74.32     63.83     -0.01      0.03      1.12 
   331.57     17.94     74.32     63.83     -0.01      0.03      1.12 
   331.58     17.94     74.31     63.83     -0.01      0.03      1.12 
   331.59     17.94     74.31     63.83     -0.01      0.04      1.53 
   331.60     17.94     74.31     63.83     -0.01      0.05      1.53 
   331.61     17.94     74.31     63.83     -0.01      0.04      1.53 
   331.62     17.94     74.31     63.83     -0.01      0.04      1.53 
   331.63     17.94     74.30     63.83     -0.01      0.05      1.53 
   331.64     17.94     74.30     63.83     -0.01      0.05      1.18 
   331.65     17.94     74.29     63.83     -0.01      0.05      1.18 
   331.66     17.95     74.29     63.83     -0.01      0.04      1.18 
   331.67     17.94     74.29     63.83     -0.01      0.04      1.18 
   331.68     17.94     74.29     63.82     -0.01      0.04      1.18 
   331.69     17.94     74.30     63.83     -0.01      0.04      1.18 
   331.70     17.94     74.31     63.83     -0.01      0.03      0.76 
   331.71     17.94     74.31     63.83     -0.01      0.03      0.76 
   331.72     17.94     74.31     63.83     -0.00      0.02      0.76 
   331.73     17.94     74.31     63.83     -0.00      0.02      0.41 
   331.74     17.94     74.31     63.83     -0.01      0.02      0.41 
   331.75     17.94     74.31     63.83     -0.01      0.02      0.41 
   331.76     17.94     74.31     63.83     -0.01      0.03      0.00 
   331.77     17.94     74.31     63.83     -0.01      0.03      0.41 
   331.78     17.94     74.31     63.83     -0.01      0.03      0.41 
   331.79     17.94     74.32     63.83     -0.01      0.04      0.41 
   331.80     17.94     74.31     63.83     -0.01      0.05      0.41 
   331.81     17.94     74.31     63.83     -0.02      0.05      0.41 
   331.82     17.94     74.30     63.83     -0.02      0.05      0.41 
   331.83     17.94     74.31     63.83     -0.02      0.05      0.41 
   331.84     17.94     74.31     63.83     -0.02      0.06      0.41 
   331.85     17.94     74.31     63.83     -0.02      0.06      0.41 
   331.86     17.94     74.31     63.83     -0.02      0.06      0.41 
   331.87     17.94     74.32     63.83     -0.02      0.06      0.41 
   331.88     17.94     74.32     63.83     -0.01      0.05      0.41 
   331.89     17.94     74.31     63.83     -0.01      0.03      0.41 
   331.90     17.94     74.31     63.83     -0.00      0.02      0.41 
