#Written by Robertson Geologging WinLogger V1.0/370
~VERSION INFORMATION
#------------------------------------------------------------------------------
 VERS. 2.0 : CWLS LOG ASCII STANDARD - VERSION 2.0
 WRAP. NO  : ONE LINE PER DEPTH STEP
~WELL INFORMATION
#MNEM.UNIT         DATA                                DESCRIPTION OF MNEMONIC
#------------------------------------------------------------------------------
 STRT.M         72.0100                            :   START DEPTH
 STOP.M        461.6800                            :   STOP DEPTH
 STEP.M          0.0100                            :   STEP VALUE
 NULL.        -999.2500                            :   NULL VALUE
 COMP.    White Young Gteen                        :   COMPANY NAME
 WELL.    Easington  Shaft                         :   WELL NAME
 FLD.     Easington                                :   FIELD NAME
 LOC.     N/A                                      :   LOCATION
 PROV.    N/A                                      :   PROVINCE
 SRVC.    N/A                                      :   SERVICE COMPANY NAME
 DATE.    04 Oct 05                                :   DATE
 UWI.     N/A                                      :   UNIQUE WELL IDENTIFIER
~PARAMETER INFORMATION
#MNEMO.UNIT         VALUE                 DESCRIPTION OF MNEMONIC
#------------------------------------------------------------------------------
~OTHER INFORMATION SECTION
#------------------------------------------------------------------------------
 TCGS1365
~CURVE INFORMATION
#MNEMO.UNIT         API CODE              CURVE DESCRIPTION
#------------------------------------------------------------------------------
 DEPTH.M                                 :   0     Depth
 TEMP.DegC                               :   1     Temperature
 CN25.mS/cm                              :   2     Conductivity@25DegC
 COND.mS/cm                              :   3     Conductivity
 DELT.DegC                               :   4     Delta T
 DELC.mS/cm                              :   5     Delta C
 NGAM.CPS                                :   6     Natural Gamma
#------------------------------------------------------------------------------
~A  DEPTH     TEMP      CN25      COND      DELT      DELC      NGAM      
# ...
   123.99     11.65      9.04      1.76      0.00      0.00      0.00 
   124.00     11.65      9.04      1.76      0.00     -0.00      0.00 
   124.01     11.65      9.04      1.76     -0.00     -0.00      0.00 
   124.02     11.65      9.04      1.76      0.00     -0.00      0.00 
   124.03     11.65      9.04      1.76      0.00     -0.00      0.00 
   124.04     11.65      9.04      1.76      0.00     -0.00      0.00 
   124.05     11.65      9.04      1.76      0.00     -0.00      0.00 
   124.06     11.65      9.04      1.76      0.01     -0.01      0.00 
   124.07     11.66      9.04      1.76      0.01     -0.01      0.00 
   124.08     11.66      9.04      1.76      0.01     -0.01      0.00 
   124.09     11.66      9.04      1.76      0.01     -0.01      0.00 
   124.10     11.66      9.04      1.76      0.01     -0.01      0.00 
   124.11     11.65      9.04      1.76      0.00     -0.00      0.00 
   124.12     11.66      9.04      1.76      0.01     -0.01      0.00 
   124.13     11.66      9.03      1.76      0.01     -0.01      0.00 
   124.14     11.66      9.03      1.76      0.01     -0.01      0.00 
   124.15     11.66      9.03      1.76      0.01     -0.01      0.00 
   124.16     11.66      9.04      1.76      0.01     -0.01      0.00 
   124.17     11.65      9.04      1.76      0.00     -0.00      0.00 
   124.18     11.65      9.04      1.76      0.00     -0.00      0.00 
   124.19     11.66      9.04      1.76      0.00     -0.00      0.00 
   124.20     11.66      9.03      1.76      0.00     -0.00      0.00 
   124.21     11.66      9.03      1.76      0.00     -0.00      0.00 
   124.22     11.66      9.03      1.76      0.00     -0.00      0.00 
   124.23     11.66      9.04      1.76      0.00      0.00      0.00 
   124.24     11.65      9.04      1.76     -0.00      0.00      0.00 
   124.25     11.65      9.04      1.76     -0.00      0.00      0.00 
   124.26     11.65      9.04      1.76     -0.01      0.01      0.00 
   124.27     11.65      9.04      1.76     -0.01      0.01      0.00 
   124.28     11.65      9.04      1.76     -0.01      0.01      0.00 
   124.29     11.65      9.04      1.76     -0.01      0.01      0.00 
   124.30     11.65      9.04      1.76     -0.01      0.01      0.00 
   124.31     11.65      9.04      1.76     -0.00      0.00      0.00 
   124.32     11.65      9.04      1.76     -0.00      0.00      0.00 
   124.33     11.65      9.04      1.76      0.00     -0.00      0.00 
   124.34     11.65      9.04      1.76      0.00     -0.00      0.00 
   124.35     11.65      9.04      1.76      0.00     -0.00      0.00 
   124.36     11.65      9.03      1.76      0.00     -0.00      0.00 
   124.37     11.66      9.03      1.76      0.01     -0.01      0.00 
   124.38     11.66      9.03      1.76      0.01     -0.01      0.00 
   124.39     11.66      9.03      1.76      0.01     -0.01      0.00 
   124.40     11.66      9.03      1.76      0.01     -0.01      0.00 
   124.41     11.66      9.03      1.76      0.00     -0.01      0.00 
   124.42     11.66      9.03      1.76      0.00      0.00      0.00 
   124.43     11.66      9.03      1.76     -0.00      0.00      0.00 
   124.44     11.66      9.04      1.76     -0.01      0.01      0.00 
   124.45     11.66      9.04      1.76     -0.01      0.01      0.00 
   124.46     11.65      9.04      1.76     -0.01      0.01      0.00 
   124.47     11.65      9.04      1.76     -0.01      0.01      0.00 
   124.48     11.65      9.04      1.76     -0.01      0.01      0.00 
   124.49     11.65      9.04      1.76     -0.01      0.01      0.00 
   124.50     11.65      9.04      1.76     -0.01      0.01      0.00 
   124.51     11.65      9.04      1.76     -0.01      0.01      0.00 
   124.52     11.65      9.04      1.76     -0.01      0.01      0.00 
   124.53     11.65      9.04      1.76     -0.00      0.00      0.00 
   124.54     11.65      9.04      1.76      0.00     -0.00      0.00 
   124.55     11.65      9.04      1.76      0.01     -0.01      0.00 
   124.56     11.66      9.03      1.76      0.01     -0.01      0.00 
   124.57     11.66      9.03      1.76      0.01     -0.01      0.00 
   124.58     11.66      9.03      1.76      0.01     -0.01      0.00 
   124.59     11.66      9.03      1.76      0.01     -0.01      0.41 
   124.60     11.66      9.04      1.76      0.01     -0.01      0.41 
   124.61     11.66      9.04      1.76      0.01     -0.01      0.41 
   124.62     11.66      9.03      1.76      0.01     -0.01      0.41 
   124.63     11.66      9.03      1.76      0.01     -0.01      0.41 
   124.64     11.66      9.03      1.76      0.00     -0.00      0.41 
   124.65     11.66      9.03      1.76      0.00      0.00      0.41 
   124.66     11.66      9.04      1.76     -0.00      0.00      0.41 
   124.67     11.65      9.04      1.76     -0.00      0.00      0.41 
   124.68     11.65      9.04      1.76     -0.00      0.00      0.41 
   124.69     11.65      9.03      1.76     -0.00     -0.00      0.41 
   124.70     11.65      9.03      1.76     -0.00     -0.00      0.41 
   124.71     11.65      9.04      1.76     -0.00      0.00      0.41 
   124.72     11.65      9.04      1.76      0.00     -0.00      0.41 
   124.73     11.65      9.04      1.76      0.00     -0.01      0.41 
   124.74     11.65      9.04      1.76      0.00     -0.01      0.41 
   124.75     11.65      9.04      1.76      0.00     -0.01      0.41 
   124.76     11.65      9.04      1.76      0.01     -0.01      0.00 
   124.77     11.65      9.04      1.76      0.01     -0.01      0.00 
   124.78     11.65      9.04      1.76      0.01     -0.01      0.00 
   124.79     11.65      9.04      1.76      0.00     -0.00      0.00 
   124.80     11.65      9.04      1.76      0.01     -0.00      0.00 
   124.81     11.65      9.04      1.76      0.01     -0.01      0.00 
   124.82     11.65      9.03      1.76      0.01     -0.00      0.00 
   124.83     11.65      9.04      1.76      0.00      0.00      0.00 
   124.84     11.66      9.04      1.76      0.00      0.00      0.00 
   124.85     11.66      9.04      1.76      0.00      0.00      0.00 
   124.86     11.66      9.04      1.76     -0.00      0.01      0.00 
   124.87     11.66      9.03      1.76     -0.00      0.01      0.00 
   124.88     11.66      9.03      1.76     -0.00      0.01      0.00 
   124.89     11.66      9.04      1.76     -0.00      0.00      0.00 
   124.90     11.65      9.04      1.76     -0.00      0.00      0.00 
   124.91     11.65      9.04      1.76     -0.00      0.01      0.00 
   124.92     11.65      9.04      1.76     -0.01      0.01      0.00 
   124.93     11.65      9.04      1.76     -0.01      0.00      0.00 
   124.94     11.65      9.04      1.76     -0.00      0.00      0.00 
   124.95     11.65      9.04      1.76     -0.00      0.00      0.00 
   124.96     11.65      9.04      1.76     -0.00      0.00      0.00 
   124.97     11.65      9.05      1.76     -0.00      0.00      0.00 
   124.98     11.64      9.05      1.76     -0.00      0.00      0.00 
   124.99     11.64      9.05      1.76     -0.01      0.01      0.00 
   125.00     11.64      9.05      1.76     -0.01      0.01      0.00 
   125.01     11.65      9.05      1.76     -0.00      0.00      0.00 
   125.02     11.65      9.04      1.76     -0.00      0.00      0.00 
   125.03     11.65      9.04      1.76      0.00     -0.00      0.00 
   125.04     11.65      9.04      1.76     -0.00      0.00      0.00 
   125.05     11.65      9.04      1.76     -0.00      0.00      0.00 
   125.06     11.65      9.04      1.76     -0.00      0.00      0.00 
   125.07     11.65      9.04      1.76     -0.00      0.00      0.00 
   125.08     11.65      9.04      1.76     -0.00      0.00      0.00 
   125.09     11.65      9.04      1.76     -0.00      0.00      0.00 
   125.10     11.66      9.04      1.76      0.00     -0.00      0.00 
   125.11     11.66      9.03      1.76      0.00     -0.00      0.00 
