#Written by Robertson Geologging WinLogger V1.0/370
~VERSION INFORMATION
#------------------------------------------------------------------------------
 VERS. 2.0 : CWLS LOG ASCII STANDARD - VERSION 2.0
 WRAP. NO  : ONE LINE PER DEPTH STEP
~WELL INFORMATION
#MNEM.UNIT         DATA                                DESCRIPTION OF MNEMONIC
#------------------------------------------------------------------------------
 STRT.M         72.0100                            :   START DEPTH
 STOP.M        461.6800                            :   STOP DEPTH
 STEP.M          0.0100                            :   STEP VALUE
 NULL.        -999.2500                            :   NULL VALUE
 COMP.    White Young Gteen                        :   COMPANY NAME
 WELL.    Easington  Shaft                         :   WELL NAME
 FLD.     Easington                                :   FIELD NAME
 LOC.     N/A                                      :   LOCATION
 PROV.    N/A                                      :   PROVINCE
 SRVC.    N/A                                      :   SERVICE COMPANY NAME
 DATE.    04 Oct 05                                :   DATE
 UWI.     N/A                                      :   UNIQUE WELL IDENTIFIER
~PARAMETER INFORMATION
#MNEMO.UNIT         VALUE                 DESCRIPTION OF MNEMONIC
#------------------------------------------------------------------------------
~OTHER INFORMATION SECTION
#------------------------------------------------------------------------------
 TCGS1365
~CURVE INFORMATION
#MNEMO.UNIT         API CODE              CURVE DESCRIPTION
#------------------------------------------------------------------------------
 DEPTH.M                                 :   0     Depth
 TEMP.DegC                               :   1     Temperature
 CN25.mS/cm                              :   2     Conductivity@25DegC
 COND.mS/cm                              :   3     Conductivity
 DELT.DegC                               :   4     Delta T
 DELC.mS/cm                              :   5     Delta C
 NGAM.CPS                                :   6     Natural Gamma
#------------------------------------------------------------------------------
~A  DEPTH     TEMP      CN25      COND      DELT      DELC      NGAM      
# ...
   460.73     20.13     87.19     81.08      0.01     -0.03      4.88 
   460.74     20.13     87.18     81.08      0.01     -0.05      4.88 
   460.75     20.13     87.17     81.08      0.01     -0.06      4.88 
   460.76     20.13     87.18     81.08      0.01     -0.05      4.47 
   460.77     20.13     87.18     81.08      0.01     -0.05      4.88 
   460.78     20.13     87.19     81.08      0.01     -0.04      4.88 
   460.79     20.13     87.20     81.08      0.00     -0.02      4.88 
   460.80     20.12     87.21     81.08     -0.00     -0.00      6.18 
   460.81     20.12     87.23     81.08     -0.01      0.02      5.35 
   460.82     20.12     87.23     81.08     -0.01      0.03      4.53 
   460.83     20.11     87.25     81.08     -0.01      0.04      4.53 
   460.84     20.11     87.26     81.08     -0.02      0.05      4.12 
   460.85     20.10     87.28     81.08     -0.02      0.06      4.94 
   460.86     20.10     87.28     81.08     -0.02      0.06      4.94 
   460.87     20.10     87.29     81.08     -0.02      0.07      4.94 
   460.88     20.10     87.30     81.08     -0.03      0.08      5.35 
   460.89     20.09     87.31     81.08     -0.03      0.09      5.76 
   460.90     20.09     87.31     81.08     -0.03      0.09      4.94 
   460.91     20.09     87.31     81.08     -0.03      0.08      4.94 
   460.92     20.09     87.31     81.08     -0.02      0.07      5.35 
   460.93     20.10     87.30     81.08     -0.02      0.06      5.76 
   460.94     20.10     87.28     81.08     -0.02      0.05      5.35 
   460.95     20.11     87.27     81.08     -0.02      0.04      6.41 
   460.96     20.11     87.26     81.08     -0.02      0.05      6.82 
   460.97     20.11     87.25     81.08     -0.02      0.06      5.18 
   460.98     20.11     87.24     81.08     -0.02      0.04      5.18 
   460.99     20.11     87.24     81.08     -0.01      0.03      5.18 
   461.00     20.11     87.24     81.08     -0.01      0.02      5.18 
   461.01     20.11     87.24     81.08     -0.01      0.02      5.18 
   461.02     20.11     87.25     81.08     -0.01      0.03      4.35 
   461.03     20.11     87.25     81.07     -0.01      0.03      4.35 
   461.04     20.11     87.25     81.07     -0.02      0.03      4.76 
   461.05     20.11     87.25     81.07     -0.02      0.03      4.35 
   461.06     20.11     87.26     81.07     -0.02      0.03      4.35 
   461.07     20.10     87.27     81.07     -0.01      0.03      4.35 
   461.08     20.10     87.27     81.07     -0.01      0.03      4.76 
   461.09     20.10     87.29     81.08     -0.02      0.05      4.35 
   461.10     20.10     87.30     81.08     -0.02      0.07      3.94 
   461.11     20.10     87.30     81.08     -0.03      0.08      4.35 
   461.12     20.10     87.30     81.08     -0.03      0.09      3.29 
   461.13     20.10     87.29     81.08     -0.03      0.10      2.88 
   461.14     20.10     87.29     81.08     -0.03      0.11      3.59 
   461.15     20.10     87.29     81.08     -0.03      0.11      3.59 
   461.16     20.10     87.29     81.08     -0.04      0.11      3.59 
   461.17     20.10     87.28     81.08     -0.03      0.10      4.00 
   461.18     20.11     87.27     81.08     -0.03      0.09      3.59 
   461.19     20.11     87.26     81.08     -0.03      0.08      3.59 
   461.20     20.11     87.25     81.08     -0.02      0.06      4.82 
   461.21     20.11     87.24     81.08     -0.02      0.05      4.41 
   461.22     20.12     87.24     81.08     -0.01      0.02      4.00 
   461.23     20.12     87.23     81.08     -0.00      0.00      3.59 
   461.24     20.12     87.23     81.08     -0.00     -0.00      3.59 
   461.25     20.12     87.23     81.08     -0.00     -0.01      3.18 
   461.26     20.11     87.24     81.08     -0.00      0.00      3.59 
   461.27     20.11     87.24     81.07     -0.01      0.00      4.00 
   461.28     20.11     87.25     81.07     -0.01      0.01      3.59 
   461.29     20.11     87.26     81.07     -0.01      0.03      3.59 
   461.30     20.10     87.26     81.07     -0.02      0.04      4.00 
   461.31     20.10     87.27     81.07     -0.02      0.06      3.71 
   461.32     20.10     87.27     81.07     -0.03      0.07      4.53 
   461.33     20.10     87.26     81.07     -0.03      0.09      4.53 
   461.34     20.10     87.26     81.07     -0.04      0.11      4.12 
   461.35     20.10     87.26     81.07     -0.04      0.11      4.53 
   461.36     20.11     87.26     81.07     -0.03      0.09      5.35 
   461.37     20.11     87.25     81.07     -0.03      0.07      4.12 
   461.38     20.11     87.25     81.07     -0.02      0.05      4.12 
   461.39     20.11     87.25     81.08     -0.02      0.05      4.12 
   461.40     20.11     87.25     81.08     -0.02      0.05      4.12 
   461.41     20.11     87.25     81.08     -0.02      0.04      4.53 
   461.42     20.11     87.25     81.08     -0.01      0.04      4.53 
   461.43     20.11     87.25     81.07     -0.01      0.02      4.53 
   461.44     20.11     87.24     81.07     -0.00      0.01      4.53 
   461.45     20.11     87.24     81.07      0.00     -0.01      4.94 
   461.46     20.12     87.22     81.07      0.00     -0.02      4.94 
   461.47     20.12     87.21     81.08      0.00     -0.02      5.35 
   461.48     20.12     87.21     81.08      0.00     -0.00      5.35 
   461.49     20.12     87.20     81.07     -0.00      0.00      4.94 
   461.50     20.13     87.20     81.07     -0.00     -0.00      4.94 
   461.51     20.13     87.20     81.07     -0.01     -0.00      4.94 
   461.52     20.13     87.19     81.07     -0.00     -0.01      4.94 
   461.53     20.13     87.19     81.07     -0.00     -0.01      4.53 
   461.54     20.13     87.19     81.07     -0.00     -0.00      4.53 
   461.55     20.13     87.19     81.07     -0.01     -0.00      4.94 
   461.56     20.12     87.20     81.07     -0.01      0.01      5.29 
   461.57     20.12     87.21     81.07     -0.01      0.01      5.29 
   461.58     20.12     87.21     81.07     -0.01      0.01      4.47 
   461.59     20.12     87.21     81.07     -0.01     -0.00      4.47 
   461.60     20.12     87.21     81.07     -0.00     -0.01      4.47 
   461.61     20.12     87.21     81.07     -0.00     -0.01      5.29 
   461.62     20.12     87.20     81.07      0.00     -0.02      5.29 
   461.63     20.12     87.20     81.07      0.00     -0.03      5.29 
   461.64     20.13     87.19     81.07      0.01     -0.03      4.88 
   461.65     20.13     87.18     81.07      0.01     -0.04      4.47 
   461.66     20.13     87.18     81.07      0.01     -0.04      4.06 
   461.67     20.13     87.17     81.07      0.01     -0.05      4.06 
   461.68     20.13     87.17     81.07      0.01     -0.05      4.06 
