#Written by Robertson Geologging WinLogger V1.0/370
~VERSION INFORMATION
#------------------------------------------------------------------------------
 VERS. 2.0 : CWLS LOG ASCII STANDARD - VERSION 2.0
 WRAP. NO  : ONE LINE PER DEPTH STEP
~WELL INFORMATION
#MNEM.UNIT         DATA                                DESCRIPTION OF MNEMONIC
#------------------------------------------------------------------------------
 STRT.M         72.0100                            :   START DEPTH
 STOP.M        461.6800                            :   STOP DEPTH
 STEP.M          0.0100                            :   STEP VALUE
 NULL.        -999.2500                            :   NULL VALUE
 COMP.    White Young Gteen                        :   COMPANY NAME
 WELL.    Easington  Shaft                         :   WELL NAME
 FLD.     Easington                                :   FIELD NAME
 LOC.     N/A                                      :   LOCATION
 PROV.    N/A                                      :   PROVINCE
 SRVC.    N/A                                      :   SERVICE COMPANY NAME
 DATE.    04 Oct 05                                :   DATE
 UWI.     N/A                                      :   UNIQUE WELL IDENTIFIER
~PARAMETER INFORMATION
#MNEMO.UNIT         VALUE                 DESCRIPTION OF MNEMONIC
#------------------------------------------------------------------------------
~OTHER INFORMATION SECTION
#------------------------------------------------------------------------------
 TCGS1365
~CURVE INFORMATION
#MNEMO.UNIT         API CODE              CURVE DESCRIPTION
#------------------------------------------------------------------------------
 DEPTH.M                                 :   0     Depth
 TEMP.DegC                               :   1     Temperature
 CN25.mS/cm                              :   2     Conductivity@25DegC
 COND.mS/cm                              :   3     Conductivity
 DELT.DegC                               :   4     Delta T
 DELC.mS/cm                              :   5     Delta C
 NGAM.CPS                                :   6     Natural Gamma
#------------------------------------------------------------------------------
~A  DEPTH     TEMP      CN25      COND      DELT      DELC      NGAM      
# ...
   408.75     19.16     85.75     77.01      0.01     -0.03      0.41 
   408.76     19.16     85.74     77.01      0.01     -0.03      0.41 
   408.77     19.16     85.74     77.01      0.01     -0.04      0.41 
   408.78     19.16     85.74     77.00      0.01     -0.05      0.82 
   408.79     19.16     85.74     77.01      0.01     -0.04      0.82 
   408.80     19.16     85.75     77.00      0.01     -0.03      0.82 
   408.81     19.15     85.75     77.01      0.00     -0.02      0.82 
   408.82     19.16     85.75     77.00      0.00     -0.02      0.82 
   408.83     19.16     85.74     77.01      0.00     -0.02      0.41 
   408.84     19.16     85.74     77.01      0.00     -0.01      0.41 
   408.85     19.16     85.74     77.00     -0.00     -0.01      0.41 
   408.86     19.15     85.75     77.00     -0.01      0.01      0.41 
   408.87     19.15     85.75     77.00     -0.01      0.02      0.41 
   408.88     19.15     85.76     77.00     -0.02      0.04      0.82 
   408.89     19.15     85.76     77.00     -0.02      0.05      0.82 
   408.90     19.15     85.75     77.00     -0.02      0.06      1.24 
   408.91     19.15     85.75     77.00     -0.02      0.05      1.24 
   408.92     19.16     85.74     77.00     -0.02      0.04      1.65 
   408.93     19.16     85.74     77.00     -0.01      0.03      1.65 
   408.94     19.16     85.74     77.00     -0.01      0.02      2.06 
   408.95     19.16     85.74     77.00     -0.01      0.02      2.12 
   408.96     19.16     85.74     77.00     -0.01      0.02      2.12 
   408.97     19.15     85.75     77.00     -0.01      0.02      2.12 
   408.98     19.15     85.76     77.01     -0.01      0.02      2.12 
   408.99     19.15     85.76     77.00     -0.01      0.02      2.12 
   409.00     19.15     85.76     77.00     -0.01      0.02      2.12 
   409.01     19.15     85.76     77.00     -0.01      0.02      2.53 
   409.02     19.15     85.76     77.00     -0.01      0.02      2.53 
   409.03     19.15     85.75     77.00     -0.01      0.02      2.53 
   409.04     19.15     85.75     77.00     -0.01      0.02      2.53 
   409.05     19.15     85.75     77.00     -0.01      0.03      2.12 
   409.06     19.15     85.77     77.01     -0.01      0.04      2.53 
   409.07     19.15     85.76     77.00     -0.01      0.04      2.53 
   409.08     19.15     85.76     77.00     -0.01      0.03      2.53 
   409.09     19.15     85.75     77.00     -0.01      0.03      2.12 
   409.10     19.16     85.75     77.00     -0.01      0.02      2.12 
   409.11     19.16     85.75     77.01     -0.01      0.02      1.71 
   409.12     19.16     85.75     77.00     -0.01      0.02      1.24 
   409.13     19.15     85.75     77.00     -0.01      0.02      1.24 
   409.14     19.15     85.75     77.01     -0.01      0.03      1.24 
   409.15     19.15     85.75     77.00     -0.01      0.02      1.24 
   409.16     19.15     85.76     77.00     -0.01      0.02      1.24 
   409.17     19.15     85.76     77.00     -0.01      0.02      1.24 
   409.18     19.15     85.76     77.00     -0.01      0.02      0.82 
   409.19     19.15     85.77     77.00     -0.01      0.02      0.82 
   409.20     19.14     85.78     77.00     -0.01      0.02      0.82 
   409.21     19.14     85.78     77.00     -0.01      0.03      0.82 
   409.22     19.14     85.78     77.00     -0.01      0.02      0.82 
   409.23     19.14     85.79     77.00     -0.01      0.02      0.41 
   409.24     19.14     85.79     77.00     -0.01      0.02      0.00 
   409.25     19.14     85.79     77.00     -0.01      0.02      0.00 
   409.26     19.14     85.79     77.00     -0.01      0.02      0.00 
   409.27     19.14     85.79     77.00     -0.01      0.01      0.41 
   409.28     19.14     85.78     77.00     -0.00      0.01      0.41 
   409.29     19.14     85.78     77.00     -0.00      0.00      0.88 
   409.30     19.15     85.78     77.00     -0.00     -0.00      0.88 
   409.31     19.15     85.77     77.00      0.00     -0.01      0.88 
   409.32     19.15     85.76     77.00      0.00     -0.01      0.88 
   409.33     19.15     85.76     77.00      0.00     -0.01      0.88 
   409.34     19.15     85.75     77.00      0.00     -0.02      0.88 
   409.35     19.16     85.75     77.00      0.00     -0.01      0.88 
   409.36     19.16     85.74     77.00      0.00     -0.02      0.88 
   409.37     19.16     85.74     77.00      0.00     -0.02      0.88 
   409.38     19.16     85.74     77.00      0.00     -0.01      0.88 
   409.39     19.16     85.74     77.00      0.00     -0.01      0.88 
   409.40     19.16     85.74     77.00      0.00     -0.01      1.29 
   409.41     19.16     85.73     77.00      0.00     -0.02      1.29 
   409.42     19.16     85.73     77.00      0.00     -0.02      1.71 
   409.43     19.16     85.72     77.00      0.01     -0.02      1.71 
   409.44     19.16     85.72     77.00      0.01     -0.03      1.71 
   409.45     19.16     85.73     77.00      0.00     -0.01      2.12 
   409.46     19.16     85.72     77.00      0.00     -0.01      2.06 
   409.47     19.16     85.73     77.00     -0.00     -0.00      2.06 
   409.48     19.16     85.72     77.00     -0.00     -0.01      2.06 
   409.49     19.16     85.71     77.00      0.00     -0.01      2.06 
   409.50     19.16     85.71     77.00     -0.00     -0.01      2.47 
   409.51     19.16     85.72     77.00     -0.00     -0.00      2.47 
   409.52     19.16     85.73     77.00     -0.01      0.02      2.47 
   409.53     19.16     85.73     77.00     -0.01      0.02      2.47 
   409.54     19.15     85.74     77.00     -0.01      0.03      2.47 
   409.55     19.15     85.75     77.00     -0.01      0.03      2.47 
   409.56     19.15     85.74     77.00     -0.01      0.02      2.47 
   409.57     19.15     85.74     77.00     -0.01      0.00      2.06 
   409.58     19.15     85.74     77.00     -0.00      0.00      2.06 
   409.59     19.15     85.75     77.00     -0.00      0.01      1.65 
   409.60     19.16     85.74     77.00     -0.00      0.00      1.65 
   409.61     19.16     85.73     77.00      0.00     -0.01      1.24 
   409.62     19.16     85.72     77.00      0.01     -0.02      0.82 
   409.63     19.16     85.72     77.00      0.01     -0.03      0.82 
   409.64     19.16     85.72     77.00      0.01     -0.04      0.82 
   409.65     19.16     85.72     77.00      0.01     -0.04      1.24 
   409.66     19.16     85.72     77.00      0.01     -0.04      1.24 
   409.67     19.16     85.72     77.00      0.01     -0.03      0.82 
   409.68     19.16     85.73     77.00      0.00     -0.02      1.24 
   409.69     19.16     85.73     77.00      0.00     -0.02      1.65 
   409.70     19.16     85.73     77.00      0.00     -0.02      1.65 
   409.71     19.16     85.74     77.00      0.00     -0.02      2.12 
   409.72     19.15     85.75     77.00      0.00     -0.01      2.12 
   409.73     19.15     85.76     77.00     -0.00     -0.00      2.12 
   409.74     19.15     85.76     77.00     -0.01      0.01      2.12 
   409.75     19.15     85.76     77.00     -0.01      0.01      2.12 
   409.76     19.15     85.75     77.00     -0.00      0.01      2.12 
   409.77     19.16     85.74     77.00     -0.00      0.00      2.12 
   409.78     19.16     85.73     77.00      0.00     -0.01      2.12 
   409.79     19.16     85.72     77.00      0.01     -0.03      2.12 
   409.80     19.16     85.72     77.00      0.01     -0.04      2.12 
   409.81     19.16     85.71     76.99      0.01     -0.04      2.12 
   409.82     19.16     85.71     77.00      0.01     -0.03      1.71 
   409.83     19.16     85.71     77.00      0.01     -0.03      1.71 
   409.84     19.16     85.71     77.00      0.01     -0.03      1.71 
   409.85     19.16     85.70     76.99      0.01     -0.04      1.29 
   409.86     19.16     85.71     77.00      0.01     -0.04      0.88 
   409.87     19.16     85.71     77.00      0.01     -0.04      1.29 
