#Written by Robertson Geologging WinLogger V1.0/370
~VERSION INFORMATION
#------------------------------------------------------------------------------
 VERS. 2.0 : CWLS LOG ASCII STANDARD - VERSION 2.0
 WRAP. NO  : ONE LINE PER DEPTH STEP
~WELL INFORMATION
#MNEM.UNIT         DATA                                DESCRIPTION OF MNEMONIC
#------------------------------------------------------------------------------
 STRT.M         72.0100                            :   START DEPTH
 STOP.M        461.6800                            :   STOP DEPTH
 STEP.M          0.0100                            :   STEP VALUE
 NULL.        -999.2500                            :   NULL VALUE
 COMP.    White Young Gteen                        :   COMPANY NAME
 WELL.    Easington  Shaft                         :   WELL NAME
 FLD.     Easington                                :   FIELD NAME
 LOC.     N/A                                      :   LOCATION
 PROV.    N/A                                      :   PROVINCE
 SRVC.    N/A                                      :   SERVICE COMPANY NAME
 DATE.    04 Oct 05                                :   DATE
 UWI.     N/A                                      :   UNIQUE WELL IDENTIFIER
~PARAMETER INFORMATION
#MNEMO.UNIT         VALUE                 DESCRIPTION OF MNEMONIC
#------------------------------------------------------------------------------
~OTHER INFORMATION SECTION
#------------------------------------------------------------------------------
 TCGS1365
~CURVE INFORMATION
#MNEMO.UNIT         API CODE              CURVE DESCRIPTION
#------------------------------------------------------------------------------
 DEPTH.M                                 :   0     Depth
 TEMP.DegC                               :   1     Temperature
 CN25.mS/cm                              :   2     Conductivity@25DegC
 COND.mS/cm                              :   3     Conductivity
 DELT.DegC                               :   4     Delta T
 DELC.mS/cm                              :   5     Delta C
 NGAM.CPS                                :   6     Natural Gamma
#------------------------------------------------------------------------------
~A  DEPTH     TEMP      CN25      COND      DELT      DELC      NGAM      
# ...
   356.77     18.61     84.79     74.65      0.00     -0.02      2.18 
   356.78     18.61     84.80     74.65      0.00     -0.01      3.00 
   356.79     18.60     84.81     74.65     -0.00     -0.01      3.47 
   356.80     18.60     84.81     74.65     -0.01      0.00      3.00 
   356.81     18.60     84.83     74.65     -0.01      0.02      3.00 
   356.82     18.59     84.84     74.65     -0.01      0.03      3.00 
   356.83     18.59     84.84     74.65     -0.01      0.02      2.59 
   356.84     18.59     84.84     74.65     -0.01      0.01      2.18 
   356.85     18.59     84.84     74.65     -0.01      0.01      2.65 
   356.86     18.59     84.84     74.65     -0.01      0.02      3.06 
   356.87     18.59     84.84     74.65     -0.01      0.02      3.06 
   356.88     18.59     84.84     74.65     -0.01      0.03      3.06 
   356.89     18.59     84.84     74.65     -0.01      0.03      3.47 
   356.90     18.60     84.83     74.65     -0.01      0.03      3.88 
   356.91     18.60     84.83     74.65     -0.01      0.02      3.47 
   356.92     18.60     84.83     74.65     -0.01      0.02      3.00 
   356.93     18.60     84.82     74.65     -0.01      0.01      3.00 
   356.94     18.60     84.82     74.65     -0.01      0.01      3.00 
   356.95     18.60     84.82     74.65     -0.01      0.01      2.18 
   356.96     18.60     84.82     74.65     -0.00      0.00      1.71 
   356.97     18.60     84.82     74.65     -0.00     -0.00      2.12 
   356.98     18.60     84.82     74.65     -0.00     -0.01      2.12 
   356.99     18.60     84.81     74.65      0.00     -0.02      2.12 
   357.00     18.60     84.81     74.65      0.01     -0.03      2.12 
   357.01     18.61     84.80     74.65      0.01     -0.04      2.94 
   357.02     18.61     84.80     74.65      0.01     -0.06      2.47 
   357.03     18.61     84.79     74.65      0.02     -0.07      2.06 
   357.04     18.61     84.79     74.65      0.02     -0.07      2.06 
   357.05     18.61     84.79     74.65      0.01     -0.06      2.06 
   357.06     18.61     84.80     74.65      0.01     -0.05      1.65 
   357.07     18.61     84.80     74.64      0.01     -0.06      1.24 
   357.08     18.61     84.79     74.64      0.01     -0.06      1.24 
   357.09     18.61     84.79     74.64      0.01     -0.06      1.24 
   357.10     18.61     84.79     74.64      0.02     -0.06      1.24 
   357.11     18.60     84.80     74.64      0.02     -0.06      1.24 
   357.12     18.60     84.80     74.64      0.01     -0.06      1.24 
   357.13     18.60     84.81     74.64      0.01     -0.05      1.24 
   357.14     18.60     84.81     74.64      0.01     -0.04      0.82 
   357.15     18.60     84.81     74.65      0.01     -0.03      0.82 
   357.16     18.60     84.81     74.65      0.00     -0.02      0.82 
   357.17     18.60     84.81     74.65      0.00     -0.01      0.82 
   357.18     18.60     84.80     74.65     -0.00      0.00      0.41 
   357.19     18.61     84.80     74.65     -0.00      0.00      1.24 
   357.20     18.61     84.79     74.65     -0.00     -0.01      1.71 
   357.21     18.61     84.79     74.65     -0.00     -0.00      1.71 
   357.22     18.61     84.78     74.65     -0.00     -0.00      1.71 
   357.23     18.61     84.78     74.65     -0.00     -0.00      1.71 
   357.24     18.61     84.78     74.65     -0.00      0.00      1.71 
   357.25     18.61     84.79     74.65     -0.00     -0.00      1.71 
   357.26     18.61     84.79     74.65     -0.00     -0.01      1.71 
   357.27     18.61     84.80     74.65      0.00     -0.02      1.71 
   357.28     18.61     84.80     74.65      0.00     -0.02      2.18 
   357.29     18.60     84.80     74.65      0.00     -0.02      2.18 
   357.30     18.60     84.80     74.65      0.00     -0.02      2.59 
   357.31     18.60     84.81     74.65      0.00     -0.01      2.59 
   357.32     18.60     84.81     74.65      0.00     -0.01      2.59 
   357.33     18.60     84.82     74.65      0.00     -0.01      2.59 
   357.34     18.60     84.81     74.65      0.00     -0.02      2.59 
   357.35     18.60     84.81     74.65      0.00     -0.02      2.18 
   357.36     18.60     84.81     74.65      0.01     -0.03      1.35 
   357.37     18.60     84.81     74.65      0.01     -0.04      0.88 
   357.38     18.60     84.81     74.65      0.01     -0.04      0.88 
   357.39     18.60     84.80     74.64      0.01     -0.05      0.88 
   357.40     18.60     84.80     74.64      0.01     -0.06      0.88 
   357.41     18.60     84.80     74.64      0.01     -0.05      0.88 
   357.42     18.60     84.81     74.64      0.01     -0.06      0.88 
   357.43     18.60     84.82     74.65      0.01     -0.05      1.29 
   357.44     18.60     84.81     74.64      0.01     -0.06      1.71 
   357.45     18.60     84.82     74.64      0.01     -0.05      1.24 
   357.46     18.60     84.82     74.64      0.01     -0.04      1.24 
   357.47     18.60     84.82     74.64      0.01     -0.04      0.82 
   357.48     18.60     84.82     74.64      0.01     -0.03      1.29 
   357.49     18.60     84.82     74.64      0.01     -0.02      1.29 
   357.50     18.60     84.82     74.64      0.01     -0.02      1.29 
   357.51     18.60     84.81     74.64      0.00     -0.02      1.29 
   357.52     18.60     84.81     74.64      0.00     -0.02      1.29 
   357.53     18.60     84.81     74.64      0.00     -0.01      1.29 
   357.54     18.60     84.80     74.64      0.00     -0.02      1.29 
   357.55     18.60     84.80     74.65      0.00     -0.02      1.29 
   357.56     18.60     84.80     74.65      0.00     -0.02      1.29 
   357.57     18.61     84.79     74.64      0.01     -0.03      1.29 
   357.58     18.61     84.80     74.64      0.01     -0.03      1.29 
   357.59     18.60     84.80     74.64      0.00     -0.03      1.29 
   357.60     18.60     84.81     74.64      0.00     -0.03      0.88 
   357.61     18.60     84.82     74.65      0.00     -0.02      0.47 
   357.62     18.60     84.82     74.65      0.00     -0.02      0.47 
   357.63     18.60     84.82     74.64      0.00     -0.03      0.47 
   357.64     18.60     84.82     74.64      0.00     -0.03      0.88 
   357.65     18.60     84.82     74.64      0.00     -0.02      0.41 
   357.66     18.60     84.82     74.64      0.00     -0.02      0.41 
   357.67     18.60     84.82     74.64      0.00     -0.01      0.41 
   357.68     18.60     84.83     74.65     -0.00      0.01      0.41 
   357.69     18.60     84.83     74.64     -0.01      0.02      0.41 
   357.70     18.60     84.83     74.64     -0.01      0.03      0.41 
   357.71     18.59     84.83     74.64     -0.02      0.04      1.24 
   357.72     18.59     84.83     74.64     -0.02      0.05      1.24 
   357.73     18.59     84.84     74.64     -0.02      0.06      1.24 
   357.74     18.59     84.84     74.64     -0.02      0.06      1.24 
   357.75     18.59     84.84     74.64     -0.02      0.05      1.24 
   357.76     18.59     84.84     74.64     -0.02      0.04      1.24 
   357.77     18.59     84.83     74.64     -0.01      0.03      1.24 
   357.78     18.59     84.82     74.64     -0.01      0.02      1.65 
   357.79     18.60     84.81     74.64     -0.00     -0.00      1.65 
   357.80     18.60     84.81     74.64      0.00     -0.01      1.65 
   357.81     18.60     84.80     74.64      0.01     -0.03      1.71 
   357.82     18.60     84.80     74.64      0.01     -0.04      1.71 
   357.83     18.61     84.79     74.64      0.01     -0.04      1.71 
   357.84     18.61     84.78     74.64      0.02     -0.06      2.12 
   357.85     18.61     84.78     74.64      0.01     -0.06      2.12 
   357.86     18.61     84.79     74.64      0.01     -0.05      2.12 
   357.87     18.60     84.80     74.64      0.01     -0.04      2.12 
   357.88     18.60     84.80     74.64      0.01     -0.03      1.29 
   357.89     18.60     84.81     74.64      0.00     -0.02      1.29 
