#Written by Robertson Geologging WinLogger V1.0/370
~VERSION INFORMATION
#------------------------------------------------------------------------------
 VERS. 2.0 : CWLS LOG ASCII STANDARD - VERSION 2.0
 WRAP. NO  : ONE LINE PER DEPTH STEP
~WELL INFORMATION
#MNEM.UNIT         DATA                                DESCRIPTION OF MNEMONIC
#------------------------------------------------------------------------------
 STRT.M         72.0100                            :   START DEPTH
 STOP.M        461.6800                            :   STOP DEPTH
 STEP.M          0.0100                            :   STEP VALUE
 NULL.        -999.2500                            :   NULL VALUE
 COMP.    White Young Gteen                        :   COMPANY NAME
 WELL.    Easington  Shaft                         :   WELL NAME
 FLD.     Easington                                :   FIELD NAME
 LOC.     N/A                                      :   LOCATION
 PROV.    N/A                                      :   PROVINCE
 SRVC.    N/A                                      :   SERVICE COMPANY NAME
 DATE.    04 Oct 05                                :   DATE
 UWI.     N/A                                      :   UNIQUE WELL IDENTIFIER
~PARAMETER INFORMATION
#MNEMO.UNIT         VALUE                 DESCRIPTION OF MNEMONIC
#------------------------------------------------------------------------------
~OTHER INFORMATION SECTION
#------------------------------------------------------------------------------
 TCGS1365
~CURVE INFORMATION
#MNEMO.UNIT         API CODE              CURVE DESCRIPTION
#------------------------------------------------------------------------------
 DEPTH.M                                 :   0     Depth
 TEMP.DegC                               :   1     Temperature
 CN25.mS/cm                              :   2     Conductivity@25DegC
 COND.mS/cm                              :   3     Conductivity
 DELT.DegC                               :   4     Delta T
 DELC.mS/cm                              :   5     Delta C
 NGAM.CPS                                :   6     Natural Gamma
#------------------------------------------------------------------------------
~A  DEPTH     TEMP      CN25      COND      DELT      DELC      NGAM      
# ...
   278.80     17.88     74.30     63.67     -0.00      0.00      1.65 
   278.81     17.88     74.31     63.67     -0.01      0.02      1.65 
   278.82     17.87     74.32     63.67     -0.01      0.03      1.65 
   278.83     17.87     74.33     63.67     -0.01      0.04      1.65 
   278.84     17.87     74.33     63.67     -0.01      0.04      1.24 
   278.85     17.87     74.33     63.67     -0.01      0.04      1.24 
   278.86     17.87     74.33     63.67     -0.01      0.04      1.65 
   278.87     17.87     74.33     63.67     -0.02      0.05      1.24 
   278.88     17.87     74.33     63.67     -0.02      0.05      1.24 
   278.89     17.87     74.32     63.67     -0.02      0.04      1.24 
   278.90     17.87     74.31     63.67     -0.01      0.03      1.24 
   278.91     17.87     74.31     63.67     -0.01      0.02      1.24 
   278.92     17.88     74.30     63.67     -0.00     -0.00      1.24 
   278.93     17.88     74.30     63.67      0.00     -0.01      1.24 
   278.94     17.88     74.29     63.67      0.01     -0.02      1.24 
   278.95     17.88     74.29     63.67      0.01     -0.02      0.82 
   278.96     17.88     74.29     63.67      0.01     -0.02      0.82 
   278.97     17.88     74.29     63.67      0.01     -0.02      0.82 
   278.98     17.88     74.29     63.67      0.01     -0.02      0.82 
   278.99     17.88     74.29     63.67      0.00     -0.01      1.24 
   279.00     17.88     74.28     63.67      0.00     -0.01      1.24 
   279.01     17.89     74.28     63.67      0.00     -0.00      1.24 
   279.02     17.89     74.27     63.67      0.00     -0.00      1.24 
   279.03     17.89     74.27     63.67      0.00     -0.00      0.82 
   279.04     17.89     74.28     63.67     -0.00      0.00      0.82 
   279.05     17.88     74.28     63.67      0.00     -0.00      1.65 
   279.06     17.88     74.28     63.67      0.00     -0.01      2.06 
   279.07     17.89     74.28     63.67      0.01     -0.01      2.06 
   279.08     17.89     74.28     63.67      0.01     -0.03      2.06 
   279.09     17.89     74.28     63.67      0.01     -0.03      2.06 
   279.10     17.88     74.28     63.67      0.01     -0.03      2.06 
   279.11     17.88     74.29     63.67      0.01     -0.02      2.06 
   279.12     17.88     74.29     63.67      0.00     -0.01      2.06 
   279.13     17.88     74.30     63.67     -0.00      0.00      1.65 
   279.14     17.88     74.30     63.67     -0.01      0.01      2.06 
   279.15     17.88     74.30     63.66     -0.01      0.02      2.06 
   279.16     17.88     74.30     63.66     -0.01      0.03      1.65 
   279.17     17.88     74.30     63.66     -0.02      0.04      2.06 
   279.18     17.88     74.30     63.66     -0.02      0.05      2.06 
   279.19     17.88     74.29     63.66     -0.02      0.05      2.06 
   279.20     17.88     74.29     63.66     -0.02      0.05      2.06 
   279.21     17.88     74.28     63.67     -0.02      0.05      2.06 
   279.22     17.88     74.29     63.67     -0.02      0.05      1.24 
   279.23     17.88     74.28     63.67     -0.01      0.04      0.82 
   279.24     17.88     74.28     63.67     -0.01      0.03      0.82 
   279.25     17.88     74.29     63.67     -0.01      0.02      0.82 
   279.26     17.88     74.29     63.67     -0.00      0.02      0.82 
   279.27     17.88     74.28     63.67     -0.00      0.01      0.82 
   279.28     17.89     74.28     63.67     -0.00      0.00      0.82 
   279.29     17.89     74.28     63.67      0.00     -0.00      0.82 
   279.30     17.89     74.27     63.67      0.00     -0.01      1.65 
   279.31     17.89     74.27     63.67      0.00     -0.01      1.24 
   279.32     17.89     74.27     63.67      0.01     -0.02      1.65 
   279.33     17.89     74.27     63.67      0.00     -0.02      1.65 
   279.34     17.89     74.27     63.67      0.00     -0.01      1.59 
   279.35     17.89     74.27     63.67      0.00     -0.01      1.59 
   279.36     17.89     74.26     63.67      0.00     -0.01      1.59 
   279.37     17.89     74.25     63.67      0.00     -0.01      1.59 
   279.38     17.89     74.25     63.67      0.00     -0.01      2.41 
   279.39     17.90     74.25     63.67      0.00     -0.01      2.82 
   279.40     17.90     74.25     63.67      0.01     -0.01      2.82 
   279.41     17.89     74.26     63.67      0.01     -0.01      2.82 
   279.42     17.89     74.26     63.67      0.01     -0.02      2.82 
   279.43     17.89     74.26     63.67      0.01     -0.02      2.82 
   279.44     17.89     74.26     63.67      0.01     -0.03      2.82 
   279.45     17.89     74.26     63.67      0.01     -0.03      2.82 
   279.46     17.89     74.26     63.67      0.01     -0.03      3.24 
   279.47     17.89     74.26     63.67      0.01     -0.03      2.82 
   279.48     17.89     74.26     63.66      0.01     -0.03      3.24 
   279.49     17.89     74.27     63.67      0.01     -0.02      3.24 
   279.50     17.89     74.27     63.67      0.01     -0.01      3.24 
   279.51     17.89     74.27     63.66      0.00     -0.02      2.88 
   279.52     17.89     74.26     63.66      0.00     -0.01      2.88 
   279.53     17.89     74.25     63.66      0.00     -0.02      2.88 
   279.54     17.90     74.25     63.66      0.00     -0.02      2.88 
   279.55     17.90     74.24     63.66      0.00     -0.02      2.06 
   279.56     17.90     74.24     63.66      0.00     -0.02      1.65 
   279.57     17.89     74.25     63.67      0.00     -0.02      1.65 
   279.58     17.89     74.26     63.67      0.00     -0.02      1.65 
   279.59     17.89     74.26     63.67      0.00     -0.01      1.65 
   279.60     17.89     74.26     63.67      0.00     -0.01      1.65 
   279.61     17.89     74.27     63.67      0.00     -0.01      1.65 
   279.62     17.89     74.27     63.67      0.00     -0.01      1.65 
   279.63     17.89     74.28     63.67      0.00     -0.00      1.24 
   279.64     17.88     74.28     63.67     -0.00      0.00      1.24 
   279.65     17.88     74.28     63.67     -0.00      0.01      0.82 
   279.66     17.88     74.29     63.67     -0.01      0.02      1.24 
   279.67     17.88     74.29     63.67     -0.01      0.03      1.24 
   279.68     17.88     74.29     63.67     -0.01      0.03      1.24 
   279.69     17.88     74.29     63.67     -0.01      0.04      1.71 
   279.70     17.88     74.29     63.67     -0.02      0.05      1.71 
   279.71     17.88     74.29     63.67     -0.02      0.05      1.71 
   279.72     17.88     74.30     63.67     -0.02      0.06      1.71 
   279.73     17.88     74.31     63.67     -0.02      0.06      1.71 
   279.74     17.87     74.31     63.67     -0.02      0.06      1.71 
   279.75     17.87     74.32     63.67     -0.02      0.06      1.71 
   279.76     17.87     74.32     63.67     -0.02      0.06      1.71 
   279.77     17.87     74.33     63.67     -0.01      0.05      1.71 
   279.78     17.87     74.33     63.67     -0.01      0.04      1.71 
   279.79     17.87     74.33     63.67     -0.01      0.03      2.12 
   279.80     17.87     74.33     63.67     -0.01      0.02      2.12 
   279.81     17.87     74.33     63.67     -0.00      0.01      1.71 
   279.82     17.87     74.32     63.66      0.00     -0.01      1.71 
   279.83     17.87     74.31     63.66      0.01     -0.02      0.88 
   279.84     17.87     74.31     63.67      0.01     -0.02      0.88 
   279.85     17.87     74.31     63.67      0.01     -0.02      0.88 
   279.86     17.87     74.31     63.67      0.00     -0.02      0.41 
   279.87     17.87     74.31     63.67      0.00     -0.01      0.41 
   279.88     17.87     74.31     63.67      0.00     -0.01      0.41 
   279.89     17.87     74.31     63.67      0.00     -0.00      0.41 
   279.90     17.87     74.31     63.67     -0.00      0.00      0.41 
   279.91     17.87     74.31     63.67     -0.00      0.01      0.41 
   279.92     17.87     74.32     63.67     -0.01      0.02      0.41 
