#Written by Robertson Geologging WinLogger V1.0/370
~VERSION INFORMATION
#------------------------------------------------------------------------------
 VERS. 2.0 : CWLS LOG ASCII STANDARD - VERSION 2.0
 WRAP. NO  : ONE LINE PER DEPTH STEP
~WELL INFORMATION
#MNEM.UNIT         DATA                                DESCRIPTION OF MNEMONIC
#------------------------------------------------------------------------------
 STRT.M         72.0100                            :   START DEPTH
 STOP.M        461.6800                            :   STOP DEPTH
 STEP.M          0.0100                            :   STEP VALUE
 NULL.        -999.2500                            :   NULL VALUE
 COMP.    White Young Gteen                        :   COMPANY NAME
 WELL.    Easington  Shaft                         :   WELL NAME
 FLD.     Easington                                :   FIELD NAME
 LOC.     N/A                                      :   LOCATION
 PROV.    N/A                                      :   PROVINCE
 SRVC.    N/A                                      :   SERVICE COMPANY NAME
 DATE.    04 Oct 05                                :   DATE
 UWI.     N/A                                      :   UNIQUE WELL IDENTIFIER
~PARAMETER INFORMATION
#MNEMO.UNIT         VALUE                 DESCRIPTION OF MNEMONIC
#------------------------------------------------------------------------------
~OTHER INFORMATION SECTION
#------------------------------------------------------------------------------
 TCGS1365
~CURVE INFORMATION
#MNEMO.UNIT         API CODE              CURVE DESCRIPTION
#------------------------------------------------------------------------------
 DEPTH.M                                 :   0     Depth
 TEMP.DegC                               :   1     Temperature
 CN25.mS/cm                              :   2     Conductivity@25DegC
 COND.mS/cm                              :   3     Conductivity
 DELT.DegC                               :   4     Delta T
 DELC.mS/cm                              :   5     Delta C
 NGAM.CPS                                :   6     Natural Gamma
#------------------------------------------------------------------------------
~A  DEPTH     TEMP      CN25      COND      DELT      DELC      NGAM      
# ...
   304.79     17.91     74.28     63.72      0.00     -0.01      0.82 
   304.80     17.91     74.27     63.72      0.01     -0.02      0.82 
   304.81     17.91     74.27     63.72      0.01     -0.03      0.82 
   304.82     17.91     74.27     63.73      0.01     -0.03      0.82 
   304.83     17.91     74.27     63.73      0.01     -0.03      0.82 
   304.84     17.91     74.28     63.73      0.01     -0.03      0.41 
   304.85     17.91     74.29     63.73      0.01     -0.01      0.41 
   304.86     17.91     74.29     63.73      0.01     -0.02      0.41 
   304.87     17.90     74.30     63.73      0.01     -0.02      0.82 
   304.88     17.90     74.29     63.73      0.01     -0.02      0.82 
   304.89     17.90     74.29     63.73      0.01     -0.02      0.82 
   304.90     17.90     74.30     63.73      0.01     -0.02      0.82 
   304.91     17.90     74.30     63.73      0.00     -0.01      0.41 
   304.92     17.90     74.30     63.73      0.00     -0.00      0.82 
   304.93     17.90     74.30     63.73     -0.00      0.01      0.82 
   304.94     17.90     74.30     63.73     -0.00      0.01      0.82 
   304.95     17.90     74.30     63.73     -0.00      0.01      1.24 
   304.96     17.90     74.29     63.72      0.00     -0.00      1.24 
   304.97     17.91     74.29     63.73      0.00     -0.00      1.24 
   304.98     17.91     74.28     63.72      0.00     -0.00      1.24 
   304.99     17.90     74.29     63.73      0.00     -0.00      1.24 
   305.00     17.90     74.29     63.73      0.01     -0.01      1.24 
   305.01     17.90     74.29     63.73      0.01     -0.02      1.24 
   305.02     17.91     74.28     63.73      0.01     -0.04      1.65 
   305.03     17.91     74.28     63.73      0.02     -0.04      1.65 
   305.04     17.91     74.27     63.73      0.02     -0.05      1.24 
   305.05     17.91     74.27     63.73      0.02     -0.05      1.24 
   305.06     17.91     74.27     63.72      0.02     -0.05      1.24 
   305.07     17.91     74.27     63.72      0.02     -0.05      1.24 
   305.08     17.91     74.27     63.72      0.02     -0.04      1.24 
   305.09     17.91     74.27     63.72      0.01     -0.04      0.82 
   305.10     17.91     74.27     63.72      0.01     -0.04      0.82 
   305.11     17.91     74.28     63.72      0.01     -0.03      0.82 
   305.12     17.90     74.29     63.72      0.01     -0.02      0.41 
   305.13     17.90     74.30     63.72      0.00     -0.01      0.41 
   305.14     17.90     74.31     63.72      0.00     -0.01      0.82 
   305.15     17.89     74.31     63.72     -0.00     -0.00      1.24 
   305.16     17.89     74.32     63.72     -0.00      0.00      1.24 
   305.17     17.89     74.33     63.72     -0.00      0.01      1.65 
   305.18     17.89     74.33     63.73      0.00      0.00      1.65 
   305.19     17.89     74.33     63.72      0.00     -0.01      1.24 
   305.20     17.89     74.33     63.73      0.00     -0.01      1.24 
   305.21     17.89     74.33     63.73      0.00     -0.01      1.24 
   305.22     17.89     74.33     63.73      0.00     -0.00      1.24 
   305.23     17.89     74.33     63.73     -0.00      0.01      1.24 
   305.24     17.89     74.33     63.73     -0.00      0.01      1.24 
   305.25     17.89     74.32     63.73     -0.00      0.02      1.24 
   305.26     17.90     74.32     63.73     -0.00      0.01      1.24 
   305.27     17.90     74.31     63.73     -0.00      0.01      1.24 
   305.28     17.90     74.31     63.73     -0.00      0.01      1.24 
   305.29     17.90     74.31     63.73     -0.00      0.01      1.24 
   305.30     17.90     74.31     63.73     -0.00      0.01      1.24 
   305.31     17.90     74.30     63.73      0.00     -0.00      0.82 
   305.32     17.90     74.30     63.73      0.01     -0.02      0.41 
   305.33     17.91     74.29     63.73      0.01     -0.03      0.41 
   305.34     17.91     74.28     63.73      0.02     -0.05      0.00 
   305.35     17.91     74.28     63.73      0.02     -0.05      0.00 
   305.36     17.91     74.28     63.73      0.02     -0.06      0.00 
   305.37     17.91     74.29     63.73      0.02     -0.04      0.00 
   305.38     17.91     74.29     63.73      0.02     -0.04      0.00 
   305.39     17.91     74.29     63.73      0.01     -0.04      0.00 
   305.40     17.90     74.29     63.73      0.01     -0.03      0.00 
   305.41     17.91     74.29     63.73      0.01     -0.03      0.00 
   305.42     17.90     74.29     63.73      0.01     -0.02      0.00 
   305.43     17.90     74.29     63.72      0.00     -0.01      0.00 
   305.44     17.90     74.30     63.73     -0.00      0.01      0.00 
   305.45     17.90     74.29     63.72     -0.01      0.01      0.41 
   305.46     17.90     74.29     63.72     -0.01      0.01      0.41 
   305.47     17.90     74.29     63.72     -0.01      0.01      0.41 
   305.48     17.90     74.29     63.72     -0.01      0.01      0.82 
   305.49     17.90     74.29     63.72     -0.01      0.01      0.82 
   305.50     17.90     74.30     63.72     -0.01      0.03      0.82 
   305.51     17.90     74.30     63.72     -0.01      0.03      0.82 
   305.52     17.90     74.31     63.72     -0.01      0.04      0.82 
   305.53     17.90     74.31     63.72     -0.01      0.04      0.82 
   305.54     17.90     74.31     63.73     -0.01      0.04      0.82 
   305.55     17.90     74.31     63.72     -0.02      0.04      0.82 
   305.56     17.89     74.32     63.73     -0.02      0.05      0.82 
   305.57     17.89     74.33     63.72     -0.02      0.04      0.82 
   305.58     17.89     74.33     63.73     -0.01      0.04      0.82 
   305.59     17.89     74.33     63.73     -0.01      0.03      0.82 
   305.60     17.89     74.33     63.73     -0.01      0.03      0.82 
   305.61     17.89     74.32     63.73     -0.00      0.01      0.82 
   305.62     17.89     74.33     63.73     -0.00      0.01      0.41 
   305.63     17.89     74.33     63.73      0.00     -0.00      0.82 
   305.64     17.89     74.34     63.73      0.00     -0.00      1.24 
   305.65     17.89     74.34     63.73      0.00     -0.01      0.82 
   305.66     17.89     74.34     63.73      0.01     -0.02      1.65 
   305.67     17.89     74.33     63.73      0.01     -0.02      1.65 
   305.68     17.89     74.33     63.73      0.01     -0.02      1.65 
   305.69     17.89     74.33     63.73      0.01     -0.02      1.65 
   305.70     17.89     74.32     63.73      0.01     -0.02      1.65 
   305.71     17.90     74.32     63.73      0.01     -0.02      2.47 
   305.72     17.90     74.32     63.73      0.01     -0.01      2.88 
   305.73     17.90     74.32     63.73      0.00     -0.00      2.88 
   305.74     17.89     74.32     63.73     -0.00      0.01      3.71 
   305.75     17.89     74.32     63.73     -0.00      0.02      3.71 
   305.76     17.90     74.32     63.73     -0.01      0.02      3.71 
   305.77     17.90     74.31     63.72     -0.01      0.02      3.71 
   305.78     17.90     74.31     63.72     -0.01      0.04      3.71 
   305.79     17.89     74.32     63.72     -0.02      0.04      3.71 
   305.80     17.89     74.32     63.72     -0.02      0.06      3.29 
   305.81     17.89     74.32     63.72     -0.02      0.06      2.88 
   305.82     17.89     74.32     63.72     -0.02      0.05      2.88 
   305.83     17.90     74.31     63.72     -0.01      0.03      2.06 
   305.84     17.90     74.30     63.72     -0.01      0.01      2.06 
   305.85     17.91     74.28     63.72      0.00     -0.01      2.06 
   305.86     17.91     74.27     63.72      0.01     -0.03      2.06 
   305.87     17.91     74.26     63.72      0.01     -0.03      2.47 
   305.88     17.91     74.26     63.73      0.01     -0.03      1.65 
   305.89     17.91     74.26     63.73      0.01     -0.04      1.65 
   305.90     17.92     74.26     63.73      0.01     -0.04      1.65 
   305.91     17.92     74.26     63.73      0.02     -0.04      0.82 
