#Written by Robertson Geologging WinLogger V1.0/406
~VERSION INFORMATION
#------------------------------------------------------------------------------
 VERS. 2.0 : CWLS LOG ASCII STANDARD - VERSION 2.0
 WRAP. NO  : ONE LINE PER DEPTH STEP
~WELL INFORMATION
#MNEM.UNIT         DATA                                DESCRIPTION OF MNEMONIC
#------------------------------------------------------------------------------
 STRT.M          7.6600                            :   START DEPTH
 STOP.M        258.0000                            :   STOP DEPTH
 STEP.M          0.0100                            :   STEP VALUE
 NULL.        -999.2500                            :   NULL VALUE
 COMP.    I.W.S.                                   :   COMPANY NAME
 WELL.    Mainsforth                               :   WELL NAME
 FLD.     Mainsforth                               :   FIELD NAME
 LOC.     N/A                                      :   LOCATION
 PROV.    N/A                                      :   PROVINCE
 SRVC.    N/A                                      :   SERVICE COMPANY NAME
 DATE.    21 Jul 09                                :   DATE
 UWI.     N/A                                      :   UNIQUE WELL IDENTIFIER
~PARAMETER INFORMATION
#MNEMO.UNIT         VALUE                 DESCRIPTION OF MNEMONIC
#------------------------------------------------------------------------------
~OTHER INFORMATION SECTION
#------------------------------------------------------------------------------
 TCGS 1365
~CURVE INFORMATION
#MNEMO.UNIT         API CODE              CURVE DESCRIPTION
#------------------------------------------------------------------------------
 DEPTH.M                                 :   0     Depth
 TEMP.DegC                               :   1     Temperature
 CN25.uS/cm                              :   2     Conductivity@25DegC
 DELT.DegC                               :   3     Delta T
 DELC.uS/cm                              :   4     Delta C
 NGAM.CPS                                :   5     Natural Gamma
 COND.uS/cm                              :   6     Conductivity
#------------------------------------------------------------------------------
~A  DEPTH     TEMP      CN25      DELT      DELC      NGAM      COND      
# ...
   107.10     11.55   2679.76      0.00      0.00      0.00   1954.00 
   107.11     11.55   2682.60     -0.01      3.20      0.00   1955.81 
   107.12     11.55   2680.12      0.00     -2.48      7.00   1954.00 
   107.13     11.54   2680.48     -0.01      1.07      0.00   1954.00 
   107.14     11.54   2680.48     -0.01      0.72      0.00   1954.00 
   107.15     11.55   2672.68     -0.00     -7.08      0.00   1948.56 
   107.16     11.54   2680.48     -0.01     -1.76      0.00   1954.00 
   107.17     11.54   2680.83     -0.01      1.07      0.00   1954.00 
   107.18     11.54   2682.96     -0.01      3.55      0.00   1955.81 
   107.19     11.54   2680.48     -0.01      0.72      0.00   1954.00 
   107.20     11.55   2680.12     -0.00      0.36      0.00   1954.00 
   107.21     11.56   2681.88      0.01      8.85      0.00   1955.81 
   107.22     11.56   2679.40      0.01     -1.07      0.00   1954.00 
   107.23     11.55   2680.12      0.00     -0.36      0.00   1954.00 
   107.24     11.55   2680.12      0.00      0.00      0.00   1954.00 
   107.25     11.55   2682.24      0.00     -0.36      0.00   1955.81 
   107.26     11.54   2680.48     -0.00      0.36      0.00   1954.00 
   107.27     11.55   2680.12     -0.00      0.36      0.00   1954.00 
   107.28     11.56   2671.96      0.01    -10.64      0.00   1948.56 
   107.29     11.55   2679.76     -0.00      0.36      0.00   1954.00 
   107.30     11.55   2680.12      0.00      0.00      0.00   1954.00 
   107.31     11.55   2682.24     -0.00      0.36      0.00   1955.81 
   107.32     11.54   2680.48     -0.01      1.07      0.00   1954.00 
   107.33     11.55   2680.12     -0.01      0.72      7.00   1954.00 
   107.34     11.55   2682.24     -0.01     10.63      0.00   1955.81 
   107.35     11.55   2679.76      0.00      0.00      0.00   1954.00 
   107.36     11.55   2680.12     -0.00     -2.12      0.00   1954.00 
   107.37     11.55   2672.32      0.00     -7.80      0.00   1948.56 
   107.38     11.55   2679.76      0.00      0.00      0.00   1954.00 
   107.39     11.55   2680.12      0.00     -2.48      0.00   1954.00 
   107.40     11.55   2682.24      0.00      2.12      0.00   1955.81 
   107.41     11.55   2679.76     -0.00      7.80      0.00   1954.00 
   107.42     11.56   2679.40      0.00     -0.36      0.00   1954.00 
   107.43     11.56   2679.40      0.00     -0.36      0.00   1954.00 
   107.44     11.55   2682.24     -0.00      0.36      0.00   1955.81 
   107.45     11.55   2680.12      0.00      0.00      0.00   1954.00 
   107.46     11.55   2680.12     -0.01     -1.76      0.00   1954.00 
   107.47     11.55   2679.76     -0.00      0.36      0.00   1954.00 
   107.48     11.56   2681.88     -0.00      2.84      0.00   1955.81 
   107.49     11.55   2679.76     -0.01     -1.76      0.00   1954.00 
   107.50     11.55   2679.76     -0.00      9.04      0.00   1954.00 
   107.51     11.55   2672.32     -0.01     -9.21      0.00   1948.56 
   107.52     11.55   2680.12     -0.01      1.07      0.00   1954.00 
   107.53     11.55   2682.24     -0.01      3.20      0.00   1955.81 
   107.54     11.55   2680.12     -0.01      1.07      0.00   1954.00 
   107.55     11.55   2679.76     -0.01     -1.76      0.00   1954.00 
   107.56     11.56   2681.53      0.00      2.12      0.00   1955.81 
   107.57     11.56   2678.69      0.00     -0.36      0.00   1954.00 
   107.58     11.56   2678.69      0.00     -2.48      0.00   1954.00 
   107.59     11.56   2671.96      0.00     -7.44      0.00   1948.56 
   107.60     11.55   2679.76      0.00      0.00      0.00   1954.00 
   107.61     11.54   2682.96     -0.00     10.28      0.00   1955.81 
   107.62     11.53   2681.19     -0.02      1.43      0.00   1954.00 
   107.63     11.54   2683.32     -0.02      3.91      0.00   1955.81 
   107.64     11.54   2680.83     -0.02      1.43      0.00   1954.00 
   107.65     11.54   2680.48     -0.02     -1.05      0.00   1954.00 
   107.66     11.56   2681.88      0.00      2.48      0.00   1955.81 
   107.67     11.55   2679.76     -0.00      0.36      0.00   1954.00 
   107.68     11.55   2672.32     -0.00     -7.08      0.00   1948.56 
   107.69     11.56   2679.40      0.00     -0.36      0.00   1954.00 
   107.70     11.55   2680.12     -0.00     -2.12      0.00   1954.00 
   107.71     11.55   2682.24      0.00      2.12      0.00   1955.81 
   107.72     11.54   2680.48     -0.00      0.36      0.00   1954.00 
   107.73     11.55   2679.76      0.00     -0.36      0.00   1954.00 
   107.74     11.55   2682.24      0.01      1.76      0.00   1955.81 
   107.75     11.56   2679.40      0.01      6.73      0.00   1954.00 
   107.76     11.56   2679.05      0.01     -1.07      0.00   1954.00 
   107.77     11.56   2671.61      0.02     -8.87      0.00   1948.56 
   107.78     11.56   2679.40      0.00     -0.36      0.00   1954.00 
   107.79     11.55   2688.80     -0.01      9.40      0.00   1960.35 
   107.80     11.54   2680.48     -0.01     -1.41      0.00   1954.00 
   107.81     11.54   2673.39     -0.02     -6.01      0.00   1948.56 
   107.82     11.54   2680.48     -0.01      1.07      0.00   1954.00 
   107.83     11.55   2679.76      0.00     -0.36      0.00   1954.00 
   107.84     11.56   2679.40      0.01     -3.20      0.00   1954.00 
   107.85     11.56   2679.40      0.01     -0.72      0.00   1954.00 
   107.86     11.56   2681.88      0.01      1.41      0.00   1955.81 
   107.87     11.55   2679.76      0.01     -1.07      0.00   1954.00 
   107.88     11.55   2679.76      0.01     -1.07      0.00   1954.00 
   107.89     11.55   2679.76      0.00      7.08      0.00   1954.00 
   107.90     11.55   2682.24     -0.01      3.20      0.00   1955.81 
   107.91     11.56   2679.05      0.00      0.00      0.00   1954.00 
   107.92     11.56   2679.05      0.00     -0.36      0.00   1954.00 
   107.93     11.56   2679.05      0.01     -1.07      0.00   1954.00 
   107.94     11.57   2680.81      0.02     -1.43      0.00   1955.81 
   107.95     11.56   2679.05      0.01     -1.07      7.00   1954.00 
   107.96     11.56   2679.40      0.01     -0.72      0.00   1954.00 
   107.97     11.55   2679.76      0.00     -2.84      0.00   1954.00 
   107.98     11.55   2680.12      0.00      0.00      0.00   1954.00 
   107.99     11.55   2672.68     -0.00     -7.08      0.00   1948.56 
   108.00     11.56   2679.40      0.00     -0.36      0.00   1954.00 
   108.01     11.55   2679.76     -0.00     -2.12      0.00   1954.00 
   108.02     11.54   2680.48     -0.00      0.36      0.00   1954.00 
   108.03     11.55   2680.12     -0.00      0.36      0.00   1954.00 
   108.04     11.54   2682.96     -0.02      4.27      0.00   1955.81 
   108.05     11.54   2680.48     -0.02      8.87      0.00   1954.00 
   108.06     11.55   2679.76     -0.01      0.71      0.00   1954.00 
   108.07     11.55   2682.60     -0.01      0.72      0.00   1955.81 
   108.08     11.55   2679.76      0.00      0.00      7.00   1954.00 
   108.09     11.56   2679.40      0.00     -0.36      0.00   1954.00 
   108.10     11.55   2680.12      0.00     -2.48      0.00   1954.00 
   108.11     11.55   2679.76      0.00     -0.36      0.00   1954.00 
   108.12     11.55   2682.24      0.01      1.76      0.00   1955.81 
   108.13     11.56   2679.40      0.01     -1.07      0.00   1954.00 
   108.14     11.56   2679.40      0.01      6.73      0.00   1954.00 
   108.15     11.56   2679.05      0.02     -1.43      0.00   1954.00 
   108.16     11.56   2671.25      0.03     -9.58      0.00   1948.56 
   108.17     11.56   2679.40      0.01     -3.55      0.00   1954.00 
   108.18     11.56   2670.72      0.01     -9.75      0.00   1947.65 
   108.19     11.55   2680.12      0.00      0.00      0.00   1954.00 
   108.20     11.55   2680.12     -0.01     -1.76      0.00   1954.00 
   108.21     11.56   2681.53      0.00      2.12      0.00   1955.81 
   108.22     11.56   2678.69      0.02     -1.43      0.00   1954.00 
