#Written by Robertson Geologging WinLogger V1.0/406
~VERSION INFORMATION
#------------------------------------------------------------------------------
 VERS. 2.0 : CWLS LOG ASCII STANDARD - VERSION 2.0
 WRAP. NO  : ONE LINE PER DEPTH STEP
~WELL INFORMATION
#MNEM.UNIT         DATA                                DESCRIPTION OF MNEMONIC
#------------------------------------------------------------------------------
 STRT.M          7.6600                            :   START DEPTH
 STOP.M        258.0000                            :   STOP DEPTH
 STEP.M          0.0100                            :   STEP VALUE
 NULL.        -999.2500                            :   NULL VALUE
 COMP.    I.W.S.                                   :   COMPANY NAME
 WELL.    Mainsforth                               :   WELL NAME
 FLD.     Mainsforth                               :   FIELD NAME
 LOC.     N/A                                      :   LOCATION
 PROV.    N/A                                      :   PROVINCE
 SRVC.    N/A                                      :   SERVICE COMPANY NAME
 DATE.    21 Jul 09                                :   DATE
 UWI.     N/A                                      :   UNIQUE WELL IDENTIFIER
~PARAMETER INFORMATION
#MNEMO.UNIT         VALUE                 DESCRIPTION OF MNEMONIC
#------------------------------------------------------------------------------
~OTHER INFORMATION SECTION
#------------------------------------------------------------------------------
 TCGS 1365
~CURVE INFORMATION
#MNEMO.UNIT         API CODE              CURVE DESCRIPTION
#------------------------------------------------------------------------------
 DEPTH.M                                 :   0     Depth
 TEMP.DegC                               :   1     Temperature
 CN25.uS/cm                              :   2     Conductivity@25DegC
 DELT.DegC                               :   3     Delta T
 DELC.uS/cm                              :   4     Delta C
 NGAM.CPS                                :   5     Natural Gamma
 COND.uS/cm                              :   6     Conductivity
#------------------------------------------------------------------------------
~A  DEPTH     TEMP      CN25      DELT      DELC      NGAM      COND      
# ...
    24.61     10.76   1888.56     -0.00     -1.00      0.00   1345.49 
    24.62     10.75   1900.43     -0.02     12.38      0.00   1353.60 
    24.63     10.76   1888.82     -0.01    -10.83      0.00   1345.49 
    24.64     10.76   1890.08     -0.01      1.78      0.00   1346.39 
    24.65     10.75   1900.69     -0.00     10.35      0.00   1353.60 
    24.66     10.75   1890.34      0.00    -10.35      0.00   1346.39 
    24.67     10.75   1890.60      0.00      0.00      0.00   1346.39 
    24.68     10.75   1900.69     -0.01     11.87      0.00   1353.60 
    24.69     10.75   1890.60     -0.01     -9.31      0.00   1346.39 
    24.70     10.76   1888.82     -0.01     -0.49      0.00   1345.49 
    24.71     10.75   1890.60     -0.03      2.81      0.00   1346.39 
    24.72     10.75   1900.69     -0.02      1.30      0.00   1353.60 
    24.73     10.75   1889.34     -0.02      1.29      0.00   1345.49 
    24.74     10.75   1890.60     -0.02      1.03      7.00   1346.39 
    24.75     10.75   1900.43     -0.01      0.52      0.00   1353.60 
    24.76     10.76   1888.82      0.00     -1.26      0.00   1345.49 
    24.77     10.76   1890.08     -0.01      1.78      0.00   1346.39 
    24.78     10.75   1900.69     -0.03     11.64      0.00   1353.60 
    24.79     10.75   1889.08     -0.02    -10.05      0.00   1345.49 
    24.80     10.76   1890.08     -0.02      2.55      7.00   1346.39 
    24.81     10.76   1900.17     -0.01     10.61      0.00   1353.60 
    24.82     10.77   1889.56      0.00    -10.35      0.00   1346.39 
    24.83     10.76   1889.82      0.01     -0.52      0.00   1346.39 
    24.84     10.76   1899.91      0.02     10.31      0.00   1353.60 
    24.85     10.76   1889.82      0.02    -11.13      0.00   1346.39 
    24.86     10.77   1888.30      0.02     -1.29      0.00   1345.49 
    24.87     10.77   1899.65      0.02      9.05      0.00   1353.60 
    24.88     10.76   1890.08      0.00    -10.09      0.00   1346.39 
    24.89     10.76   1888.82     -0.00     -1.00      0.00   1345.49 
    24.90     10.75   1890.60     -0.02      2.30      0.00   1346.39 
    24.91     10.75   1900.43     -0.01      0.52      0.00   1353.60 
    24.92     10.75   1890.34      0.00      1.26      0.00   1346.39 
    24.93     10.75   1890.60     -0.00      0.26      0.00   1346.39 
    24.94     10.74   1900.95     -0.01      0.78      0.00   1353.60 
    24.95     10.74   1890.86     -0.01      0.78      0.00   1346.39 
    24.96     10.75   1889.08     -0.01      0.78      0.00   1345.49 
    24.97     10.76   1899.91      0.00     10.09      0.00   1353.60 
    24.98     10.77   1888.04      0.01     -0.52      0.00   1345.49 
    24.99     10.77   1889.30      0.00      0.00      0.00   1346.39 
    25.00     10.77   1899.65     -0.00     11.60      0.00   1353.60 
    25.01     10.76   1888.56     -0.01    -10.83      0.00   1345.49 
    25.02     10.76   1890.08     -0.01      2.04      0.00   1346.39 
    25.03     10.75   1900.43     -0.00     10.35      0.00   1353.60 
    25.04     10.75   1890.34     -0.00     -9.83      7.00   1346.39 
    25.05     10.76   1888.82      0.00     -1.26      8.00   1345.49 
    25.06     10.75   1900.69     -0.01     11.87      0.00   1353.60 
    25.07     10.76   1888.82     -0.00    -11.09      0.00   1345.49 
    25.08     10.75   1890.34     -0.01      2.04      0.00   1346.39 
    25.09     10.75   1900.43     -0.01     10.61      0.00   1353.60 
    25.10     10.76   1889.82      0.00    -10.35      0.00   1346.39 
    25.11     10.76   1888.82      0.00     -1.52      0.00   1345.49 
    25.12     10.77   1899.65      0.01     10.83      0.00   1353.60 
    25.13     10.77   1888.30      0.01    -12.13      0.00   1345.49 
    25.14     10.76   1889.82      0.00      1.00      0.00   1346.39 
    25.15     10.77   1899.39      0.01      9.31      0.00   1353.60 
    25.16     10.76   1889.82      0.00     -0.26      0.00   1346.39 
    25.17     10.77   1899.65      0.00     -0.26      0.00   1353.60 
    25.18     10.77   1889.56      0.01     -0.52      0.00   1346.39 
    25.19     10.75   1889.08     -0.01      0.52      0.00   1345.49 
    25.20     10.76   1890.08      0.00    -10.35      0.00   1346.39 
    25.21     10.75   1900.69     -0.01     12.13      0.00   1353.60 
    25.22     10.75   1890.60     -0.02      1.03      0.00   1346.39 
    25.23     10.75   1900.43     -0.01      0.52      0.00   1353.60 
    25.24     10.75   1890.60     -0.02      1.03      7.00   1346.39 
    25.25     10.75   1889.34     -0.01     -0.74      0.00   1345.49 
    25.26     10.75   1890.60     -0.00     -9.83      0.00   1346.39 
    25.27     10.76   1900.17      0.00     10.09      0.00   1353.60 
    25.28     10.76   1889.82      0.01      0.74      7.00   1346.39 
    25.29     10.77   1888.30      0.00    -11.61      0.00   1345.49 
    25.30     10.77   1899.65      0.00      9.83      0.00   1353.60 
    25.31     10.76   1888.56      0.00     -0.26      0.00   1345.49 
    25.32     10.77   1889.56      0.00     -0.26      0.00   1346.39 
    25.33     10.76   1900.17     -0.00      0.26      0.00   1353.60 
    25.34     10.76   1888.56      0.00     -1.26      0.00   1345.49 
    25.35     10.76   1889.82      0.00      1.00      7.00   1346.39 
    25.36     10.76   1900.17      0.00     -0.26      0.00   1353.60 
    25.37     10.76   1889.82      0.01      0.49      7.00   1346.39 
    25.38     10.76   1888.82      0.01     -1.78      0.00   1345.49 
    25.39     10.76   1900.17      0.01     -0.78      0.00   1353.60 
    25.40     10.76   1889.82      0.01      0.74      0.00   1346.39 
    25.41     10.76   1900.17      0.00      9.83      0.00   1353.60 
    25.42     10.76   1890.08      0.01    -10.61      0.00   1346.39 
    25.43     10.76   1888.82      0.00     -1.52      0.00   1345.49 
    25.44     10.76   1890.08      0.01      0.74      0.00   1346.39 
    25.45     10.76   1899.91      0.01     -0.52      0.00   1353.60 
    25.46     10.76   1890.08      0.00      1.26      0.00   1346.39 
    25.47     10.76   1900.17     -0.00     10.35      0.00   1353.60 
    25.48     10.76   1890.08     -0.00     -9.83      0.00   1346.39 
    25.49     10.76   1890.08     -0.01      1.78      0.00   1346.39 
    25.50     10.76   1888.56      0.00     -1.52      0.00   1345.49 
    25.51     10.76   1899.91      0.01     -0.52      0.00   1353.60 
    25.52     10.76   1888.56      0.01     -1.78      0.00   1345.49 
    25.53     10.77   1899.65      0.01     10.57      0.00   1353.60 
    25.54     10.77   1889.30      0.02    -11.38      0.00   1346.39 
    25.55     10.77   1888.30      0.01     -0.78      0.00   1345.49 
    25.56     10.76   1889.82      0.01     -0.78      0.00   1346.39 
    25.57     10.76   1899.91      0.01      9.31      0.00   1353.60 
    25.58     10.76   1889.82      0.00    -10.35      0.00   1346.39 
    25.59     10.76   1899.91      0.01      9.57      0.00   1353.60 
    25.60     10.77   1888.30      0.00     -0.26      0.00   1345.49 
    25.61     10.76   1889.82      0.01    -10.61      0.00   1346.39 
    25.62     10.77   1899.65      0.01     10.83      0.00   1353.60 
    25.63     10.77   1889.56      0.01     -0.52      0.00   1346.39 
    25.64     10.76   1888.56      0.01    -12.13      0.00   1345.49 
    25.65     10.76   1899.91      0.01      9.57      0.00   1353.60 
    25.66     10.76   1888.82      0.01     -1.78      0.00   1345.49 
    25.67     10.76   1889.82      0.01    -10.87      0.00   1346.39 
    25.68     10.77   1899.65      0.02      9.05      0.00   1353.60 
    25.69     10.78   1887.78      0.02     -1.03      0.00   1345.49 
    25.70     10.77   1889.56      0.02     -1.03      0.00   1346.39 
    25.71     10.77   1899.65      0.02     -1.04      0.00   1353.60 
    25.72     10.76   1888.56      0.01     -0.78      0.00   1345.49 
    25.73     10.75   1890.34      0.00     -0.26      0.00   1346.39 
