#Written by Robertson Geologging WinLogger V1.0/406
~VERSION INFORMATION
#------------------------------------------------------------------------------
 VERS. 2.0 : CWLS LOG ASCII STANDARD - VERSION 2.0
 WRAP. NO  : ONE LINE PER DEPTH STEP
~WELL INFORMATION
#MNEM.UNIT         DATA                                DESCRIPTION OF MNEMONIC
#------------------------------------------------------------------------------
 STRT.M          7.0800                            :   START DEPTH
 STOP.M        258.0000                            :   STOP DEPTH
 STEP.M          0.0100                            :   STEP VALUE
 NULL.        -999.2500                            :   NULL VALUE
 COMP.    Coal Authority                           :   COMPANY NAME
 WELL.    Mainsforth Shaft                         :   WELL NAME
 FLD.     Mainsforth                               :   FIELD NAME
 LOC.     N/A                                      :   LOCATION
 PROV.    N/A                                      :   PROVINCE
 SRVC.    N/A                                      :   SERVICE COMPANY NAME
 DATE.    20 May 08                                :   DATE
 UWI.     N/A                                      :   UNIQUE WELL IDENTIFIER
~PARAMETER INFORMATION
#MNEMO.UNIT         VALUE                 DESCRIPTION OF MNEMONIC
#------------------------------------------------------------------------------
~OTHER INFORMATION SECTION
#------------------------------------------------------------------------------
 TCDS 1365
~CURVE INFORMATION
#MNEMO.UNIT         API CODE              CURVE DESCRIPTION
#------------------------------------------------------------------------------
 DEPTH.M                                 :   0     Depth
 TEMP.DegC                               :   1     Temperature
 COND.uS/cm                              :   2     Absolute Conductivity
 COND.uS/cm                              :   3     Conductivity@25DegC
 DELT.DegC                               :   4     Delta T
 DELC.uS/cm                              :   5     Delta C
#------------------------------------------------------------------------------
~A  DEPTH     TEMP      COND      COND      DELT      DELC      
# ...
    24.24     10.59   1495.28   2100.72     -0.02      0.16 
    24.25     10.59   1488.96   2091.84     -0.03     -8.44 
    24.26     10.59   1495.28   2100.43     -0.01      0.57 
    24.27     10.60   1488.96   2090.98      0.00    -10.14 
    24.28     10.61   1496.19   2100.84      0.00      0.00 
    24.29     10.61   1488.96   2090.70      0.00     -8.88 
    24.30     10.61   1496.19   2100.56      0.00      0.00 
    24.31     10.60   1488.96   2090.98     -0.01     -8.31 
    24.32     10.61   1496.19   2100.84      0.00     -0.28 
    24.33     10.60   1488.96   2090.98      0.00    -10.14 
    24.34     10.60   1496.19   2101.41     -0.01      0.57 
    24.35     10.59   1488.96   2091.55     -0.01     -8.31 
    24.36     10.59   1496.19   2101.70     -0.01      0.85 
    24.37     10.60   1488.96   2090.98      0.00    -10.14 
    24.38     10.61   1495.28   2099.58      0.01     -9.73 
    24.39     10.62   1488.96   2090.13      0.02     -1.42 
    24.40     10.62   1496.19   2100.27      0.02     -1.14 
    24.41     10.62   1488.96   2090.13      0.03    -19.46 
    24.42     10.61   1495.28   2099.29      0.02     -2.69 
    24.43     10.61   1488.96   2090.70      0.02     -1.42 
    24.44     10.60   1488.96   2091.27      0.00    -18.04 
    24.45     10.60   1496.19   2101.41     -0.00     10.43 
    24.46     10.60   1488.96   2091.27     -0.01     -9.58 
    24.47     10.60   1496.19   2101.41     -0.01      2.12 
    24.48     10.60   1488.96   2091.27      0.00    -10.43 
    24.49     10.59   1488.96   2091.55      0.00    -10.15 
    24.50     10.60   1496.19   2101.41      0.00      1.27 
    24.51     10.60   1488.96   2091.27      0.01    -10.72 
    24.52     10.60   1496.19   2101.41      0.00     -0.28 
    24.53     10.60   1488.96   2091.27      0.00    -10.43 
    24.54     10.59   1488.96   2092.12     -0.01     -8.03 
    24.55     10.58   1496.19   2102.55     -0.02      1.43 
    24.56     10.59   1488.96   2091.55     -0.01     -9.29 
    24.57     10.59   1488.96   2091.55     -0.01     -8.31 
    24.58     10.61   1496.19   2100.84      0.00     -0.28 
    24.59     10.61   1488.96   2090.42      0.00    -10.43 
    24.60     10.61   1488.96   2090.70      0.00     -9.16 
    24.61     10.61   1496.19   2100.84      0.00     10.14 
    24.62     10.61   1488.96   2090.42      0.01    -10.71 
    24.63     10.62   1488.96   2089.85      0.02    -11.56 
    24.64     10.62   1488.96   2090.13      0.02    -10.01 
    24.65     10.61   1496.19   2100.84      0.01     -0.57 
    24.66     10.61   1488.96   2090.70      0.01    -10.71 
    24.67     10.60   1488.96   2091.27     -0.00     -8.59 
    24.68     10.60   1488.96   2090.98      0.00     -0.28 
    24.69     10.61   1496.19   2100.84      0.01     -0.57 
    24.70     10.61   1488.96   2090.70      0.00    -10.43 
    24.71     10.60   1488.96   2090.98      0.00     -8.88 
    24.72     10.60   1488.96   2090.98      0.00    -10.43 
    24.73     10.61   1496.19   2100.84      0.00     -0.28 
    24.74     10.61   1488.96   2090.42      0.01     -0.85 
    24.75     10.61   1488.96   2090.70      0.01    -10.71 
    24.76     10.61   1488.96   2090.70      0.00    -10.43 
    24.77     10.60   1496.19   2101.13      0.01      0.70 
    24.78     10.60   1488.96   2091.27      0.00    -10.15 
    24.79     10.60   1488.96   2090.98      0.01     -0.57 
    24.80     10.60   1488.96   2091.27      0.00    -10.43 
    24.81     10.59   1496.19   2101.70     -0.00      0.28 
    24.82     10.59   1488.96   2091.55     -0.00     -8.59 
    24.83     10.59   1488.96   2091.55     -0.01      0.57 
    24.84     10.59   1488.96   2091.55     -0.01     -9.58 
    24.85     10.59   1488.96   2091.55     -0.01     -8.02 
    24.86     10.59   1488.96   2091.84     -0.02     -9.01 
    24.87     10.59   1496.19   2101.98     -0.01     11.00 
    24.88     10.59   1488.96   2091.84     -0.01     -9.29 
    24.89     10.60   1488.96   2091.27      0.00    -10.15 
    24.90     10.60   1488.96   2090.98      0.00     -9.16 
    24.91     10.61   1488.96   2090.70      0.01     -0.85 
    24.92     10.60   1488.96   2090.98      0.00    -10.43 
    24.93     10.60   1496.19   2101.41      0.00     -0.28 
    24.94     10.59   1488.96   2091.55      0.00     -0.28 
    24.95     10.59   1488.96   2091.55     -0.00     -9.86 
    24.96     10.60   1488.96   2091.27      0.00    -10.43 
    24.97     10.60   1488.96   2091.27      0.00      0.00 
    24.98     10.61   1488.96   2090.42      0.01    -11.00 
    24.99     10.60   1488.96   2090.98      0.01    -10.71 
    25.00     10.61   1488.96   2090.70      0.01     -9.73 
    25.01     10.61   1488.96   2090.42      0.02     -1.13 
    25.02     10.60   1495.28   2100.15     -0.00      0.28 
    25.03     10.60   1488.96   2090.98      0.00    -10.43 
    25.04     10.60   1488.96   2090.98     -0.00      0.28 
    25.05     10.59   1488.96   2091.84     -0.01     -8.03 
    25.06     10.60   1488.96   2090.98     -0.00      0.28 
    25.07     10.60   1488.96   2090.98     -0.01     -8.02 
    25.08     10.61   1488.96   2090.70     -0.01     -9.57 
    25.09     10.61   1488.96   2090.70     -0.01      0.57 
    25.10     10.60   1488.96   2090.98      0.00    -10.14 
    25.11     10.61   1488.96   2090.42      0.01     -9.73 
    25.12     10.61   1488.96   2090.70      0.00     -0.28 
    25.13     10.61   1488.96   2090.42      0.00    -10.43 
    25.14     10.61   1488.96   2090.70      0.00      0.00 
    25.15     10.60   1488.96   2091.27     -0.01     -9.29 
    25.16     10.59   1488.96   2091.55     -0.01     -9.29 
    25.17     10.59   1488.96   2091.55     -0.01      0.85 
    25.18     10.59   1488.96   2091.84     -0.02     -9.01 
    25.19     10.59   1488.96   2091.55     -0.01      0.57 
    25.20     10.60   1488.96   2090.98      0.00    -10.14 
    25.21     10.60   1488.96   2090.98      0.00     -9.16 
    25.22     10.61   1488.96   2090.70      0.01     -0.85 
    25.23     10.61   1488.96   2090.42      0.02    -10.30 
    25.24     10.61   1488.96   2090.70      0.02     -1.13 
    25.25     10.60   1488.96   2091.27      0.00     -9.16 
    25.26     10.60   1488.96   2090.98      0.00      0.00 
    25.27     10.59   1488.96   2091.84     -0.02     -9.01 
    25.28     10.59   1488.96   2091.55     -0.01      0.85 
    25.29     10.60   1488.96   2090.98     -0.01     -9.57 
    25.30     10.59   1488.96   2091.55     -0.01      0.57 
    25.31     10.59   1488.96   2091.55     -0.01     -9.29 
    25.32     10.59   1488.96   2092.12     -0.02      1.13 
    25.33     10.59   1488.96   2091.55     -0.00     -9.86 
    25.34     10.59   1488.96   2092.12     -0.01      0.57 
    25.35     10.60   1488.96   2091.27      0.00    -10.43 
    25.36     10.61   1481.74   2080.56      0.00    -10.43 
    25.37     10.60   1488.96   2091.27     -0.01     -8.31 
    25.38     10.60   1488.96   2090.98     -0.01      0.85 
    25.39     10.59   1488.96   2091.84     -0.03     -8.44 
    25.40     10.59   1488.96   2091.55     -0.02      1.42 
    25.41     10.60   1488.96   2091.27     -0.01     -8.02 
    25.42     10.60   1488.96   2091.27     -0.01      0.57 
    25.43     10.60   1488.96   2091.27      0.00      0.00 
    25.44     10.59   1488.96   2092.12     -0.01     -9.29 
    25.45     10.59   1481.74   2081.69     -0.01     -9.58 
    25.46     10.59   1488.96   2091.55     -0.00     -9.86 
    25.47     10.61   1488.96   2090.70      0.01     -0.57 
    25.48     10.61   1488.96   2090.42      0.02     -1.13 
    25.49     10.61   1488.96   2090.70      0.01    -10.71 
    25.50     10.62   1488.96   2090.13      0.02     -1.13 
    25.51     10.62   1481.74   2079.99      0.02    -21.42 
    25.52     10.62   1488.96   2090.13      0.02     -1.13 
    25.53     10.62   1488.96   2090.13      0.03     -1.98 
    25.54     10.61   1488.96   2090.70      0.03    -11.85 
    25.55     10.60   1488.96   2090.98      0.01     -0.57 
