#Written by Robertson Geologging WinLogger V1.0/406
~VERSION INFORMATION
#------------------------------------------------------------------------------
 VERS. 2.0 : CWLS LOG ASCII STANDARD - VERSION 2.0
 WRAP. NO  : ONE LINE PER DEPTH STEP
~WELL INFORMATION
#MNEM.UNIT         DATA                                DESCRIPTION OF MNEMONIC
#------------------------------------------------------------------------------
 STRT.M          7.6600                            :   START DEPTH
 STOP.M        258.0000                            :   STOP DEPTH
 STEP.M          0.0100                            :   STEP VALUE
 NULL.        -999.2500                            :   NULL VALUE
 COMP.    I.W.S.                                   :   COMPANY NAME
 WELL.    Mainsforth                               :   WELL NAME
 FLD.     Mainsforth                               :   FIELD NAME
 LOC.     N/A                                      :   LOCATION
 PROV.    N/A                                      :   PROVINCE
 SRVC.    N/A                                      :   SERVICE COMPANY NAME
 DATE.    21 Jul 09                                :   DATE
 UWI.     N/A                                      :   UNIQUE WELL IDENTIFIER
~PARAMETER INFORMATION
#MNEMO.UNIT         VALUE                 DESCRIPTION OF MNEMONIC
#------------------------------------------------------------------------------
~OTHER INFORMATION SECTION
#------------------------------------------------------------------------------
 TCGS 1365
~CURVE INFORMATION
#MNEMO.UNIT         API CODE              CURVE DESCRIPTION
#------------------------------------------------------------------------------
 DEPTH.M                                 :   0     Depth
 TEMP.DegC                               :   1     Temperature
 CN25.uS/cm                              :   2     Conductivity@25DegC
 DELT.DegC                               :   3     Delta T
 DELC.uS/cm                              :   4     Delta C
 NGAM.CPS                                :   5     Natural Gamma
 COND.uS/cm                              :   6     Conductivity
#------------------------------------------------------------------------------
~A  DEPTH     TEMP      CN25      DELT      DELC      NGAM      COND      
# ...
   173.77     12.11   3399.23      0.00      0.00      0.00   2518.33 
   173.78     12.10   3400.13     -0.02      4.24      0.00   2518.33 
   173.79     12.11   3399.68     -0.02      2.23      7.00   2518.33 
   173.80     12.11   3399.23     -0.02      1.78      0.00   2518.33 
   173.81     12.12   3396.33     -0.02     -0.67      0.00   2516.51 
   173.82     12.12   3398.34     -0.00      0.45      0.00   2518.33 
   173.83     12.12   3397.90      0.01     -0.89      0.00   2518.33 
   173.84     12.12   3400.35      0.01      1.56      0.00   2520.15 
   173.85     12.12   3395.44      0.01     -3.35      0.00   2516.51 
   173.86     12.12   3398.34      0.00      2.01      0.00   2518.33 
   173.87     12.12   3398.79      0.00      0.00      0.00   2518.33 
   173.88     12.11   3399.23     -0.01      0.89      0.00   2518.33 
   173.89     12.11   3399.68     -0.01      0.89      0.00   2518.33 
   173.90     12.11   3399.68     -0.01      0.89      0.00   2518.33 
   173.91     12.11   3399.23     -0.00      0.45      0.00   2518.33 
   173.92     12.11   3399.23      0.00      0.00      0.00   2518.33 
   173.93     12.12   3398.79      0.00     -0.45      0.00   2518.33 
   173.94     12.12   3397.90      0.01     -1.34      0.00   2518.33 
   173.95     12.12   3396.33      0.01     -3.35      0.00   2516.51 
   173.96     12.12   3398.79      0.02     -1.78      0.00   2518.33 
   173.97     12.11   3399.68      0.01     -0.89      0.00   2518.33 
   173.98     12.10   3400.13      0.00     -0.45      0.00   2518.33 
   173.99     12.10   3400.57      0.00      0.00      0.00   2518.33 
   174.00     12.10   3391.98     -0.01     -7.70      0.00   2511.95 
   174.01     12.10   3400.13     -0.01      0.89      0.00   2518.33 
   174.02     12.10   3397.67     -0.01     -1.12      0.00   2516.51 
   174.03     12.11   3399.23     -0.01      0.89      0.00   2518.33 
   174.04     12.12   3398.34     -0.00      2.90      0.00   2518.33 
   174.05     12.11   3399.23     -0.01      1.34      0.00   2518.33 
   174.06     12.11   3399.23     -0.01      1.34      0.00   2518.33 
   174.07     12.11   3399.68     -0.02      1.78      0.00   2518.33 
   174.08     12.11   3406.60     -0.00      7.81      0.00   2523.79 
   174.09     12.12   3398.34      0.01     -0.89      0.00   2518.33 
   174.10     12.12   3397.90      0.02     -1.78      7.00   2518.33 
   174.11     12.12   3397.90      0.02     -2.23      0.00   2518.33 
   174.12     12.12   3389.75      0.01     -9.48      7.00   2511.95 
   174.13     12.11   3399.23      0.00      0.00      0.00   2518.33 
   174.14     12.11   3408.27     -0.01     12.38      0.00   2524.70 
   174.15     12.11   3397.23     -0.01     -1.12      0.00   2516.51 
   174.16     12.12   3398.79      0.00      0.00      0.00   2518.33 
   174.17     12.12   3398.34      0.01     -1.34      0.00   2518.33 
   174.18     12.12   3397.90      0.02     -2.23      0.00   2518.33 
   174.19     12.13   3397.45      0.03     -2.68      0.00   2518.33 
   174.20     12.12   3397.90      0.02     -2.23      0.00   2518.33 
   174.21     12.12   3397.90      0.02     -9.60      0.00   2518.33 
   174.22     12.12   3397.90      0.01      7.25      0.00   2518.33 
   174.23     12.12   3398.34      0.01     -0.89      0.00   2518.33 
   174.24     12.12   3397.90      0.00     -0.45      0.00   2518.33 
   174.25     12.12   3398.34     -0.01      0.89      0.00   2518.33 
   174.26     12.12   3398.79     -0.01     -6.02      0.00   2518.33 
   174.27     12.11   3399.23     -0.02      1.78      0.00   2518.33 
   174.28     12.11   3399.68     -0.01      1.34      0.00   2518.33 
   174.29     12.11   3399.68      0.00      0.00      0.00   2518.33 
   174.30     12.11   3399.68      0.00     -0.45      0.00   2518.33 
   174.31     12.11   3396.78      0.01     -1.34      0.00   2516.51 
   174.32     12.12   3398.79      0.00     -0.45      0.00   2518.33 
   174.33     12.12   3398.79     -0.00      0.45      0.00   2518.33 
   174.34     12.12   3398.79      0.00      0.00      0.00   2518.33 
   174.35     12.11   3399.23     -0.01      0.89      0.00   2518.33 
   174.36     12.11   3396.78      0.00     -2.45      0.00   2516.51 
   174.37     12.11   3399.23      0.00     -0.45      0.00   2518.33 
   174.38     12.11   3399.23      0.01     -0.89      0.00   2518.33 
   174.39     12.12   3398.79      0.02     -1.78      0.00   2518.33 
   174.40     12.11   3399.68      0.01     -0.89      0.00   2518.33 
   174.41     12.10   3397.67      0.00      0.00      0.00   2516.51 
   174.42     12.11   3399.68     -0.00      0.45      0.00   2518.33 
   174.43     12.11   3399.68     -0.01      0.89      0.00   2518.33 
   174.44     12.11   3399.68     -0.01      1.34      0.00   2518.33 
   174.45     12.11   3399.68     -0.01      1.34      0.00   2518.33 
   174.46     12.11   3407.05      0.00      7.37      0.00   2523.79 
   174.47     12.11   3399.23      0.00      0.00      0.00   2518.33 
   174.48     12.12   3398.79      0.01     -0.89      0.00   2518.33 
   174.49     12.12   3395.44      0.03     -5.13      0.00   2516.51 
   174.50     12.12   3398.79      0.01     -0.89      0.00   2518.33 
   174.51     12.12   3398.79      0.01     -1.34      0.00   2518.33 
   174.52     12.11   3399.23      0.01     -0.89      0.00   2518.33 
   174.53     12.11   3397.23     -0.00     -2.01      0.00   2516.51 
   174.54     12.11   3399.23     -0.01      3.35      0.00   2518.33 
   174.55     12.12   3398.79     -0.01      1.34      0.00   2518.33 
   174.56     12.12   3398.34     -0.01      1.34      0.00   2518.33 
   174.57     12.12   3398.79     -0.02      1.78      0.00   2518.33 
   174.58     12.11   3399.23     -0.02      2.23      0.00   2518.33 
   174.59     12.11   3399.68     -0.02      2.23      0.00   2518.33 
   174.60     12.11   3399.68     -0.02      2.23      0.00   2518.33 
   174.61     12.10   3400.57     -0.03      2.68      0.00   2518.33 
   174.62     12.10   3400.13     -0.01      1.34      0.00   2518.33 
   174.63     12.10   3397.67     -0.01     -1.56      0.00   2516.51 
   174.64     12.11   3401.69      0.00      2.01      0.00   2520.15 
   174.65     12.12   3395.89      0.01     -3.35      8.00   2516.51 
   174.66     12.12   3398.79      0.00     -0.45      0.00   2518.33 
   174.67     12.12   3397.90      0.01     -0.89      0.00   2518.33 
   174.68     12.12   3397.90      0.01     -0.89      0.00   2518.33 
   174.69     12.13   3397.45      0.01     -1.34      0.00   2518.33 
   174.70     12.13   3397.01      0.01     -1.34      0.00   2518.33 
   174.71     12.13   3397.45      0.01     -0.89      0.00   2518.33 
   174.72     12.12   3397.90      0.00     -0.45      0.00   2518.33 
   174.73     12.12   3398.34      0.00      0.00      7.00   2518.33 
   174.74     12.12   3397.90      0.01     -1.34      0.00   2518.33 
   174.75     12.12   3398.79      0.01     -0.89      0.00   2518.33 
   174.76     12.12   3398.79      0.00     -0.45      0.00   2518.33 
   174.77     12.11   3399.23      0.01     -0.89      0.00   2518.33 
   174.78     12.10   3400.13     -0.00      0.45      0.00   2518.33 
   174.79     12.10   3400.57     -0.01      1.34      0.00   2518.33 
   174.80     12.10   3400.57     -0.02      4.24      0.00   2518.33 
   174.81     12.10   3400.13     -0.02      1.78      0.00   2518.33 
   174.82     12.11   3399.68     -0.02      1.78      0.00   2518.33 
   174.83     12.11   3399.23     -0.01     -1.12      0.00   2518.33 
   174.84     12.12   3398.79     -0.01      3.35      0.00   2518.33 
   174.85     12.12   3398.79     -0.00      0.45      0.00   2518.33 
   174.86     12.11   3399.23     -0.00      0.45      0.00   2518.33 
   174.87     12.11   3399.68     -0.00      0.45      0.00   2518.33 
   174.88     12.10   3400.13     -0.00      0.45      0.00   2518.33 
   174.89     12.11   3399.68      0.00      0.00      0.00   2518.33 
