#Written by Robertson Geologging WinLogger V1.0/406
~VERSION INFORMATION
#------------------------------------------------------------------------------
 VERS. 2.0 : CWLS LOG ASCII STANDARD - VERSION 2.0
 WRAP. NO  : ONE LINE PER DEPTH STEP
~WELL INFORMATION
#MNEM.UNIT         DATA                                DESCRIPTION OF MNEMONIC
#------------------------------------------------------------------------------
 STRT.M          7.0800                            :   START DEPTH
 STOP.M        258.0000                            :   STOP DEPTH
 STEP.M          0.0100                            :   STEP VALUE
 NULL.        -999.2500                            :   NULL VALUE
 COMP.    Coal Authority                           :   COMPANY NAME
 WELL.    Mainsforth Shaft                         :   WELL NAME
 FLD.     Mainsforth                               :   FIELD NAME
 LOC.     N/A                                      :   LOCATION
 PROV.    N/A                                      :   PROVINCE
 SRVC.    N/A                                      :   SERVICE COMPANY NAME
 DATE.    20 May 08                                :   DATE
 UWI.     N/A                                      :   UNIQUE WELL IDENTIFIER
~PARAMETER INFORMATION
#MNEMO.UNIT         VALUE                 DESCRIPTION OF MNEMONIC
#------------------------------------------------------------------------------
~OTHER INFORMATION SECTION
#------------------------------------------------------------------------------
 TCDS 1365
~CURVE INFORMATION
#MNEMO.UNIT         API CODE              CURVE DESCRIPTION
#------------------------------------------------------------------------------
 DEPTH.M                                 :   0     Depth
 TEMP.DegC                               :   1     Temperature
 COND.uS/cm                              :   2     Absolute Conductivity
 COND.uS/cm                              :   3     Conductivity@25DegC
 DELT.DegC                               :   4     Delta T
 DELC.uS/cm                              :   5     Delta C
#------------------------------------------------------------------------------
~A  DEPTH     TEMP      COND      COND      DELT      DELC      
# ...
   173.40     12.36   2425.45   3245.95      0.01    -10.59 
   173.41     12.36   2432.73   3255.69      0.02      8.07 
   173.42     12.36   2425.45   3246.37      0.02     -2.10 
   173.43     12.35   2425.45   3247.21      0.00      0.00 
   173.44     12.35   2425.45   3246.79      0.01     -9.79 
   173.45     12.35   2432.73   3256.54      0.00      9.33 
   173.46     12.35   2425.45   3247.21     -0.01      0.84 
   173.47     12.34   2425.45   3247.63     -0.01      1.26 
   173.48     12.33   2425.45   3248.47     -0.03      2.52 
   173.49     12.34   2432.73   3257.38     -0.02      1.68 
   173.50     12.35   2425.45   3247.21      0.00      0.00 
   173.51     12.36   2425.45   3245.95      0.01      2.40 
   173.52     12.36   2425.45   3245.95      0.01    -10.59 
   173.53     12.36   2432.73   3256.12      0.01      8.91 
   173.54     12.36   2422.72   3242.29      0.01     -4.49 
   173.55     12.36   2425.45   3246.37      0.01     -0.84 
   173.56     12.36   2432.73   3255.69      0.02      8.07 
   173.57     12.35   2425.45   3246.79     -0.00     -8.11 
   173.58     12.35   2425.45   3246.79     -0.01      0.84 
   173.59     12.35   2425.45   3247.21     -0.02      1.68 
   173.60     12.34   2425.45   3248.05     -0.03      2.94 
   173.61     12.35   2432.73   3256.96     -0.01     10.59 
   173.62     12.35   2425.45   3247.21     -0.01      4.49 
   173.63     12.35   2425.45   3247.21     -0.01      0.84 
   173.64     12.35   2425.45   3246.79      0.00      0.00 
   173.65     12.35   2431.82   3255.32      0.00     -1.22 
   173.66     12.37   2425.45   3245.53      0.02     -2.10 
   173.67     12.37   2425.45   3245.53      0.02     -1.68 
   173.68     12.35   2432.73   3256.54      0.01      0.38 
   173.69     12.36   2425.45   3246.37     -0.00      0.42 
   173.70     12.34   2425.45   3247.63     -0.03      2.52 
   173.71     12.35   2425.45   3247.21     -0.02      1.68 
   173.72     12.36   2431.82   3254.90     -0.01      9.79 
   173.73     12.35   2425.45   3246.79      0.00     -9.75 
   173.74     12.36   2425.45   3246.37     -0.00      0.42 
   173.75     12.36   2432.73   3256.12     -0.00     10.17 
   173.76     12.35   2422.72   3243.13     -0.01      0.84 
   173.77     12.35   2425.45   3246.79     -0.01     -8.91 
   173.78     12.35   2432.73   3256.54     -0.00     10.17 
   173.79     12.35   2425.45   3246.79      0.00      0.00 
   173.80     12.35   2425.45   3246.79      0.00      0.00 
   173.81     12.36   2431.82   3254.90      0.00      8.11 
   173.82     12.36   2425.45   3246.37      0.00     -9.75 
   173.83     12.36   2425.45   3245.95      0.00     -0.42 
   173.84     12.36   2425.45   3245.95      0.00     -0.42 
   173.85     12.35   2432.73   3256.54     -0.01      2.06 
   173.86     12.36   2422.72   3242.71     -0.00     -3.24 
   173.87     12.36   2425.45   3246.37     -0.01      0.84 
   173.88     12.36   2432.73   3255.69     -0.00     10.16 
   173.89     12.38   2425.45   3244.69      0.01     -1.26 
   173.90     12.37   2422.72   3241.88      0.01    -14.24 
   173.91     12.36   2432.73   3255.69      0.01      8.91 
   173.92     12.36   2425.45   3245.95      0.00     -0.42 
   173.93     12.34   2425.45   3247.63     -0.00      0.42 
   173.94     12.34   2425.45   3247.63     -0.01     -7.69 
   173.95     12.34   2425.45   3247.63     -0.01      0.84 
   173.96     12.34   2432.73   3257.80     -0.01     10.59 
   173.97     12.34   2425.45   3247.63     -0.01      0.84 
   173.98     12.35   2425.45   3247.21      0.00     -9.75 
   173.99     12.35   2431.82   3255.74      0.00      8.11 
   174.00     12.35   2425.45   3247.21     -0.00      4.07 
   174.01     12.35   2425.45   3247.21     -0.00     -9.33 
   174.02     12.35   2425.45   3246.79     -0.00      0.42 
   174.03     12.36   2432.73   3255.69      0.01      8.91 
   174.04     12.37   2425.45   3245.11      0.03     -2.52 
   174.05     12.38   2425.45   3244.27      0.04     -3.35 
   174.06     12.38   2425.45   3244.27      0.04    -12.31 
   174.07     12.38   2432.73   3254.43      0.03      7.23 
   174.08     12.37   2425.45   3245.11      0.02     -2.10 
   174.09     12.37   2425.45   3245.53      0.01     -1.26 
   174.10     12.36   2425.45   3245.95      0.01    -10.59 
   174.11     12.36   2432.73   3256.12      0.01      8.91 
   174.12     12.35   2425.45   3246.79      0.01     -0.84 
   174.13     12.35   2425.45   3246.79      0.02     -1.68 
   174.14     12.35   2425.45   3246.79      0.01     -9.79 
   174.15     12.35   2432.73   3256.54      0.00      9.33 
   174.16     12.36   2422.72   3242.71      0.00     -3.65 
   174.17     12.35   2425.45   3246.79     -0.01     -8.49 
   174.18     12.36   2432.73   3256.12     -0.01     10.59 
   174.19     12.36   2425.45   3246.37      0.00     -0.42 
   174.20     12.36   2425.45   3246.37      0.01     -0.84 
   174.21     12.35   2425.45   3246.79      0.01    -10.59 
   174.22     12.35   2431.82   3255.32      0.02      6.85 
   174.23     12.36   2425.45   3246.37      0.01     -1.26 
   174.24     12.35   2425.45   3246.79      0.00     -0.42 
   174.25     12.36   2425.45   3246.37      0.01    -10.59 
   174.26     12.34   2432.73   3257.38     -0.01     10.59 
   174.27     12.35   2422.72   3243.55      0.00     -3.66 
   174.28     12.36   2425.45   3245.95      0.02     -1.68 
   174.29     12.36   2425.45   3246.37      0.02    -11.85 
   174.30     12.37   2432.73   3255.27      0.03      7.23 
   174.31     12.34   2425.45   3247.63      0.00     -0.42 
   174.32     12.34   2422.72   3244.39     -0.00    -11.77 
   174.33     12.35   2432.73   3256.96     -0.01     10.59 
   174.34     12.35   2425.45   3246.79     -0.01      0.84 
   174.35     12.37   2425.45   3245.53      0.00      0.00 
   174.36     12.37   2425.45   3245.53      0.00     -9.74 
   174.37     12.36   2425.45   3246.37     -0.01      0.84 
   174.38     12.36   2432.73   3255.69     -0.00     10.16 
   174.39     12.35   2425.45   3246.79     -0.01      0.84 
   174.40     12.36   2425.45   3246.37     -0.00     -9.33 
   174.41     12.36   2425.45   3246.37      0.00      0.00 
   174.42     12.34   2432.73   3257.38     -0.00     10.17 
   174.43     12.35   2425.45   3246.79      0.00      0.00 
   174.44     12.35   2422.72   3243.13      0.00    -13.40 
   174.45     12.35   2432.73   3256.54      0.00      9.33 
   174.46     12.36   2425.45   3245.95      0.02     -1.68 
   174.47     12.36   2425.45   3246.37      0.02     -2.10 
   174.48     12.36   2425.45   3246.37      0.01    -11.01 
   174.49     12.36   2425.45   3245.95      0.01     -1.26 
   174.50     12.36   2432.73   3255.69      0.00      9.75 
   174.51     12.37   2425.45   3245.53      0.00     -0.42 
   174.52     12.36   2425.45   3246.37      0.00     -9.75 
   174.53     12.34   2425.45   3247.63     -0.02      5.33 
   174.54     12.34   2432.73   3257.38     -0.01     11.01 
   174.55     12.34   2425.45   3248.05     -0.02     -7.65 
   174.56     12.33   2425.45   3248.47     -0.02      1.68 
   174.57     12.34   2425.45   3248.05     -0.01      1.26 
   174.58     12.34   2432.73   3257.38     -0.00     10.17 
   174.59     12.35   2425.45   3247.21      0.01     -0.84 
   174.60     12.35   2425.45   3246.79      0.00    -10.17 
   174.61     12.35   2425.45   3247.21      0.00      0.00 
   174.62     12.34   2432.73   3257.38     -0.00     10.17 
   174.63     12.34   2422.72   3243.97     -0.01     -2.82 
   174.64     12.35   2432.73   3256.96     -0.00      1.64 
   174.65     12.36   2425.45   3246.37     -0.01      0.84 
   174.66     12.37   2425.45   3245.53      0.00      0.00 
   174.67     12.37   2425.45   3245.11      0.02    -11.43 
   174.68     12.37   2432.73   3255.27      0.01      8.91 
   174.69     12.36   2425.45   3245.95      0.02     -1.68 
   174.70     12.35   2418.17   3237.04      0.00    -10.17 
   174.71     12.35   2425.45   3246.79     -0.00     -8.11 
