#Written by Robertson Geologging WinLogger V1.5/410
~VERSION INFORMATION
#------------------------------------------------------------------------------
 VERS. 2.0 : CWLS LOG ASCII STANDARD - VERSION 2.0
 WRAP. NO  : ONE LINE PER DEPTH STEP
~WELL INFORMATION
#MNEM.UNIT         DATA                                DESCRIPTION OF MNEMONIC
#------------------------------------------------------------------------------
 STRT.M          6.2700                            :   START DEPTH
 STOP.M        256.6400                            :   STOP DEPTH
 STEP.M          0.0100                            :   STEP VALUE
 NULL.        -999.2500                            :   NULL VALUE
 COMP.    IWS                                      :   COMPANY NAME
 WELL.    MAINSFORTH                               :   WELL NAME
 FLD.     DURHAM                                   :   FIELD NAME
 LOC.     N/A                                      :   LOCATION
 PROV.    N/A                                      :   PROVINCE
 SRVC.    N/A                                      :   SERVICE COMPANY NAME
 DATE.    16 Dec 09                                :   DATE
 UWI.     N/A                                      :   UNIQUE WELL IDENTIFIER
~PARAMETER INFORMATION
#MNEMO.UNIT         VALUE                 DESCRIPTION OF MNEMONIC
#------------------------------------------------------------------------------
~OTHER INFORMATION SECTION
#------------------------------------------------------------------------------
 TCDS 1365
~CURVE INFORMATION
#MNEMO.UNIT         API CODE              CURVE DESCRIPTION
#------------------------------------------------------------------------------
 DEPTH.M                                 :   0     Depth
 TEMP.DegC                               :   1     Temperature
 COND.uS/cm                              :   2     Conductivity@25DegC
 COND.uS/cm                              :   3     Absolute Conductivity
 DELT.DegC                               :   4     Delta T
 DELC.uS/cm                              :   5     Delta C
#------------------------------------------------------------------------------
~A  DEPTH          TEMP          COND          COND          DELT          DELC
# ...
   255.27         14.14       4660.87       3648.32         -0.00          0.31
   255.28         14.14       4661.03       3648.32         -0.00          4.23
   255.29         14.14       4657.21       3645.38         -0.00         -2.38
   255.30         14.14       4657.21       3645.38         -0.00         -2.43
   255.31         14.14       4660.98       3648.32         -0.00          0.42
   255.32         14.14       4660.98       3648.32         -0.00          1.44
   255.33         14.14       4657.16       3645.38         -0.00          1.39
   255.34         14.14       4657.06       3645.38         -0.00          0.10
   255.35         14.14       4660.77       3648.32          0.00          0.87
   255.36         14.14       4660.77       3648.32          0.00          0.66
   255.37         14.14       4660.82       3648.32          0.00          0.55
   255.38         14.14       4656.90       3645.38          0.01          0.24
   255.39         14.14       4657.77       3646.22          0.01         -2.76
   255.40         14.14       4660.30       3648.32          0.01         -0.17
   255.41         14.14       4660.25       3648.32          0.01         -0.28
   255.42         14.14       4656.69       3645.38          0.01         -0.17
   255.43         14.14       4656.85       3645.38          0.01         -1.25
   255.44         14.14       4660.77       3648.32          0.01         -0.17
   255.45         14.14       4660.92       3648.32          0.01         -0.07
   255.46         14.14       4657.32       3645.38          0.01         -0.94
   255.47         14.13       4657.47       3645.38          0.01         -3.90
   255.48         14.13       4657.58       3645.38          0.01         -1.16
   255.49         14.13       4661.50       3648.32          0.00         -0.85
   255.50         14.13       4660.47       3647.48          0.00         -1.72
   255.51         14.13       4657.89       3645.38         -0.00         -4.20
   255.52         14.13       4657.84       3645.38         -0.00         -0.28
   255.53         14.13       4660.47       3647.48         -0.00         -1.35
   255.54         14.13       4661.60       3648.32         -0.00          0.95
   255.55         14.13       4657.89       3645.38         -0.00         -3.89
   255.56         14.13       4656.81       3644.53         -0.00         -1.35
   255.57         14.13       4660.63       3647.48         -0.00         -0.49
   255.58         14.13       4661.60       3648.32          0.00          3.45
   255.59         14.13       4660.32       3647.48          0.00         -1.60
   255.60         14.13       4660.37       3647.48          0.00          2.12
   255.61         14.13       4657.73       3645.38          0.01         -0.68
   255.62         14.13       4661.55       3648.32          0.01          1.86
   255.63         14.13       4660.68       3647.48          0.01         -1.91
   255.64         14.13       4661.81       3648.32          0.01          2.93
   255.65         14.13       4658.04       3645.38          0.01         -1.86
   255.66         14.13       4660.73       3647.48          0.01          0.88
   255.67         14.13       4661.76       3648.32          0.01         -0.73
   255.68         14.13       4661.65       3648.32          0.01          1.96
   255.69         14.13       4660.58       3647.48          0.01          0.99
   255.70         14.13       4657.99       3645.38          0.00         -1.54
   255.71         14.13       4657.99       3645.38          0.00         -4.28
   255.72         14.13       4660.73       3647.48          0.00         -1.54
   255.73         14.13       4660.68       3647.48          0.00          2.12
   255.74         14.13       4657.84       3645.38          0.01         -0.83
   255.75         14.13       4657.68       3645.38          0.01         -4.75
   255.76         14.14       4660.11       3647.48          0.01         -2.53
   255.77         14.14       4661.03       3648.32          0.01         -0.69
   255.78         14.14       4657.16       3645.38          0.02         -1.87
   255.79         14.14       4657.06       3645.38          0.02         -4.72
   255.80         14.14       4657.00       3645.38          0.02         -4.77
   255.81         14.14       4660.77       3648.32          0.02         -0.95
   255.82         14.14       4660.66       3648.32          0.02         -1.06
   255.83         14.14       4657.98       3646.22          0.02          0.12
   255.84         14.14       4658.13       3646.22          0.01         -2.31
   255.85         14.14       4660.87       3648.32          0.01         -0.54
   255.86         14.14       4661.08       3648.32          0.01         -0.17
   255.87         14.13       4658.55       3646.22          0.01          2.88
   255.88         14.13       4658.55       3646.22          0.00          5.93
   255.89         14.13       4661.29       3648.32          0.00          5.22
   255.90         14.13       4661.29       3648.32         -0.00          5.48
   255.91         14.13       4661.29       3648.32         -0.00          5.64
   255.92         14.13       4657.47       3645.38         -0.00          2.95
   255.93         14.13       4656.40       3644.53         -0.00          0.90
   255.94         14.13       4660.16       3647.48         -0.00          4.66
   255.95         14.13       4660.21       3647.48         -0.00          4.77
   255.96         14.13       4660.53       3647.48         -0.01          5.13
   255.97         14.13       4656.92       3644.53         -0.01          1.47
   255.98         14.13       4660.94       3647.48         -0.01          3.94
   255.99         14.13       4660.07       3646.64         -0.01         -0.80
   256.00         14.13       4661.20       3647.48         -0.01          1.09
   256.01         14.12       4660.33       3646.64         -0.01         -0.95
   256.02         14.12       4661.51       3647.48         -0.01          3.78
   256.03         14.12       4661.51       3647.48         -0.01          2.45
   256.04         14.12       4661.51       3647.48         -0.01          2.34
   256.05         14.12       4661.36       3647.48         -0.00         -0.71
   256.06         14.13       4660.99       3647.48          0.00          1.56
   256.07         14.13       4660.63       3647.48          0.00          1.25
   256.08         14.13       4660.26       3647.48          0.01          0.88
   256.09         14.14       4658.98       3646.64          0.01         -2.98
   256.10         14.14       4660.06       3647.48          0.01          1.96
   256.11         14.13       4660.26       3647.48          0.00          1.35
   256.12         14.13       4657.52       3645.38          0.00         -0.16
   256.13         14.14       4656.35       3644.53          0.00         -4.84
   256.14         14.14       4660.11       3647.48         -0.00         -0.87
   256.15         14.14       4660.98       3648.32         -0.00          3.87
   256.16         14.14       4659.95       3647.48         -0.00          3.05
   256.17         14.14       4660.11       3647.48         -0.00         -0.55
   256.18         14.14       4657.37       3645.38         -0.00         -3.35
   256.19         14.14       4661.13       3648.32         -0.00          4.28
   256.20         14.14       4661.03       3648.32         -0.00          4.13
   256.21         14.14       4660.87       3648.32         -0.00          0.16
   256.22         14.14       4664.53       3651.27          0.00          3.76
   256.23         14.14       4671.95       3657.16          0.00         13.87
   256.24         14.14       4676.20       3660.52          0.00         19.14
   256.25         14.14       4679.96       3663.47          0.00         22.91
   256.26         14.14       4688.08       3669.78          0.00         27.21
