#Written by Robertson Geologging WinLogger V1.0/406
~VERSION INFORMATION
#------------------------------------------------------------------------------
 VERS. 2.0 : CWLS LOG ASCII STANDARD - VERSION 2.0
 WRAP. NO  : ONE LINE PER DEPTH STEP
~WELL INFORMATION
#MNEM.UNIT         DATA                                DESCRIPTION OF MNEMONIC
#------------------------------------------------------------------------------
 STRT.M          7.0800                            :   START DEPTH
 STOP.M        258.0000                            :   STOP DEPTH
 STEP.M          0.0100                            :   STEP VALUE
 NULL.        -999.2500                            :   NULL VALUE
 COMP.    Coal Authority                           :   COMPANY NAME
 WELL.    Mainsforth Shaft                         :   WELL NAME
 FLD.     Mainsforth                               :   FIELD NAME
 LOC.     N/A                                      :   LOCATION
 PROV.    N/A                                      :   PROVINCE
 SRVC.    N/A                                      :   SERVICE COMPANY NAME
 DATE.    20 May 08                                :   DATE
 UWI.     N/A                                      :   UNIQUE WELL IDENTIFIER
~PARAMETER INFORMATION
#MNEMO.UNIT         VALUE                 DESCRIPTION OF MNEMONIC
#------------------------------------------------------------------------------
~OTHER INFORMATION SECTION
#------------------------------------------------------------------------------
 TCDS 1365
~CURVE INFORMATION
#MNEMO.UNIT         API CODE              CURVE DESCRIPTION
#------------------------------------------------------------------------------
 DEPTH.M                                 :   0     Depth
 TEMP.DegC                               :   1     Temperature
 COND.uS/cm                              :   2     Absolute Conductivity
 COND.uS/cm                              :   3     Conductivity@25DegC
 DELT.DegC                               :   4     Delta T
 DELC.uS/cm                              :   5     Delta C
#------------------------------------------------------------------------------
~A  DEPTH     TEMP      COND      COND      DELT      DELC      
# ...
    57.24     11.15   1642.56   2271.58      0.01      4.40 
    57.25     11.15   1647.08   2277.84      0.01     10.35 
    57.26     11.15   1647.08   2277.84      0.02      9.74 
    57.27     11.16   1651.60   2283.48      0.03     15.68 
    57.28     11.15   1647.08   2277.84      0.02      4.73 
    57.29     11.15   1647.08   2278.14      0.02     10.04 
    57.30     11.15   1642.56   2271.89      0.01      4.09 
    57.31     11.14   1647.08   2278.75      0.00     11.26 
    57.32     11.14   1647.08   2278.75     -0.00     11.56 
    57.33     11.14   1647.08   2278.44      0.01     10.65 
    57.34     11.14   1651.60   2284.70      0.01     11.90 
    57.35     11.14   1647.08   2278.44      0.01     10.35 
    57.36     11.14   1647.08   2278.44      0.01     10.35 
    57.37     11.14   1647.08   2279.05      0.00     -0.30 
    57.38     11.14   1647.08   2279.05      0.00     11.26 
    57.39     11.14   1642.56   2272.49      0.01     -0.61 
    57.40     11.14   1654.32   2288.45      0.01     20.35 
    57.41     11.16   1647.08   2277.53      0.01     10.34 
    57.42     11.15   1638.95   2266.58      0.01     -0.61 
    57.43     11.15   1647.08   2278.14      0.01     -0.61 
    57.44     11.14   1647.08   2278.75      0.00     11.26 
    57.45     11.13   1647.08   2279.66     -0.01      6.86 
    57.46     11.14   1642.56   2272.80     -0.01      5.61 
    57.47     11.14   1654.32   2289.06     -0.01     21.87 
    57.48     11.14   1647.08   2278.75     -0.00      0.30 
    57.49     11.15   1647.08   2278.14      0.01     10.65 
    57.50     11.15   1647.08   2278.14      0.02     10.04 
    57.51     11.16   1647.08   2277.53      0.02      4.73 
    57.52     11.15   1647.08   2277.84      0.02     -1.22 
    57.53     11.16   1651.60   2283.78      0.03     15.69 
    57.54     11.16   1647.08   2277.53      0.03     -2.13 
    57.55     11.15   1647.08   2277.84      0.03      9.44 
    57.56     11.15   1647.08   2277.84      0.02      4.73 
    57.57     11.15   1647.08   2277.84      0.01     10.35 
    57.58     11.15   1647.08   2277.84      0.01     -0.91 
    57.59     11.14   1651.60   2284.70      0.00     17.21 
    57.60     11.14   1647.08   2278.75      0.00      0.00 
    57.61     11.14   1647.08   2279.05      0.00      6.26 
    57.62     11.14   1654.32   2289.06     -0.00     21.57 
    57.63     11.14   1647.08   2278.75      0.00     -0.30 
    57.64     11.14   1642.56   2272.19      0.01      4.40 
    57.65     11.14   1654.32   2288.45      0.01      9.40 
    57.66     11.15   1647.08   2278.14      0.01      5.34 
    57.67     11.14   1647.08   2278.75     -0.00     11.56 
    57.68     11.14   1647.08   2278.75      0.00     -0.30 
    57.69     11.14   1651.60   2284.70      0.00     12.20 
    57.70     11.15   1647.08   2278.14      0.00     -0.30 
    57.71     11.16   1647.08   2277.53      0.02      9.74 
    57.72     11.16   1647.08   2277.53      0.01      5.64 
    57.73     11.15   1654.32   2287.84      0.01      9.40 
    57.74     11.14   1642.56   2272.19      0.01     -6.86 
    57.75     11.14   1647.08   2278.44      0.00     11.26 
    57.76     11.14   1654.32   2288.76     -0.01     16.87 
    57.77     11.14   1647.08   2278.44     -0.00      0.30 
    57.78     11.15   1651.60   2284.09      0.00      6.25 
    57.79     11.15   1647.08   2277.84      0.00     10.95 
    57.80     11.16   1647.08   2277.53      0.02      4.73 
    57.81     11.16   1647.08   2277.53      0.02     -7.47 
    57.82     11.15   1654.32   2287.84      0.01     20.35 
    57.83     11.15   1642.56   2271.58      0.02     -7.47 
    57.84     11.16   1654.32   2287.53      0.02      8.79 
    57.85     11.16   1647.08   2277.53      0.02      5.04 
    57.86     11.16   1647.08   2277.53      0.01     -0.91 
    57.87     11.15   1647.08   2278.14     -0.01     11.86 
    57.88     11.15   1654.32   2287.84     -0.01     10.61 
    57.89     11.16   1651.60   2283.78      0.00     12.50 
    57.90     11.16   1647.08   2277.53      0.00      0.00 
    57.91     11.16   1647.08   2277.53      0.00     -0.30 
    57.92     11.16   1654.32   2287.53      0.01     15.65 
    57.93     11.15   1643.47   2272.83      0.00     -5.31 
    57.94     11.15   1649.80   2281.89     -0.00      4.06 
    57.95     11.14   1651.60   2284.70     -0.01      6.86 
    57.96     11.15   1647.08   2278.14     -0.00      6.56 
    57.97     11.15   1651.60   2284.39     -0.00      6.56 
    57.98     11.15   1647.08   2278.14      0.01     -0.61 
    57.99     11.15   1647.08   2278.14      0.01     -0.61 
    58.00     11.15   1654.32   2288.15      0.01     20.65 
    58.01     11.15   1642.56   2271.89      0.01     -7.17 
    58.02     11.15   1654.32   2287.84      0.01      9.09 
    58.03     11.16   1647.08   2277.53      0.01     -7.17 
    58.04     11.16   1654.32   2287.53      0.01     20.65 
    58.05     11.16   1647.08   2277.53      0.00     -0.30 
    58.06     11.15   1651.60   2284.39     -0.01      6.86 
    58.07     11.14   1647.08   2278.44     -0.01      0.91 
    58.08     11.15   1647.08   2277.84      0.00     -0.30 
    58.09     11.15   1654.32   2288.15     -0.00     16.56 
    58.10     11.15   1651.60   2284.39     -0.00      6.56 
    58.11     11.14   1647.08   2278.44     -0.01      0.91 
    58.12     11.15   1647.08   2278.14     -0.01      0.91 
    58.13     11.14   1654.32   2288.45     -0.02     11.53 
    58.14     11.14   1651.60   2284.70     -0.02      7.77 
    58.15     11.14   1647.08   2278.44     -0.02      7.47 
    58.16     11.14   1654.32   2288.76     -0.01     10.92 
    58.17     11.15   1642.56   2271.89      0.00     -6.56 
    58.18     11.15   1654.32   2288.15      0.00      9.70 
    58.19     11.14   1647.08   2278.44      0.00     -6.25 
    58.20     11.14   1654.32   2288.45     -0.00     10.31 
    58.21     11.14   1651.60   2284.70     -0.01      6.86 
    58.22     11.14   1647.08   2278.44     -0.00      0.30 
    58.23     11.15   1647.08   2278.14     -0.00      6.56 
    58.24     11.15   1654.32   2288.15     -0.00     10.31 
    58.25     11.15   1651.60   2284.39     -0.00      6.56 
    58.26     11.15   1647.08   2278.14     -0.01     -5.34 
    58.27     11.15   1654.32   2288.15     -0.00     10.31 
    58.28     11.15   1647.08   2278.14      0.00      0.00 
    58.29     11.14   1647.08   2278.44     -0.00      6.56 
    58.30     11.14   1651.60   2284.70      0.00      5.95 
    58.31     11.15   1654.32   2287.84      0.01      9.09 
    58.32     11.15   1647.08   2278.14      0.00     -0.30 
    58.33     11.14   1654.32   2288.45      0.00      3.75 
    58.34     11.15   1647.08   2278.14      0.00     -0.30 
    58.35     11.14   1651.60   2285.00     -0.00      6.56 
    58.36     11.14   1654.32   2288.76      0.00      9.70 
    58.37     11.14   1647.08   2278.44      0.01     -0.61 
    58.38     11.14   1654.32   2288.45      0.00     15.96 
    58.39     11.15   1647.08   2278.14      0.00    -10.31 
    58.40     11.15   1647.08   2277.84     -0.00      0.30 
    58.41     11.16   1651.60   2283.78      0.00     17.20 
    58.42     11.16   1654.32   2287.53      0.01      9.39 
    58.43     11.15   1647.08   2277.84      0.01     -0.91 
    58.44     11.15   1651.60   2284.09      0.03      4.43 
    58.45     11.15   1654.32   2287.84      0.02     15.04 
    58.46     11.14   1647.08   2278.44      0.01    -10.62 
    58.47     11.14   1651.60   2284.70      0.00      5.95 
    58.48     11.15   1654.32   2288.15      0.00     10.00 
    58.49     11.15   1647.08   2278.14      0.00      0.00 
    58.50     11.15   1654.32   2288.15     -0.01     10.61 
    58.51     11.15   1651.60   2284.39     -0.00      6.56 
    58.52     11.14   1647.08   2278.44     -0.01     -5.34 
    58.53     11.14   1654.32   2288.76     -0.02     11.22 
    58.54     11.15   1651.60   2284.09      0.00      6.25 
    58.55     11.15   1647.08   2277.84      0.00      0.00 
