#Written by Robertson Geologging WinLogger V1.5/410
~VERSION INFORMATION
#------------------------------------------------------------------------------
 VERS. 2.0 : CWLS LOG ASCII STANDARD - VERSION 2.0
 WRAP. NO  : ONE LINE PER DEPTH STEP
~WELL INFORMATION
#MNEM.UNIT         DATA                                DESCRIPTION OF MNEMONIC
#------------------------------------------------------------------------------
 STRT.M          6.2700                            :   START DEPTH
 STOP.M        256.6400                            :   STOP DEPTH
 STEP.M          0.0100                            :   STEP VALUE
 NULL.        -999.2500                            :   NULL VALUE
 COMP.    IWS                                      :   COMPANY NAME
 WELL.    MAINSFORTH                               :   WELL NAME
 FLD.     DURHAM                                   :   FIELD NAME
 LOC.     N/A                                      :   LOCATION
 PROV.    N/A                                      :   PROVINCE
 SRVC.    N/A                                      :   SERVICE COMPANY NAME
 DATE.    16 Dec 09                                :   DATE
 UWI.     N/A                                      :   UNIQUE WELL IDENTIFIER
~PARAMETER INFORMATION
#MNEMO.UNIT         VALUE                 DESCRIPTION OF MNEMONIC
#------------------------------------------------------------------------------
~OTHER INFORMATION SECTION
#------------------------------------------------------------------------------
 TCDS 1365
~CURVE INFORMATION
#MNEMO.UNIT         API CODE              CURVE DESCRIPTION
#------------------------------------------------------------------------------
 DEPTH.M                                 :   0     Depth
 TEMP.DegC                               :   1     Temperature
 COND.uS/cm                              :   2     Conductivity@25DegC
 COND.uS/cm                              :   3     Absolute Conductivity
 DELT.DegC                               :   4     Delta T
 DELC.uS/cm                              :   5     Delta C
#------------------------------------------------------------------------------
~A  DEPTH          TEMP          COND          COND          DELT          DELC
# ...
    56.27         10.98       2132.59       1534.66         -0.00          5.48
    56.28         10.98       2130.24       1532.98         -0.00          3.07
    56.29         10.98       2130.31       1532.98         -0.00          3.07
    56.30         10.98       2134.42       1535.92         -0.00          3.12
    56.31         10.98       2130.34       1532.98         -0.00          3.09
    56.32         10.98       2130.29       1532.98         -0.00          2.99
    56.33         10.98       2130.26       1532.98         -0.00          0.63
    56.34         10.98       2130.26       1532.98          0.00          4.64
    56.35         10.98       2134.34       1535.92          0.00          6.89
    56.36         10.98       2127.37       1530.89          0.00         -0.13
    56.37         10.98       2127.37       1530.89          0.00         -0.23
    56.38         10.98       2129.10       1532.14          0.00         -2.62
    56.39         10.98       2133.15       1535.08          0.01          3.74
    56.40         10.98       2129.04       1532.14          0.01          1.39
    56.41         10.98       2128.97       1532.14          0.01          1.28
    56.42         10.98       2128.97       1532.14          0.01          1.21
    56.43         10.98       2128.99       1532.14          0.01          1.18
    56.44         10.98       2133.07       1535.08          0.01          3.48
    56.45         10.98       2131.32       1533.82          0.01          1.76
    56.46         10.98       2127.22       1530.89          0.01         -2.29
    56.47         10.98       2131.35       1533.82          0.01         -0.44
    56.48         10.98       2133.15       1535.08          0.01          5.52
    56.49         10.98       2129.20       1532.14          0.00          1.57
    56.50         10.98       2129.33       1532.14          0.00          1.75
    56.51         10.98       2129.30       1532.14         -0.00          0.03
    56.52         10.98       2129.35       1532.14         -0.00          0.13
    56.53         10.98       2133.43       1535.08         -0.00          1.98
    56.54         10.98       2131.69       1533.82         -0.00          4.34
    56.55         10.98       2127.63       1530.89         -0.00          0.26
    56.56         10.98       2129.41       1532.14         -0.00          2.01
    56.57         10.98       2133.49       1535.08         -0.00          6.09
    56.58         10.98       2129.35       1532.14         -0.00          0.23
    56.59         10.98       2129.30       1532.14         -0.00          0.21
    56.60         10.98       2133.28       1535.08         -0.00          4.21
    56.61         10.98       2131.40       1533.82          0.00         -0.03
    56.62         10.98       2131.35       1533.82          0.00          3.97
    56.63         10.98       2131.30       1533.82          0.00          3.87
    56.64         10.98       2131.22       1533.82          0.01          1.97
    56.65         10.99       2128.86       1532.14          0.01         -0.41
    56.66         10.98       2132.97       1535.08          0.01          3.74
    56.67         10.98       2131.30       1533.82          0.00         -0.21
    56.68         10.98       2127.37       1530.89          0.00         -0.05
    56.69         10.98       2131.56       1533.82         -0.00          4.10
    56.70         10.98       2131.63       1533.82         -0.00          1.85
    56.71         10.98       2127.61       1530.89         -0.00         -2.18
    56.72         10.98       2129.38       1532.14         -0.00          1.98
    56.73         10.98       2131.76       1533.82         -0.01          0.34
    56.74         10.98       2131.76       1533.82         -0.01          4.47
    56.75         10.97       2127.71       1530.89         -0.01         -2.42
    56.76         10.98       2131.74       1533.82         -0.01          1.73
    56.77         10.98       2131.66       1533.82         -0.01          1.71
    56.78         10.98       2131.58       1533.82         -0.01          1.63
    56.79         10.98       2131.50       1533.82         -0.01          1.58
    56.80         10.98       2131.48       1533.82         -0.01          1.53
    56.81         10.98       2131.45       1533.82         -0.01         -0.22
    56.82         10.98       2131.48       1533.82         -0.01          3.94
    56.83         10.98       2131.45       1533.82         -0.01          1.55
    56.84         10.98       2129.10       1532.14         -0.01         -0.80
    56.85         10.98       2132.06       1534.24         -0.01          2.16
    56.86         10.98       2132.14       1534.24         -0.01          5.13
    56.87         10.98       2132.22       1534.24         -0.01          1.07
    56.88         10.98       2128.14       1531.30         -0.01         -1.33
    56.89         10.98       2129.78       1532.56         -0.00          2.62
    56.90         10.98       2133.68       1535.50         -0.00          2.43
    56.91         10.99       2129.45       1532.56          0.00         -1.77
    56.92         10.99       2127.57       1531.30          0.00          0.38
    56.93         10.99       2131.52       1534.24          0.01          0.17
    56.94         10.99       2131.49       1534.24          0.01          0.09
    56.95         10.99       2131.44       1534.24          0.01          4.07
    56.96         10.99       2126.73       1530.89          0.01         -4.78
    56.97         10.99       2130.73       1533.82          0.01         -0.80
    56.98         10.99       2130.65       1533.82          0.02          3.17
    56.99         10.99       2130.65       1533.82          0.01          1.45
    57.00         10.99       2130.70       1533.82          0.01          1.50
    57.01         10.99       2130.83       1533.82          0.01          1.58
    57.02         10.99       2133.24       1535.50          0.01          3.91
    57.03         10.99       2130.93       1533.82          0.01          1.53
    57.04         10.99       2130.99       1533.82          0.01          1.55
    57.05         10.99       2130.96       1533.82          0.01          3.91
    57.06         10.99       2133.32       1535.50          0.01         -0.67
    57.07         10.99       2130.99       1533.82          0.01         -1.18
    57.08         10.99       2130.99       1533.82          0.01          0.60
    57.09         10.99       2131.04       1533.82          0.01          0.60
    57.10         10.99       2131.04       1533.82          0.01          0.54
    57.11         10.99       2129.29       1532.56          0.01         -5.31
    57.12         10.99       2129.19       1532.56          0.01         -1.33
    57.13         10.99       2130.78       1533.82          0.01          0.31
    57.14         10.99       2130.73       1533.82          0.01         -1.97
    57.15         10.99       2128.95       1532.56          0.01         -1.94
    57.16         10.99       2129.03       1532.56          0.01         -4.25
    57.17         10.99       2130.86       1533.82          0.01          0.47
    57.18         10.99       2130.91       1533.82          0.01          2.77
    57.19         10.99       2130.93       1533.82          0.01          1.02
    57.20         10.99       2126.86       1530.89          0.01         -7.13
    57.21         10.99       2130.96       1533.82          0.01          1.08
    57.22         10.99       2132.71       1535.08          0.01          2.90
    57.23         10.99       2128.73       1532.14          0.01         -1.02
    57.24         10.98       2128.89       1532.14          0.00         -3.70
    57.25         10.98       2133.10       1535.08          0.00          0.50
    57.26         10.98       2133.23       1535.08         -0.00          0.63
