#Written by Robertson Geologging WinLogger V1.0/406
~VERSION INFORMATION
#------------------------------------------------------------------------------
 VERS. 2.0 : CWLS LOG ASCII STANDARD - VERSION 2.0
 WRAP. NO  : ONE LINE PER DEPTH STEP
~WELL INFORMATION
#MNEM.UNIT         DATA                                DESCRIPTION OF MNEMONIC
#------------------------------------------------------------------------------
 STRT.M          7.6600                            :   START DEPTH
 STOP.M        258.0000                            :   STOP DEPTH
 STEP.M          0.0100                            :   STEP VALUE
 NULL.        -999.2500                            :   NULL VALUE
 COMP.    I.W.S.                                   :   COMPANY NAME
 WELL.    Mainsforth                               :   WELL NAME
 FLD.     Mainsforth                               :   FIELD NAME
 LOC.     N/A                                      :   LOCATION
 PROV.    N/A                                      :   PROVINCE
 SRVC.    N/A                                      :   SERVICE COMPANY NAME
 DATE.    21 Jul 09                                :   DATE
 UWI.     N/A                                      :   UNIQUE WELL IDENTIFIER
~PARAMETER INFORMATION
#MNEMO.UNIT         VALUE                 DESCRIPTION OF MNEMONIC
#------------------------------------------------------------------------------
~OTHER INFORMATION SECTION
#------------------------------------------------------------------------------
 TCGS 1365
~CURVE INFORMATION
#MNEMO.UNIT         API CODE              CURVE DESCRIPTION
#------------------------------------------------------------------------------
 DEPTH.M                                 :   0     Depth
 TEMP.DegC                               :   1     Temperature
 CN25.uS/cm                              :   2     Conductivity@25DegC
 DELT.DegC                               :   3     Delta T
 DELC.uS/cm                              :   4     Delta C
 NGAM.CPS                                :   5     Natural Gamma
 COND.uS/cm                              :   6     Conductivity
#------------------------------------------------------------------------------
~A  DEPTH     TEMP      CN25      DELT      DELC      NGAM      COND      
# ...
   124.05     11.97   3255.03      0.06     30.59      0.00   2401.79 
   124.06     11.97   3263.22      0.07     29.73      0.00   2408.16 
   124.07     11.97   3254.60      0.07     20.68      0.00   2401.79 
   124.08     11.97   3263.22      0.08     28.45      0.00   2408.16 
   124.09     11.96   3255.46      0.08     28.89      0.00   2401.79 
   124.10     11.96   3264.08      0.08     28.45      0.00   2408.16 
   124.11     11.96   3255.46      0.09     19.41      0.00   2401.79 
   124.12     11.97   3263.65      0.08     28.45      0.00   2408.16 
   124.13     11.97   3254.60      0.08     20.26      0.00   2401.79 
   124.14     11.96   3264.08      0.06     22.76      7.00   2408.16 
   124.15     11.95   3256.32      0.05     22.40      0.00   2401.79 
   124.16     11.95   3265.37      0.05     31.45      0.00   2408.16 
   124.17     11.94   3266.23      0.05     22.82      0.00   2408.16 
   124.18     11.94   3257.18      0.05     22.40      0.00   2401.79 
   124.19     11.95   3264.94      0.06     21.53      0.00   2408.16 
   124.20     11.95   3265.37      0.06     30.60      0.00   2408.16 
   124.21     11.95   3264.94      0.05     23.62      0.00   2408.16 
   124.22     11.95   3265.37      0.04     23.25      0.00   2408.16 
   124.23     11.94   3266.23      0.03     33.16      0.00   2408.16 
   124.24     11.94   3257.18      0.03     15.91      0.00   2401.79 
   124.25     11.94   3266.23      0.03     24.54      0.00   2408.16 
   124.26     11.93   3266.66      0.03     24.54      0.00   2408.16 
   124.27     11.94   3265.80      0.05     31.45      0.00   2408.16 
   124.28     11.94   3265.80      0.04     23.25      0.00   2408.16 
   124.29     11.96   3266.97      0.06     25.65      0.00   2409.98 
   124.30     11.97   3263.65      0.06     21.53      0.00   2408.16 
   124.31     11.97   3263.22      0.06     21.95      0.00   2408.16 
   124.32     11.97   3263.22      0.06     21.52      0.00   2408.16 
   124.33     11.97   3263.65      0.06     12.09      0.00   2408.16 
   124.34     11.96   3272.69      0.05     31.00      0.00   2414.53 
   124.35     11.95   3264.94      0.04     23.67      0.00   2408.16 
   124.36     11.95   3257.55      0.04     16.28      0.00   2402.70 
   124.37     11.96   3264.51      0.04     13.81      0.00   2408.16 
   124.38     11.96   3264.08      0.05     22.81      0.00   2408.16 
   124.39     11.97   3272.26      0.04     31.85      0.00   2414.53 
   124.40     11.97   3263.65      0.04     13.38      0.00   2408.16 
   124.41     11.96   3266.54      0.05     25.27      0.00   2409.98 
   124.42     11.96   3264.08      0.05     22.81      0.00   2408.16 
   124.43     11.96   3272.69      0.05     21.57      0.00   2414.53 
   124.44     11.96   3264.51      0.04     23.67      0.00   2408.16 
   124.45     11.95   3264.94      0.03     14.67      0.00   2408.16 
   124.46     11.96   3273.13      0.03     33.95      0.00   2414.53 
   124.47     11.97   3265.68      0.04     15.84      0.00   2409.98 
   124.48     11.98   3262.36      0.06     12.09      0.00   2408.16 
   124.49     11.98   3270.54      0.06     30.56      0.00   2414.53 
   124.50     11.98   3262.79      0.05     12.52      0.00   2408.16 
   124.51     11.97   3271.83      0.06     20.71      0.00   2414.53 
   124.52     11.97   3266.11      0.05     15.41      0.00   2409.98 
   124.53     11.98   3271.40      0.06     31.80      0.00   2414.53 
   124.54     11.98   3262.79      0.05     12.52      0.00   2408.16 
   124.55     11.98   3271.40      0.05     21.56      0.00   2414.53 
   124.56     11.97   3272.26      0.04     22.42      0.00   2414.53 
   124.57     11.96   3273.13      0.02     23.72      0.00   2414.53 
   124.58     11.96   3266.54      0.02     17.56      0.00   2409.98 
   124.59     11.97   3272.26      0.02     24.14      0.00   2414.53 
   124.60     11.98   3271.40      0.03     23.28      0.00   2414.53 
   124.61     11.97   3271.83      0.02     23.71      0.00   2414.53 
   124.62     11.97   3271.83      0.02     23.71      0.00   2414.53 
   124.63     11.97   3272.26      0.03     13.43      0.00   2414.53 
   124.64     11.97   3276.76      0.02     28.63      0.00   2418.17 
   124.65     11.98   3271.40      0.04     22.42      0.00   2414.53 
   124.66     11.98   3270.97      0.04     21.99      0.00   2414.53 
   124.67     11.98   3270.97      0.05     12.94      0.00   2414.53 
   124.68     11.98   3270.54      0.06     20.27      0.00   2414.53 
   124.69     11.98   3271.40      0.05     21.56      0.00   2414.53 
   124.70     11.97   3271.83      0.04     13.37      0.00   2414.53 
   124.71     11.98   3279.59      0.06     29.32      0.00   2420.90 
   124.72     11.97   3271.83      0.05     12.94      0.00   2414.53 
   124.73     11.98   3271.40      0.06     20.71      0.00   2414.53 
   124.74     11.97   3271.83      0.06     12.08      0.00   2414.53 
   124.75     11.96   3272.69      0.04     22.43      0.00   2414.53 
   124.76     11.96   3277.62      0.03     19.16      0.00   2418.17 
   124.77     11.97   3271.83      0.04     22.42      0.00   2414.53 
   124.78     11.98   3271.40      0.03     14.23      0.00   2414.53 
   124.79     11.98   3271.40      0.03     14.66      7.00   2414.53 
   124.80     11.98   3270.97      0.04     22.42      0.00   2414.53 
   124.81     11.97   3271.83      0.03     14.66      0.00   2414.53 
   124.82     11.98   3279.59      0.03     23.27      0.00   2420.90 
   124.83     11.98   3264.39      0.04      7.64      0.00   2409.98 
   124.84     11.98   3270.54      0.03     23.27      0.00   2414.53 
   124.85     11.98   3279.15      0.02     24.12      0.00   2420.90 
   124.86     11.98   3270.97      0.02     15.08      0.00   2414.53 
   124.87     11.98   3270.97      0.02     15.51      0.00   2414.53 
   124.88     11.98   3270.97      0.02     15.51      0.00   2414.53 
   124.89     11.98   3270.54      0.03     14.65      0.00   2414.53 
   124.90     11.98   3275.89      0.02     20.01      0.00   2418.17 
   124.91     11.99   3270.11      0.04     13.79      0.00   2414.53 
   124.92     11.99   3270.11      0.03     14.22      0.00   2414.53 
   124.93     11.99   3278.72      0.04     22.40      0.00   2420.90 
   124.94     11.98   3270.97      0.02     15.08      0.00   2414.53 
   124.95     11.97   3271.83      0.01      7.33      0.00   2414.53 
   124.96     11.98   3271.40      0.03     14.66      0.00   2414.53 
   124.97     11.98   3279.59      0.02     23.70      7.00   2420.90 
   124.98     11.98   3264.39      0.03     -0.12      0.00   2409.98 
   124.99     11.99   3278.72      0.03     23.26      0.00   2420.90 
   125.00     11.99   3270.11      0.02     15.08      0.00   2414.53 
   125.01     11.98   3271.40      0.01      7.33      0.00   2414.53 
   125.02     11.98   3271.40      0.01     15.94      0.00   2414.53 
   125.03     11.98   3280.02      0.01     15.94      0.00   2420.90 
   125.04     11.98   3271.40      0.01     16.37      0.00   2414.53 
   125.05     11.97   3271.83      0.00      8.62      0.00   2414.53 
   125.06     11.97   3272.26     -0.00     17.66      0.00   2414.53 
   125.07     11.96   3281.31     -0.01     18.10      0.00   2420.90 
   125.08     11.96   3273.13     -0.00     17.67      0.00   2414.53 
   125.09     11.96   3273.13     -0.00      9.05      0.00   2414.53 
   125.10     11.97   3280.88      0.00     25.42      0.00   2420.90 
   125.11     11.97   3271.83      0.00      8.19      0.00   2414.53 
   125.12     11.98   3271.40      0.00     16.80      0.00   2414.53 
   125.13     11.98   3279.59      0.02     15.51      0.00   2420.90 
   125.14     11.97   3271.83      0.02     15.52      0.00   2414.53 
   125.15     11.97   3271.83      0.02      6.47      0.00   2414.53 
   125.16     11.97   3280.45      0.03     14.22      7.00   2420.90 
   125.17     11.97   3271.83      0.03     14.66      0.00   2414.53 
