#Written by Robertson Geologging WinLogger V1.5/410
~VERSION INFORMATION
#------------------------------------------------------------------------------
 VERS. 2.0 : CWLS LOG ASCII STANDARD - VERSION 2.0
 WRAP. NO  : ONE LINE PER DEPTH STEP
~WELL INFORMATION
#MNEM.UNIT         DATA                                DESCRIPTION OF MNEMONIC
#------------------------------------------------------------------------------
 STRT.M          6.2700                            :   START DEPTH
 STOP.M        256.6400                            :   STOP DEPTH
 STEP.M          0.0100                            :   STEP VALUE
 NULL.        -999.2500                            :   NULL VALUE
 COMP.    IWS                                      :   COMPANY NAME
 WELL.    MAINSFORTH                               :   WELL NAME
 FLD.     DURHAM                                   :   FIELD NAME
 LOC.     N/A                                      :   LOCATION
 PROV.    N/A                                      :   PROVINCE
 SRVC.    N/A                                      :   SERVICE COMPANY NAME
 DATE.    16 Dec 09                                :   DATE
 UWI.     N/A                                      :   UNIQUE WELL IDENTIFIER
~PARAMETER INFORMATION
#MNEMO.UNIT         VALUE                 DESCRIPTION OF MNEMONIC
#------------------------------------------------------------------------------
~OTHER INFORMATION SECTION
#------------------------------------------------------------------------------
 TCDS 1365
~CURVE INFORMATION
#MNEMO.UNIT         API CODE              CURVE DESCRIPTION
#------------------------------------------------------------------------------
 DEPTH.M                                 :   0     Depth
 TEMP.DegC                               :   1     Temperature
 COND.uS/cm                              :   2     Conductivity@25DegC
 COND.uS/cm                              :   3     Absolute Conductivity
 DELT.DegC                               :   4     Delta T
 DELC.uS/cm                              :   5     Delta C
#------------------------------------------------------------------------------
~A  DEPTH          TEMP          COND          COND          DELT          DELC
# ...
    89.27         11.40       2495.13       1816.48          0.01         -5.36
    89.28         11.40       2495.25       1816.48          0.01         -5.30
    89.29         11.40       2499.43       1819.42          0.01          2.83
    89.30         11.39       2496.73       1817.32          0.01          0.07
    89.31         11.39       2496.88       1817.32          0.01         -3.82
    89.32         11.39       2500.97       1820.26          0.00          4.31
    89.33         11.39       2501.00       1820.26          0.00          4.34
    89.34         11.39       2496.42       1816.90          0.00         -3.67
    89.35         11.39       2500.49       1819.84          0.00          3.31
    89.36         11.39       2501.73       1820.68          0.00          1.15
    89.37         11.39       2497.79       1817.74         -0.00         -3.82
    89.38         11.39       2501.79       1820.68         -0.00          5.46
    89.39         11.39       2501.67       1820.68         -0.00          4.18
    89.40         11.39       2497.49       1817.74          0.00         -4.06
    89.41         11.39       2500.22       1819.84          0.00         -1.42
    89.42         11.39       2500.16       1819.84          0.01          2.46
    89.43         11.39       2496.21       1816.90          0.00         -5.52
    89.44         11.39       2497.49       1817.74          0.00         -4.24
    89.45         11.39       2501.64       1820.68          0.00          3.43
    89.46         11.39       2497.70       1817.74         -0.00         -3.40
    89.47         11.39       2497.73       1817.74         -0.00          0.03
    89.48         11.39       2501.85       1820.68         -0.00          5.25
    89.49         11.38       2497.97       1817.74         -0.00         -3.98
    89.50         11.38       2498.12       1817.74         -0.00         -2.67
    89.51         11.38       2502.27       1820.68         -0.01          5.64
    89.52         11.38       2498.24       1817.74         -0.01         -2.25
    89.53         11.38       2498.15       1817.74         -0.01         -2.13
    89.54         11.38       2502.06       1820.68         -0.01          6.00
    89.55         11.39       2500.79       1819.84         -0.01          0.75
    89.56         11.39       2496.60       1816.90         -0.01         -3.40
    89.57         11.39       2500.55       1819.84         -0.01          4.54
    89.58         11.39       2500.46       1819.84         -0.01          0.42
    89.59         11.39       2496.27       1816.90         -0.00         -4.92
    89.60         11.39       2500.19       1819.84         -0.00          3.06
    89.61         11.40       2500.07       1819.84         -0.00          3.00
    89.62         11.40       2495.91       1816.90          0.00         -5.25
    89.63         11.40       2499.92       1819.84          0.00          2.70
    89.64         11.40       2499.89       1819.84          0.00          2.58
    89.65         11.40       2495.73       1816.90          0.01         -5.73
    89.66         11.40       2499.71       1819.84          0.01          2.31
    89.67         11.40       2499.62       1819.84          0.01          2.25
    89.68         11.40       2495.46       1816.90          0.01         -5.21
    89.69         11.41       2499.38       1819.84          0.01          2.86
    89.70         11.41       2499.20       1819.84          0.01          3.95
    89.71         11.41       2495.02       1816.90          0.01         -4.09
    89.72         11.41       2498.29       1819.42          0.01         -0.81
    89.73         11.41       2498.26       1819.42          0.01          3.28
    89.74         11.41       2494.23       1816.48          0.01         -4.78
    89.75         11.41       2498.29       1819.42          0.01         -0.78
    89.76         11.41       2498.41       1819.42          0.01          3.28
    89.77         11.41       2494.38       1816.48          0.01         -4.90
    89.78         11.41       2498.47       1819.42          0.01         -0.96
    89.79         11.41       2498.53       1819.42          0.02          2.35
    89.80         11.41       2495.71       1817.32          0.02         -4.66
    89.81         11.41       2499.86       1820.26          0.02         -0.65
    89.82         11.41       2499.98       1820.26          0.02          3.41
    89.83         11.40       2496.71       1817.74          0.01         -3.90
    89.84         11.40       2500.86       1820.68          0.01          0.19
    89.85         11.40       2500.95       1820.68          0.01          4.32
    89.86         11.40       2497.01       1817.74          0.01         -3.66
    89.87         11.40       2501.13       1820.68          0.01          0.52
    89.88         11.39       2501.31       1820.68          0.01          4.83
    89.89         11.39       2497.49       1817.74          0.00         -2.94
    89.90         11.39       2501.58       1820.68         -0.00          1.27
    89.91         11.39       2500.37       1819.84         -0.00          4.15
    89.92         11.39       2496.21       1816.90         -0.00          0.06
    89.93         11.40       2500.07       1819.84          0.00         -0.09
    89.94         11.40       2499.89       1819.84          0.00          3.82
    89.95         11.40       2494.58       1816.06          0.00         -1.42
    89.96         11.40       2498.50       1819.00          0.01         -1.51
    89.97         11.40       2498.35       1819.00          0.01          2.43
    89.98         11.41       2494.16       1816.06          0.01         -1.78
    89.99         11.41       2498.05       1819.00          0.01         -1.96
    90.00         11.41       2497.84       1819.00          0.01          0.71
    90.01         11.41       2493.74       1816.06          0.02         -3.38
    90.02         11.41       2497.90       1819.00          0.01         -3.20
    90.03         11.41       2498.08       1819.00          0.01         -2.96
    90.04         11.40       2494.25       1816.06          0.01         -2.75
    90.05         11.40       2498.50       1819.00          0.00          1.46
    90.06         11.40       2499.80       1819.84          0.00         -1.30
    90.07         11.40       2495.88       1816.90          0.00         -1.21
    90.08         11.40       2500.07       1819.84          0.00          2.88
    90.09         11.39       2500.13       1819.84         -0.00         -1.09
    90.10         11.39       2496.09       1816.90          0.00         -1.18
    90.11         11.40       2500.07       1819.84          0.00          2.70
    90.12         11.40       2499.98       1819.84          0.01         -1.51
    90.13         11.40       2499.22       1819.42          0.01          1.65
    90.14         11.40       2499.04       1819.42          0.01          1.41
    90.15         11.40       2498.92       1819.42          0.02         -2.78
    90.16         11.41       2498.83       1819.42          0.02         -2.87
    90.17         11.41       2498.83       1819.42          0.02          1.23
    90.18         11.40       2500.01       1820.26          0.01         -1.51
    90.19         11.40       2495.98       1817.32          0.01         -5.36
    90.20         11.40       2500.07       1820.26          0.01          2.92
    90.21         11.40       2500.10       1820.26          0.01          3.10
    90.22         11.40       2496.10       1817.32          0.00         -4.27
    90.23         11.40       2500.13       1820.26          0.00          3.82
    90.24         11.40       2496.68       1817.74          0.00          1.58
    90.25         11.40       2496.71       1817.74          0.00         -2.42
    90.26         11.40       2500.74       1820.68          0.00          5.61
