#Written by Robertson Geologging WinLogger V1.0/406
~VERSION INFORMATION
#------------------------------------------------------------------------------
 VERS. 2.0 : CWLS LOG ASCII STANDARD - VERSION 2.0
 WRAP. NO  : ONE LINE PER DEPTH STEP
~WELL INFORMATION
#MNEM.UNIT         DATA                                DESCRIPTION OF MNEMONIC
#------------------------------------------------------------------------------
 STRT.M          7.6600                            :   START DEPTH
 STOP.M        258.0000                            :   STOP DEPTH
 STEP.M          0.0100                            :   STEP VALUE
 NULL.        -999.2500                            :   NULL VALUE
 COMP.    I.W.S.                                   :   COMPANY NAME
 WELL.    Mainsforth                               :   WELL NAME
 FLD.     Mainsforth                               :   FIELD NAME
 LOC.     N/A                                      :   LOCATION
 PROV.    N/A                                      :   PROVINCE
 SRVC.    N/A                                      :   SERVICE COMPANY NAME
 DATE.    21 Jul 09                                :   DATE
 UWI.     N/A                                      :   UNIQUE WELL IDENTIFIER
~PARAMETER INFORMATION
#MNEMO.UNIT         VALUE                 DESCRIPTION OF MNEMONIC
#------------------------------------------------------------------------------
~OTHER INFORMATION SECTION
#------------------------------------------------------------------------------
 TCGS 1365
~CURVE INFORMATION
#MNEMO.UNIT         API CODE              CURVE DESCRIPTION
#------------------------------------------------------------------------------
 DEPTH.M                                 :   0     Depth
 TEMP.DegC                               :   1     Temperature
 CN25.uS/cm                              :   2     Conductivity@25DegC
 DELT.DegC                               :   3     Delta T
 DELC.uS/cm                              :   4     Delta C
 NGAM.CPS                                :   5     Natural Gamma
 COND.uS/cm                              :   6     Conductivity
#------------------------------------------------------------------------------
~A  DEPTH     TEMP      CN25      DELT      DELC      NGAM      COND      
# ...
   207.67     12.95   3839.54      0.02      5.97      0.00   2909.76 
   207.68     12.95   3852.79      0.01     19.00      0.00   2919.82 
   207.69     12.94   3840.52      0.01     -0.99      0.00   2909.76 
   207.70     12.95   3847.48      0.02     13.20      0.00   2916.16 
   207.71     12.95   3841.95      0.02      8.87      0.00   2911.59 
   207.72     12.94   3848.46      0.02      6.46      0.00   2916.16 
   207.73     12.93   3849.45      0.00     15.66      0.00   2916.16 
   207.74     12.93   3843.43      0.00     10.84      0.00   2911.59 
   207.75     12.93   3849.45      0.00      8.43      0.00   2916.16 
   207.76     12.94   3848.46      0.00     15.17      0.00   2916.16 
   207.77     12.95   3841.45      0.02      8.87      0.00   2911.59 
   207.78     12.95   3847.97      0.00      5.53      0.00   2916.16 
   207.79     12.94   3840.03      0.01      7.45      0.00   2909.76 
   207.80     12.94   3853.28      0.01     11.77      0.00   2919.82 
   207.81     12.93   3849.45      0.01     14.68      0.00   2916.16 
   207.82     12.94   3840.03      0.03     -2.96      0.00   2909.76 
   207.83     12.95   3852.79      0.03     18.73      0.00   2919.82 
   207.84     12.94   3848.46      0.01      4.54      0.00   2916.16 
   207.85     12.95   3839.05      0.02      5.97      0.00   2909.76 
   207.86     12.95   3852.79      0.01      9.85      0.00   2919.82 
   207.87     12.94   3848.46      0.01     15.88      0.00   2916.16 
   207.88     12.95   3841.45      0.02     -1.97      0.00   2911.59 
   207.89     12.94   3848.46      0.00      7.94      0.00   2916.16 
   207.90     12.94   3848.96      0.01     15.88      0.00   2916.16 
   207.91     12.94   3842.44      0.00     -0.49      0.00   2911.59 
   207.92     12.94   3848.46      0.01      6.95      0.00   2916.16 
   207.93     12.94   3848.96      0.00     15.66      0.00   2916.16 
   207.94     12.94   3842.44      0.00      2.41      0.00   2911.59 
   207.95     12.94   3848.96     -0.00     16.15      0.00   2916.16 
   207.96     12.94   3853.78      0.00     13.25      0.00   2919.82 
   207.97     12.95   3847.97      0.02      5.97      0.00   2916.16 
   207.98     12.94   3840.03      0.02     -4.38      0.00   2909.76 
   207.99     12.94   3853.28      0.01     11.77      0.00   2919.82 
   208.00     12.94   3848.96      0.00     15.66      0.00   2916.16 
   208.01     12.94   3848.96     -0.01      9.91      0.00   2916.16 
   208.02     12.93   3843.43     -0.02      1.97      0.00   2911.59 
   208.03     12.93   3849.45     -0.01      9.91      0.00   2916.16 
   208.04     12.93   3854.76     -0.01     14.24      0.00   2919.82 
   208.05     12.92   3850.93     -0.01     16.65      0.00   2916.16 
   208.06     12.92   3844.91     -0.01      3.40      0.00   2911.59 
   208.07     12.93   3849.94     -0.00      6.52      0.00   2916.16 
   208.08     12.93   3849.45      0.00      7.94      0.00   2916.16 
   208.09     12.94   3853.78      0.00     13.25      0.00   2919.82 
   208.10     12.95   3847.97      0.00      5.53      0.00   2916.16 
   208.11     12.95   3841.95      0.00      1.92      0.00   2911.59 
   208.12     12.94   3848.96     -0.01      7.50      0.00   2916.16 
   208.13     12.95   3852.79      0.00     13.25      0.00   2919.82 
   208.14     12.94   3848.46      0.00      7.94      7.00   2916.16 
   208.15     12.94   3842.93      0.00      0.00      0.00   2911.59 
   208.16     12.94   3848.46      0.00      7.94      0.00   2916.16 
   208.17     12.93   3849.45      0.00      7.94      0.00   2916.16 
   208.18     12.94   3853.78      0.00     13.25      0.00   2919.82 
   208.19     12.93   3849.45     -0.00      6.52      0.00   2916.16 
   208.20     12.94   3853.78      0.00     12.76      0.00   2919.82 
   208.21     12.94   3848.96      0.00      8.43      0.00   2916.16 
   208.22     12.94   3848.96      0.00      6.02      0.00   2916.16 
   208.23     12.95   3841.95      0.02      0.44      0.00   2911.59 
   208.24     12.94   3848.46      0.02     -1.98      0.00   2916.16 
   208.25     12.94   3853.28      0.02      8.87      0.00   2919.82 
   208.26     12.94   3848.46      0.03      4.98      0.00   2916.16 
   208.27     12.94   3853.78      0.02      8.38      0.00   2919.82 
   208.28     12.93   3849.45      0.01      6.95      0.00   2916.16 
   208.29     12.93   3849.45      0.01      7.45      0.00   2916.16 
   208.30     12.93   3843.43     -0.00      0.49      0.00   2911.59 
   208.31     12.92   3858.87     -0.01      9.92      0.00   2922.56 
   208.32     12.93   3849.45     -0.00      6.52      0.00   2916.16 
   208.33     12.93   3843.92     -0.01     11.83      0.00   2911.59 
   208.34     12.93   3849.94     -0.01      7.01      0.00   2916.16 
   208.35     12.94   3857.39      0.00      7.94      7.00   2922.56 
   208.36     12.94   3842.44      0.00     -0.49      0.00   2911.59 
   208.37     12.95   3847.97      0.01      7.45      0.00   2916.16 
   208.38     12.95   3847.97      0.01      4.54      0.00   2916.16 
   208.39     12.95   3852.79      0.01     11.77      0.00   2919.82 
   208.40     12.94   3848.96      0.00     -4.82      0.00   2916.16 
   208.41     12.94   3853.78      0.00     13.25      0.00   2919.82 
   208.42     12.94   3848.96      0.00      6.02      0.00   2916.16 
   208.43     12.93   3849.94     -0.02      1.98      0.00   2916.16 
   208.44     12.93   3854.27     -0.02     12.82      0.00   2919.82 
   208.45     12.92   3850.44     -0.03     11.39      0.00   2916.16 
   208.46     12.93   3854.27     -0.02     13.31      0.00   2919.82 
   208.47     12.94   3848.46     -0.00      0.49      0.00   2916.16 
   208.48     12.95   3852.79      0.00     10.84      0.00   2919.82 
   208.49     12.95   3847.48      0.01     -1.48      0.00   2916.16 
   208.50     12.95   3852.79      0.01     11.77      0.00   2919.82 
   208.51     12.95   3847.97      0.00      5.53      0.00   2916.16 
   208.52     12.94   3842.93     -0.00     -5.53      0.00   2911.59 
   208.53     12.94   3857.39     -0.01     15.44      0.00   2922.56 
   208.54     12.94   3842.44      0.00     -6.02      0.00   2911.59 
   208.55     12.94   3856.89      0.01     15.88      7.00   2922.56 
   208.56     12.95   3841.95      0.01     -1.48      0.00   2911.59 
   208.57     12.94   3856.89      0.01      7.44      0.00   2922.56 
   208.58     12.93   3843.43     -0.00      0.49      0.00   2911.59 
   208.59     12.93   3858.38     -0.01      9.42      0.00   2922.56 
   208.60     12.92   3844.41     -0.01      3.89      0.00   2911.59 
   208.61     12.93   3854.76     -0.01      1.48      0.00   2919.82 
   208.62     12.93   3849.45     -0.00      8.93      0.00   2916.16 
   208.63     12.94   3853.28      0.00      4.82      0.00   2919.82 
   208.64     12.95   3847.97     -0.00      6.51      0.00   2916.16 
   208.65     12.95   3847.97      0.00     -0.49      0.00   2916.16 
   208.66     12.95   3852.79      0.00     13.25      0.00   2919.82 
   208.67     12.94   3856.89     -0.00      4.11      0.00   2922.56 
   208.68     12.93   3843.43     -0.00      2.90      0.00   2911.59 
   208.69     12.94   3857.39     -0.01      9.91      0.00   2922.56 
   208.70     12.94   3848.96     -0.01      7.01      0.00   2916.16 
   208.71     12.95   3852.79      0.00      4.32      0.00   2919.82 
   208.72     12.95   3847.97      0.01     -1.48      0.00   2916.16 
   208.73     12.94   3848.46      0.01      5.04      0.00   2916.16 
   208.74     12.95   3852.29      0.02      2.84      0.00   2919.82 
   208.75     12.95   3847.97      0.00     -0.49      0.00   2916.16 
   208.76     12.94   3848.46     -0.01      7.01      0.00   2916.16 
   208.77     12.95   3852.79      0.00      4.82      0.00   2919.82 
   208.78     12.94   3848.96     -0.00      8.93      0.00   2916.16 
   208.79     12.93   3857.88     -0.01      4.60      0.00   2922.56 
