#Written by Robertson Geologging WinLogger V1.0/406
~VERSION INFORMATION
#------------------------------------------------------------------------------
 VERS. 2.0 : CWLS LOG ASCII STANDARD - VERSION 2.0
 WRAP. NO  : ONE LINE PER DEPTH STEP
~WELL INFORMATION
#MNEM.UNIT         DATA                                DESCRIPTION OF MNEMONIC
#------------------------------------------------------------------------------
 STRT.M          7.0800                            :   START DEPTH
 STOP.M        258.0000                            :   STOP DEPTH
 STEP.M          0.0100                            :   STEP VALUE
 NULL.        -999.2500                            :   NULL VALUE
 COMP.    Coal Authority                           :   COMPANY NAME
 WELL.    Mainsforth Shaft                         :   WELL NAME
 FLD.     Mainsforth                               :   FIELD NAME
 LOC.     N/A                                      :   LOCATION
 PROV.    N/A                                      :   PROVINCE
 SRVC.    N/A                                      :   SERVICE COMPANY NAME
 DATE.    20 May 08                                :   DATE
 UWI.     N/A                                      :   UNIQUE WELL IDENTIFIER
~PARAMETER INFORMATION
#MNEMO.UNIT         VALUE                 DESCRIPTION OF MNEMONIC
#------------------------------------------------------------------------------
~OTHER INFORMATION SECTION
#------------------------------------------------------------------------------
 TCDS 1365
~CURVE INFORMATION
#MNEMO.UNIT         API CODE              CURVE DESCRIPTION
#------------------------------------------------------------------------------
 DEPTH.M                                 :   0     Depth
 TEMP.DegC                               :   1     Temperature
 COND.uS/cm                              :   2     Absolute Conductivity
 COND.uS/cm                              :   3     Conductivity@25DegC
 DELT.DegC                               :   4     Delta T
 DELC.uS/cm                              :   5     Delta C
#------------------------------------------------------------------------------
~A  DEPTH     TEMP      COND      COND      DELT      DELC      
# ...
   190.56     12.36   2432.73   3256.12     -0.01      0.84 
   190.57     12.36   2425.45   3245.95     -0.00      0.42 
   190.58     12.37   2432.73   3255.27     -0.00      0.42 
   190.59     12.37   2425.45   3245.11     -0.00      0.42 
   190.60     12.38   2433.64   3255.65      0.00      0.80 
   190.61     12.37   2425.45   3245.11      0.00    -10.16 
   190.62     12.37   2432.73   3254.85      0.01      8.90 
   190.63     12.37   2425.45   3245.53      0.01    -11.01 
   190.64     12.36   2432.73   3256.12      0.00      9.33 
   190.65     12.36   2425.45   3246.37      0.00     -9.75 
   190.66     12.35   2432.73   3256.54      0.00      9.33 
   190.67     12.35   2432.73   3256.54      0.00      0.00 
   190.68     12.37   2425.45   3245.53      0.01     -0.84 
   190.69     12.38   2432.73   3254.43      0.02     -0.46 
   190.70     12.39   2425.45   3243.44      0.02    -11.84 
   190.71     12.39   2433.64   3253.97      0.03      8.44 
   190.72     12.39   2425.45   3243.85      0.01    -10.58 
   190.73     12.38   2432.73   3254.43      0.00     -0.42 
   190.74     12.36   2425.45   3245.95     -0.02      1.68 
   190.75     12.36   2432.73   3256.12     -0.03      2.52 
   190.76     12.35   2432.73   3256.54     -0.04     10.67 
   190.77     12.36   2425.45   3246.37     -0.03     -7.22 
   190.78     12.36   2432.73   3256.12     -0.02     11.42 
   190.79     12.36   2425.45   3246.37     -0.01     -8.91 
   190.80     12.36   2432.73   3255.69      0.00      9.75 
   190.81     12.36   2425.45   3246.37      0.00     -9.75 
   190.82     12.36   2432.73   3256.12      0.00      9.75 
   190.83     12.36   2432.73   3255.69      0.01     -0.84 
   190.84     12.36   2422.72   3242.71      0.01    -14.24 
   190.85     12.37   2432.73   3255.27      0.01      8.49 
   190.86     12.37   2425.45   3245.11      0.01    -11.00 
   190.87     12.36   2432.73   3255.69     -0.00     10.16 
   190.88     12.36   2432.73   3255.69     -0.00     -0.80 
   190.89     12.37   2425.45   3245.53     -0.00      0.42 
   190.90     12.36   2432.73   3255.69     -0.02      1.68 
   190.91     12.37   2425.45   3245.11     -0.00      0.42 
   190.92     12.37   2425.45   3245.11     -0.00     -9.32 
   190.93     12.36   2432.73   3255.69     -0.01      0.84 
   190.94     12.36   2425.45   3245.95     -0.00      0.42 
   190.95     12.36   2432.73   3256.12     -0.01      0.84 
   190.96     12.36   2427.27   3248.81     -0.01      3.28 
   190.97     12.36   2432.73   3256.12     -0.01      1.26 
   190.98     12.35   2425.45   3247.21     -0.03      0.08 
   190.99     12.34   2432.73   3257.38     -0.02      2.10 
   191.00     12.35   2425.45   3247.21     -0.02      2.10 
   191.01     12.35   2432.73   3256.54     -0.01      0.84 
   191.02     12.37   2425.45   3245.53      0.01     -0.84 
   191.03     12.37   2433.64   3256.07      0.01      0.38 
   191.04     12.37   2425.45   3245.11      0.00     -2.86 
   191.05     12.37   2432.73   3254.85      0.00     -0.42 
   191.06     12.37   2432.73   3255.27      0.00      0.00 
   191.07     12.38   2425.45   3244.69      0.00     -0.42 
   191.08     12.38   2432.73   3254.43      0.00      0.00 
   191.09     12.37   2425.45   3245.11     -0.01      0.84 
   191.10     12.38   2433.64   3255.65     -0.01      2.06 
   191.11     12.37   2425.45   3245.11     -0.02      2.09 
   191.12     12.36   2432.73   3255.69     -0.02      0.88 
   191.13     12.37   2425.45   3245.53     -0.01      1.26 
   191.14     12.37   2432.73   3254.85      0.00      0.00 
   191.15     12.37   2425.45   3245.11      0.01    -11.00 
   191.16     12.37   2432.73   3254.85      0.02      7.65 
   191.17     12.37   2427.27   3247.97      0.03     -9.83 
   191.18     12.36   2432.73   3255.69      0.01      8.49 
   191.19     12.36   2425.45   3245.95      0.01    -10.59 
   191.20     12.35   2432.73   3256.54     -0.01      8.15 
   191.21     12.35   2432.73   3256.54     -0.01      1.26 
   191.22     12.36   2425.45   3246.37     -0.00      0.42 
   191.23     12.36   2433.64   3257.33      0.00      1.22 
   191.24     12.37   2425.45   3245.53      0.02    -11.43 
   191.25     12.37   2432.73   3255.27      0.01      8.49 
   191.26     12.37   2425.45   3245.53      0.02    -11.43 
   191.27     12.36   2432.73   3255.69      0.01      8.91 
   191.28     12.36   2425.45   3245.95      0.00    -10.17 
   191.29     12.36   2432.73   3255.69     -0.01     10.58 
   191.30     12.36   2425.45   3245.95     -0.01     -8.48 
   191.31     12.36   2433.64   3256.91     -0.02      3.32 
   191.32     12.36   2425.45   3246.37     -0.02      2.10 
   191.33     12.36   2432.73   3255.69     -0.01      1.26 
   191.34     12.36   2432.73   3256.12     -0.02     11.42 
   191.35     12.36   2425.45   3245.95      0.00     -9.75 
   191.36     12.37   2432.73   3255.27      0.00      0.00 
   191.37     12.37   2425.45   3245.53      0.01     -0.84 
   191.38     12.37   2432.73   3255.27      0.01     -0.84 
   191.39     12.37   2427.27   3247.97     -0.00      2.86 
   191.40     12.36   2432.73   3255.69     -0.01      0.84 
   191.41     12.36   2425.45   3246.37     -0.02      1.68 
   191.42     12.36   2432.73   3256.12     -0.03      2.52 
   191.43     12.37   2425.45   3245.53     -0.02     -8.06 
   191.44     12.36   2432.73   3255.69     -0.02     11.42 
   191.45     12.36   2432.73   3256.12     -0.03      2.52 
   191.46     12.36   2425.45   3246.37     -0.02      2.10 
   191.47     12.35   2432.73   3256.96     -0.03      2.52 
   191.48     12.34   2425.45   3247.63     -0.05     -5.55 
   191.49     12.35   2432.73   3256.96     -0.03     12.68 
   191.50     12.36   2425.45   3246.37     -0.02     -7.64 
   191.51     12.36   2432.73   3255.69     -0.01     11.00 
   191.52     12.36   2425.45   3245.95      0.00     -9.75 
   191.53     12.37   2432.73   3255.27      0.01      8.91 
   191.54     12.36   2432.73   3256.12      0.00     -0.42 
   191.55     12.35   2425.45   3246.79     -0.00     -9.33 
   191.56     12.35   2432.73   3256.54     -0.01     10.59 
   191.57     12.34   2425.45   3247.63     -0.02     -7.65 
   191.58     12.35   2432.73   3256.96     -0.02     11.85 
   191.59     12.36   2425.45   3246.37     -0.02     -9.28 
   191.60     12.36   2432.73   3256.12     -0.01     11.00 
   191.61     12.37   2432.73   3254.85      0.00      0.00 
   191.62     12.38   2425.45   3244.27      0.01     -1.26 
   191.63     12.37   2432.73   3254.85      0.01     -1.26 
   191.64     12.38   2425.45   3244.69      0.02     -1.68 
   191.65     12.37   2432.73   3255.27      0.01     -1.26 
   191.66     12.35   2425.45   3246.79      0.00     -9.75 
   191.67     12.35   2432.73   3256.54     -0.01     11.01 
   191.68     12.36   2432.73   3256.12     -0.02      1.68 
   191.69     12.36   2425.45   3245.95     -0.03      2.51 
   191.70     12.37   2432.73   3255.27     -0.03      1.30 
   191.71     12.37   2425.45   3245.11     -0.01      1.26 
   191.72     12.37   2432.73   3255.27     -0.01      0.84 
   191.73     12.36   2425.45   3245.95      0.00      0.00 
   191.74     12.36   2432.73   3255.69      0.00     -0.42 
   191.75     12.35   2432.73   3256.54      0.00      0.00 
   191.76     12.36   2425.45   3245.95      0.00     -0.42 
   191.77     12.37   2432.73   3254.85      0.01     -1.26 
   191.78     12.38   2425.45   3244.69      0.02     -1.68 
   191.79     12.39   2432.73   3253.59      0.02     -2.10 
   191.80     12.39   2425.45   3243.44      0.03     -2.93 
   191.81     12.39   2432.73   3253.59      0.03     -2.52 
   191.82     12.38   2427.27   3246.71      0.02     -8.99 
   191.83     12.39   2432.73   3253.59      0.03     10.88 
   191.84     12.38   2425.45   3244.69      0.01    -10.58 
   191.85     12.37   2432.73   3254.85      0.00      9.74 
   191.86     12.37   2432.73   3255.27      0.00     -0.42 
   191.87     12.37   2425.45   3245.53      0.00    -10.16 
