#Written by Robertson Geologging WinLogger V1.0/406
~VERSION INFORMATION
#------------------------------------------------------------------------------
 VERS. 2.0 : CWLS LOG ASCII STANDARD - VERSION 2.0
 WRAP. NO  : ONE LINE PER DEPTH STEP
~WELL INFORMATION
#MNEM.UNIT         DATA                                DESCRIPTION OF MNEMONIC
#------------------------------------------------------------------------------
 STRT.M          7.0800                            :   START DEPTH
 STOP.M        258.0000                            :   STOP DEPTH
 STEP.M          0.0100                            :   STEP VALUE
 NULL.        -999.2500                            :   NULL VALUE
 COMP.    Coal Authority                           :   COMPANY NAME
 WELL.    Mainsforth Shaft                         :   WELL NAME
 FLD.     Mainsforth                               :   FIELD NAME
 LOC.     N/A                                      :   LOCATION
 PROV.    N/A                                      :   PROVINCE
 SRVC.    N/A                                      :   SERVICE COMPANY NAME
 DATE.    20 May 08                                :   DATE
 UWI.     N/A                                      :   UNIQUE WELL IDENTIFIER
~PARAMETER INFORMATION
#MNEMO.UNIT         VALUE                 DESCRIPTION OF MNEMONIC
#------------------------------------------------------------------------------
~OTHER INFORMATION SECTION
#------------------------------------------------------------------------------
 TCDS 1365
~CURVE INFORMATION
#MNEMO.UNIT         API CODE              CURVE DESCRIPTION
#------------------------------------------------------------------------------
 DEPTH.M                                 :   0     Depth
 TEMP.DegC                               :   1     Temperature
 COND.uS/cm                              :   2     Absolute Conductivity
 COND.uS/cm                              :   3     Conductivity@25DegC
 DELT.DegC                               :   4     Delta T
 DELC.uS/cm                              :   5     Delta C
#------------------------------------------------------------------------------
~A  DEPTH     TEMP      COND      COND      DELT      DELC      
# ...
    73.08     11.18   1642.56   2270.07      0.01     -6.86 
    73.09     11.18   1654.32   2286.31      0.01     -0.92 
    73.10     11.17   1654.32   2286.62      0.01     -0.92 
    73.11     11.17   1647.08   2276.62      0.01     -0.91 
    73.12     11.17   1654.32   2286.92      0.01     -0.61 
    73.13     11.18   1647.08   2276.32      0.03     -1.82 
    73.14     11.18   1654.32   2286.31      0.02     -1.53 
    73.15     11.18   1647.08   2276.32      0.03    -11.83 
    73.16     11.18   1654.32   2286.01      0.02      8.48 
    73.17     11.18   1651.60   2282.26      0.01     -4.66 
    73.18     11.18   1647.08   2276.32      0.01     -0.61 
    73.19     11.17   1654.32   2286.92      0.00      0.00 
    73.20     11.16   1647.08   2277.53     -0.01      0.91 
    73.21     11.16   1654.32   2287.53     -0.01      0.61 
    73.22     11.15   1647.08   2277.84     -0.01     -9.09 
    73.23     11.16   1654.32   2287.53     -0.01     10.61 
    73.24     11.17   1647.08   2276.92     -0.00     -9.69 
    73.25     11.17   1654.32   2286.62      0.00      9.69 
    73.26     11.18   1647.08   2276.01      0.00     -6.55 
    73.27     11.19   1651.60   2281.96      0.00     -4.05 
    73.28     11.19   1654.32   2285.70      0.01      9.08 
    73.29     11.18   1647.08   2276.01      0.00    -10.30 
    73.30     11.17   1654.32   2286.62      0.00      0.00 
    73.31     11.16   1647.08   2277.23     -0.01      0.61 
    73.32     11.17   1654.32   2286.92      0.00      0.00 
    73.33     11.16   1647.08   2277.53     -0.02      1.22 
    73.34     11.16   1654.32   2287.53     -0.01      0.61 
    73.35     11.17   1642.56   2270.37      0.00     -6.55 
    73.36     11.17   1654.32   2286.62      0.00      0.00 
    73.37     11.18   1647.08   2276.32      0.01     -7.16 
    73.38     11.18   1654.32   2286.31      0.01     -0.61 
    73.39     11.17   1647.08   2276.92      0.00     -0.30 
    73.40     11.17   1654.32   2286.92      0.00      0.00 
    73.41     11.16   1647.08   2277.23     -0.01      0.61 
    73.42     11.17   1654.32   2286.92      0.00     -0.31 
    73.43     11.17   1647.08   2276.92      0.00      0.00 
    73.44     11.17   1654.32   2286.92      0.00      0.00 
    73.45     11.17   1647.08   2276.92      0.00     -6.55 
    73.46     11.16   1654.32   2287.23     -0.01      0.61 
    73.47     11.17   1647.08   2276.92     -0.00      0.30 
    73.48     11.16   1654.32   2287.53     -0.01      0.61 
    73.49     11.16   1647.08   2277.53     -0.01      0.91 
    73.50     11.16   1654.32   2287.53     -0.01      0.61 
    73.51     11.15   1647.08   2277.84     -0.02      1.22 
    73.52     11.16   1654.32   2287.53     -0.01      0.92 
    73.53     11.16   1647.08   2277.53     -0.00      0.30 
    73.54     11.15   1654.32   2287.84     -0.01      0.61 
    73.55     11.15   1647.08   2277.84     -0.00     -9.70 
    73.56     11.16   1654.32   2287.53     -0.00     10.31 
    73.57     11.16   1651.60   2283.78     -0.00     -3.45 
    73.58     11.17   1647.08   2276.92      0.01     -0.61 
    73.59     11.17   1654.32   2286.92      0.01     -0.92 
    73.60     11.17   1647.08   2276.92      0.01     -0.61 
    73.61     11.17   1654.32   2286.92      0.01     -0.61 
    73.62     11.17   1647.08   2276.62      0.01     -0.61 
    73.63     11.18   1654.32   2286.31      0.00      0.00 
    73.64     11.17   1651.60   2282.87      0.00     -3.75 
    73.65     11.18   1647.08   2276.32      0.00     10.94 
    73.66     11.16   1654.32   2287.23     -0.01      0.61 
    73.67     11.16   1647.08   2277.23      0.00      0.00 
    73.68     11.15   1647.08   2277.84     -0.00     -9.70 
    73.69     11.15   1654.32   2287.84     -0.01     10.61 
    73.70     11.16   1651.60   2283.78      0.00     -3.75 
    73.71     11.16   1647.08   2277.53     -0.00      0.30 
    73.72     11.16   1654.32   2287.23      0.00     -0.31 
    73.73     11.16   1647.08   2277.23      0.00      0.00 
    73.74     11.17   1654.32   2286.92      0.00      0.00 
    73.75     11.16   1647.08   2277.23      0.00    -10.00 
    73.76     11.16   1654.32   2287.23     -0.00     10.30 
    73.77     11.17   1647.08   2276.92     -0.00     -5.95 
    73.78     11.16   1654.32   2287.23     -0.00      0.31 
    73.79     11.17   1647.08   2276.92      0.00      0.00 
    73.80     11.17   1654.32   2286.62      0.00      0.00 
    73.81     11.17   1647.08   2276.92     -0.00      0.30 
    73.82     11.18   1651.60   2282.56      0.00     -3.75 
    73.83     11.18   1654.32   2286.31      0.00     10.00 
    73.84     11.18   1647.08   2276.32      0.00    -10.00 
    73.85     11.18   1647.08   2276.01      0.01     -0.61 
    73.86     11.18   1654.32   2286.31      0.00      0.00 
    73.87     11.18   1647.08   2276.32     -0.00      0.30 
    73.88     11.17   1654.32   2286.62     -0.01      0.61 
    73.89     11.18   1647.08   2276.01      0.00    -10.30 
    73.90     11.18   1654.32   2286.01      0.02      8.78 
    73.91     11.18   1647.08   2276.32      0.01    -10.61 
    73.92     11.18   1654.32   2286.31      0.02      8.78 
    73.93     11.17   1647.08   2276.92      0.00    -10.30 
    73.94     11.17   1654.32   2286.92      0.00     10.00 
    73.95     11.17   1647.08   2276.62      0.01    -10.91 
    73.96     11.17   1654.32   2286.62      0.01      9.09 
    73.97     11.18   1647.08   2276.01      0.02    -11.22 
    73.98     11.18   1647.08   2276.32      0.01     -0.91 
    73.99     11.18   1654.32   2286.01      0.01     -0.92 
    74.00     11.18   1647.08   2276.01      0.01     -0.61 
    74.01     11.18   1649.80   2279.76      0.02     -7.47 
    74.02     11.19   1654.32   2285.70      0.03      8.17 
    74.03     11.19   1651.60   2281.96      0.03     -5.88 
    74.04     11.19   1649.80   2279.46      0.03     -8.08 
    74.05     11.18   1647.08   2276.01      0.02     -1.22 
    74.06     11.17   1654.32   2286.92     -0.00      0.31 
    74.07     11.16   1647.08   2277.23     -0.01      7.16 
    74.08     11.16   1654.32   2287.23     -0.01      0.92 
    74.09     11.17   1647.08   2276.62      0.00    -10.00 
    74.10     11.18   1647.08   2276.32      0.00     -0.30 
    74.11     11.17   1654.32   2286.62      0.00     -0.31 
    74.12     11.16   1647.08   2277.23     -0.01      0.91 
    74.13     11.15   1654.32   2287.84     -0.02      1.53 
    74.14     11.16   1647.08   2277.53     -0.02      1.22 
    74.15     11.16   1654.32   2287.23     -0.02      1.22 
    74.16     11.18   1647.08   2276.32     -0.00     -5.94 
    74.17     11.17   1654.32   2286.62     -0.00     10.30 
    74.18     11.16   1647.08   2277.23     -0.00     -9.70 
    74.19     11.17   1654.32   2286.92      0.01      9.39 
    74.20     11.16   1647.08   2277.53      0.00    -10.00 
    74.21     11.16   1647.08   2277.53      0.00     -0.30 
    74.22     11.16   1654.32   2287.53      0.00      0.00 
    74.23     11.15   1647.08   2277.84     -0.01      0.91 
    74.24     11.15   1654.32   2287.84     -0.02      1.22 
    74.25     11.16   1647.08   2277.53     -0.02      1.52 
    74.26     11.15   1654.32   2287.84     -0.03      5.88 
    74.27     11.16   1647.08   2277.53     -0.03     -8.17 
    74.28     11.16   1647.08   2277.23     -0.02      1.22 
    74.29     11.16   1651.60   2283.78     -0.01     -2.84 
    74.30     11.17   1654.32   2286.92      0.00      9.70 
    74.31     11.18   1647.08   2276.32      0.01    -10.61 
    74.32     11.18   1654.32   2286.31      0.02      8.78 
    74.33     11.19   1647.08   2275.71      0.03    -11.82 
    74.34     11.18   1654.32   2286.31      0.00     15.94 
    74.35     11.18   1647.08   2276.32      0.00    -10.30 
    74.36     11.17   1647.08   2276.62     -0.00      0.30 
    74.37     11.16   1654.32   2287.23     -0.01      0.92 
    74.38     11.18   1647.08   2276.32      0.01     -0.61 
    74.39     11.18   1651.60   2282.56      0.01     -4.36 
