#Written by Robertson Geologging WinLogger V1.0/406
~VERSION INFORMATION
#------------------------------------------------------------------------------
 VERS. 2.0 : CWLS LOG ASCII STANDARD - VERSION 2.0
 WRAP. NO  : ONE LINE PER DEPTH STEP
~WELL INFORMATION
#MNEM.UNIT         DATA                                DESCRIPTION OF MNEMONIC
#------------------------------------------------------------------------------
 STRT.M          7.0800                            :   START DEPTH
 STOP.M        258.0000                            :   STOP DEPTH
 STEP.M          0.0100                            :   STEP VALUE
 NULL.        -999.2500                            :   NULL VALUE
 COMP.    Coal Authority                           :   COMPANY NAME
 WELL.    Mainsforth Shaft                         :   WELL NAME
 FLD.     Mainsforth                               :   FIELD NAME
 LOC.     N/A                                      :   LOCATION
 PROV.    N/A                                      :   PROVINCE
 SRVC.    N/A                                      :   SERVICE COMPANY NAME
 DATE.    20 May 08                                :   DATE
 UWI.     N/A                                      :   UNIQUE WELL IDENTIFIER
~PARAMETER INFORMATION
#MNEMO.UNIT         VALUE                 DESCRIPTION OF MNEMONIC
#------------------------------------------------------------------------------
~OTHER INFORMATION SECTION
#------------------------------------------------------------------------------
 TCDS 1365
~CURVE INFORMATION
#MNEMO.UNIT         API CODE              CURVE DESCRIPTION
#------------------------------------------------------------------------------
 DEPTH.M                                 :   0     Depth
 TEMP.DegC                               :   1     Temperature
 COND.uS/cm                              :   2     Absolute Conductivity
 COND.uS/cm                              :   3     Conductivity@25DegC
 DELT.DegC                               :   4     Delta T
 DELC.uS/cm                              :   5     Delta C
#------------------------------------------------------------------------------
~A  DEPTH     TEMP      COND      COND      DELT      DELC      
# ...
    90.24     11.16   1638.95   2265.98     -0.01      0.91 
    90.25     11.16   1647.08   2277.23      0.00     11.25 
    90.26     11.17   1638.95   2265.37      0.00     -0.30 
    90.27     11.17   1638.95   2265.68     -0.00     -4.70 
    90.28     11.17   1638.95   2265.68     -0.00      0.30 
    90.29     11.16   1638.95   2265.98     -0.01    -10.34 
    90.30     11.16   1638.95   2266.28     -0.01      0.91 
    90.31     11.16   1647.08   2277.23     -0.02     12.46 
    90.32     11.17   1638.95   2265.68     -0.02      1.21 
    90.33     11.18   1633.52   2257.57     -0.01     -6.89 
    90.34     11.18   1643.47   2271.32     -0.00     -4.69 
    90.35     11.18   1642.56   2270.07      0.00      4.70 
    90.36     11.17   1638.95   2265.37      0.00     -0.30 
    90.37     11.17   1638.95   2265.37      0.00      0.00 
    90.38     11.18   1638.95   2265.07      0.00    -11.55 
    90.39     11.18   1638.95   2264.77      0.01      6.59 
    90.40     11.19   1647.08   2275.71      0.01     -0.61 
    90.41     11.18   1638.95   2264.77     -0.00      0.30 
    90.42     11.18   1638.95   2265.07     -0.02      1.21 
    90.43     11.18   1638.95   2264.77     -0.02      1.21 
    90.44     11.19   1638.95   2264.47      0.00      0.00 
    90.45     11.19   1638.95   2264.16      0.01    -12.15 
    90.46     11.19   1638.95   2264.16      0.02     -1.51 
    90.47     11.19   1647.08   2275.71      0.02      9.73 
    90.48     11.18   1638.95   2264.77      0.01     -0.91 
    90.49     11.17   1638.95   2265.37      0.00     -5.30 
    90.50     11.17   1638.95   2265.68     -0.00      0.30 
    90.51     11.16   1638.95   2265.98     -0.01    -10.34 
    90.52     11.17   1638.95   2265.68     -0.01      0.91 
    90.53     11.17   1638.95   2265.68     -0.02      1.21 
    90.54     11.17   1638.95   2265.37     -0.01      0.91 
    90.55     11.18   1642.56   2269.77     -0.00      5.30 
    90.56     11.18   1638.95   2265.07      0.00    -11.25 
    90.57     11.19   1638.95   2264.47      0.01     -0.91 
    90.58     11.18   1647.08   2276.32      0.01     10.64 
    90.59     11.17   1638.95   2265.37      0.01     -0.91 
    90.60     11.17   1638.95   2265.37      0.00      0.00 
    90.61     11.16   1638.95   2265.98     -0.01     -4.39 
    90.62     11.17   1638.95   2265.37     -0.01      0.60 
    90.63     11.17   1638.95   2265.37     -0.01    -10.34 
    90.64     11.17   1638.95   2265.37     -0.00      0.30 
    90.65     11.18   1642.56   2269.77      0.01      4.39 
    90.66     11.18   1638.95   2264.77      0.02     -1.21 
    90.67     11.18   1638.95   2264.77      0.02     -1.21 
    90.68     11.19   1638.95   2264.47      0.02    -12.76 
    90.69     11.19   1647.08   2275.71      0.02      9.73 
    90.70     11.18   1638.95   2264.77      0.02     -1.21 
    90.71     11.18   1638.95   2264.77      0.02     -1.21 
    90.72     11.17   1638.95   2265.68      0.01     -0.60 
    90.73     11.17   1638.95   2265.37      0.01    -11.86 
    90.74     11.18   1642.56   2270.07      0.01      4.39 
    90.75     11.18   1638.95   2264.77      0.01     -0.60 
    90.76     11.19   1638.95   2264.16      0.01     -0.91 
    90.77     11.19   1638.95   2264.16      0.02     -6.21 
    90.78     11.18   1638.95   2265.07      0.00      0.00 
    90.79     11.18   1642.56   2270.07     -0.00      5.30 
    90.80     11.18   1638.95   2265.07      0.00      0.00 
    90.81     11.18   1638.95   2265.07      0.00    -11.25 
    90.82     11.19   1631.71   2254.47      0.01    -10.90 
    90.83     11.18   1638.95   2264.77      0.01     -0.91 
    90.84     11.18   1638.95   2265.07      0.00     -0.30 
    90.85     11.18   1647.08   2276.32      0.00      6.25 
    90.86     11.17   1638.95   2265.37      0.00      0.00 
    90.87     11.18   1638.95   2265.07      0.00     -0.30 
    90.88     11.18   1642.56   2269.77      0.01     -6.85 
    90.89     11.19   1637.14   2261.97      0.02     -3.71 
    90.90     11.19   1642.56   2269.16      0.02     -1.51 
    90.91     11.19   1638.95   2264.16      0.02     -1.51 
    90.92     11.19   1638.95   2264.47      0.03     -1.81 
    90.93     11.19   1638.95   2264.16      0.03     -1.81 
    90.94     11.19   1638.95   2264.47      0.02     -1.21 
    90.95     11.19   1638.95   2264.16      0.02    -12.46 
    90.96     11.19   1638.95   2264.16      0.01     -0.91 
    90.97     11.19   1638.95   2264.47      0.01     -0.60 
    90.98     11.19   1638.95   2264.47      0.01     -0.91 
    90.99     11.19   1647.08   2275.71      0.02     10.03 
    91.00     11.19   1638.95   2264.47      0.01     -0.60 
    91.01     11.18   1638.95   2264.77      0.01    -11.85 
    91.02     11.17   1638.95   2265.37      0.00     -0.30 
    91.03     11.17   1638.95   2265.68     -0.00      0.30 
    91.04     11.17   1638.95   2265.68      0.00     -0.30 
    91.05     11.18   1638.95   2265.07      0.01     -0.60 
    91.06     11.18   1638.95   2264.77      0.02    -12.46 
    91.07     11.18   1638.95   2265.07      0.02     -1.51 
    91.08     11.17   1638.95   2265.37      0.01     -0.91 
    91.09     11.17   1638.95   2265.68      0.01     -0.60 
    91.10     11.16   1647.08   2277.53     -0.00     11.55 
    91.11     11.15   1638.95   2266.58     -0.01      0.60 
    91.12     11.16   1638.95   2265.98      0.00    -11.55 
    91.13     11.17   1633.52   2258.18      0.00     -7.50 
    91.14     11.17   1647.08   2276.62      0.00     10.95 
    91.15     11.19   1638.95   2264.16      0.03     -1.81 
    91.16     11.19   1638.95   2264.47      0.02     -1.51 
    91.17     11.18   1638.95   2265.07      0.02     -1.21 
    91.18     11.17   1638.95   2265.37      0.01    -11.86 
    91.19     11.16   1638.95   2265.98      0.00     -0.30 
    91.20     11.16   1638.95   2265.98      0.00      0.00 
    91.21     11.17   1638.95   2265.37      0.01     -0.91 
    91.22     11.18   1642.56   2269.77      0.02      3.79 
    91.23     11.18   1638.95   2265.07      0.01     -0.91 
    91.24     11.18   1638.95   2265.07      0.01    -12.16 
    91.25     11.18   1638.95   2264.77      0.01     -0.60 
    91.26     11.19   1638.95   2264.47      0.02     -1.21 
    91.27     11.19   1638.95   2264.16      0.02     -1.51 
    91.28     11.19   1638.95   2264.16      0.03     -1.81 
    91.29     11.19   1638.95   2264.47      0.03     -1.81 
    91.30     11.18   1647.08   2276.32      0.01     -0.91 
    91.31     11.18   1638.95   2264.77      0.01     -0.91 
    91.32     11.18   1638.95   2265.07      0.00      7.50 
    91.33     11.18   1638.95   2265.07      0.00     -6.25 
    91.34     11.18   1638.95   2265.07      0.00     -5.00 
    91.35     11.17   1638.95   2265.37      0.00      0.00 
    91.36     11.19   1638.95   2264.47      0.01     -0.91 
    91.37     11.19   1638.95   2264.16      0.01     -0.91 
    91.38     11.20   1638.95   2263.86      0.01     -0.91 
    91.39     11.20   1638.95   2263.86      0.01    -11.85 
    91.40     11.19   1643.47   2270.71      0.00      5.94 
    91.41     11.19   1638.95   2264.47      0.01     -0.60 
    91.42     11.18   1642.56   2269.77      0.00      5.00 
    91.43     11.19   1638.95   2264.47      0.00      0.00 
    91.44     11.19   1638.95   2264.16      0.00      0.00 
    91.45     11.19   1638.95   2264.47     -0.00      0.30 
    91.46     11.19   1638.95   2264.47      0.00    -11.24 
    91.47     11.19   1638.95   2264.47      0.00     -0.30 
    91.48     11.18   1638.95   2264.77      0.01     -0.60 
    91.49     11.18   1638.95   2264.77      0.01     -0.91 
    91.50     11.18   1638.95   2264.77      0.02     -1.21 
    91.51     11.19   1638.95   2264.47      0.02     -1.21 
    91.52     11.19   1638.95   2264.47      0.02     -1.21 
    91.53     11.18   1638.95   2264.77      0.01     -0.60 
    91.54     11.19   1638.95   2264.47      0.00     -5.30 
    91.55     11.18   1638.95   2264.77      0.00     -0.30 
