#Written by Robertson Geologging WinLogger V1.0/406
~VERSION INFORMATION
#------------------------------------------------------------------------------
 VERS. 2.0 : CWLS LOG ASCII STANDARD - VERSION 2.0
 WRAP. NO  : ONE LINE PER DEPTH STEP
~WELL INFORMATION
#MNEM.UNIT         DATA                                DESCRIPTION OF MNEMONIC
#------------------------------------------------------------------------------
 STRT.M          7.6600                            :   START DEPTH
 STOP.M        258.0000                            :   STOP DEPTH
 STEP.M          0.0100                            :   STEP VALUE
 NULL.        -999.2500                            :   NULL VALUE
 COMP.    I.W.S.                                   :   COMPANY NAME
 WELL.    Mainsforth                               :   WELL NAME
 FLD.     Mainsforth                               :   FIELD NAME
 LOC.     N/A                                      :   LOCATION
 PROV.    N/A                                      :   PROVINCE
 SRVC.    N/A                                      :   SERVICE COMPANY NAME
 DATE.    21 Jul 09                                :   DATE
 UWI.     N/A                                      :   UNIQUE WELL IDENTIFIER
~PARAMETER INFORMATION
#MNEMO.UNIT         VALUE                 DESCRIPTION OF MNEMONIC
#------------------------------------------------------------------------------
~OTHER INFORMATION SECTION
#------------------------------------------------------------------------------
 TCGS 1365
~CURVE INFORMATION
#MNEMO.UNIT         API CODE              CURVE DESCRIPTION
#------------------------------------------------------------------------------
 DEPTH.M                                 :   0     Depth
 TEMP.DegC                               :   1     Temperature
 CN25.uS/cm                              :   2     Conductivity@25DegC
 DELT.DegC                               :   3     Delta T
 DELC.uS/cm                              :   4     Delta C
 NGAM.CPS                                :   5     Natural Gamma
 COND.uS/cm                              :   6     Conductivity
#------------------------------------------------------------------------------
~A  DEPTH     TEMP      CN25      DELT      DELC      NGAM      COND      
# ...
   257.39     14.81   4364.16      0.01    -16.06      0.00   3472.26 
   257.40     14.81   4372.76      0.00     -8.07     14.00   3478.68 
   257.41     14.79   4366.29     -0.02    -14.01     14.00   3472.26 
   257.42     14.79   4366.29     -0.01     -6.47      0.00   3472.26 
   257.43     14.79   4366.83     -0.02    -12.86      0.00   3472.26 
   257.44     14.79   4372.06     -0.02     -8.24      0.00   3476.85 
   257.45     14.80   4365.22     -0.00    -15.61     21.00   3472.26 
   257.46     14.80   4365.76     -0.01     -7.01      0.00   3472.26 
   257.47     14.80   4365.22      0.00    -15.00     14.00   3472.26 
   257.48     14.80   4365.22      0.00    -16.15      7.00   3472.26 
   257.49     14.81   4361.23      0.00    -12.07      8.00   3469.50 
   257.50     14.81   4364.16      0.01    -17.22      0.00   3472.26 
   257.51     14.81   4356.62      0.01    -24.14     14.00   3465.83 
   257.52     14.80   4357.15      0.00    -16.68      7.00   3465.83 
   257.53     14.79   4366.29     -0.01     -7.01      0.00   3472.26 
   257.54     14.79   4362.83     -0.01    -16.85     16.00   3469.50 
   257.55     14.79   4358.22     -0.02    -13.48      7.00   3465.83 
   257.56     14.79   4358.75     -0.02    -21.55      0.00   3465.83 
   257.57     14.80   4365.76     -0.01     -6.47     14.00   3472.26 
   257.58     14.80   4357.68     -0.02    -20.93      7.00   3465.83 
   257.59     14.80   4362.30     -0.00    -11.00      8.00   3469.50 
   257.60     14.80   4357.68     -0.00    -15.62      7.00   3465.83 
   257.61     14.78   4367.36     -0.03     -2.03      0.00   3472.26 
   257.62     14.78   4359.82     -0.03    -21.02     14.00   3465.83 
   257.63     14.77   4364.97     -0.04     -6.73      0.00   3469.50 
   257.64     14.78   4367.36     -0.03     -4.87      0.00   3472.26 
   257.65     14.79   4358.75     -0.02    -20.94      0.00   3465.83 
   257.66     14.79   4358.75     -0.01    -14.55      7.00   3465.83 
   257.67     14.79   4362.83     -0.01     -9.93      8.00   3469.50 
   257.68     14.79   4366.29     -0.01     -6.47     14.00   3472.26 
   257.69     14.79   4358.22     -0.01    -14.55      0.00   3465.83 
   257.70     14.79   4366.29     -0.02    -12.86      7.00   3472.26 
   257.71     14.79   4363.36     -0.02     -8.86      0.00   3469.50 
   257.72     14.78   4359.82     -0.03    -12.41     14.00   3465.83 
   257.73     14.77   4360.35     -0.04    -11.34      7.00   3465.83 
   257.74     14.77   4368.43     -0.04    -11.87     14.00   3472.26 
   257.75     14.78   4364.43     -0.03     -8.33      0.00   3469.50 
   257.76     14.78   4364.43     -0.04     -4.96      0.00   3469.50 
   257.77     14.78   4364.43     -0.04     -7.26      0.00   3469.50 
   257.78     14.78   4364.43     -0.04     -7.26      0.00   3469.50 
   257.79     14.78   4364.43     -0.05     -6.19      0.00   3469.50 
   257.80     14.78   4364.43     -0.04     -7.26      0.00   3469.50 
   257.81     14.78   4364.43     -0.03    -15.87      0.00   3469.50 
   257.82     14.78   4364.43     -0.03     -8.33      0.00   3469.50 
   257.83     14.78   4364.43     -0.02     -9.40      0.00   3469.50 
   257.84     14.78   4364.43     -0.01     -9.94      0.00   3469.50 
   257.85     14.78   4364.43     -0.01     -9.94      0.00   3469.50 
   257.86     14.78   4364.43     -0.01     -9.94      0.00   3469.50 
   257.87     14.78   4364.43     -0.02    -16.32      0.00   3469.50 
   257.88     14.78   4364.43     -0.03     -8.33      0.00   3469.50 
   257.89     14.78   4364.43     -0.04     -7.26      0.00   3469.50 
   257.90     14.78   4364.43     -0.04     -7.26      0.00   3469.50 
   257.91     14.78   4364.43     -0.04    -14.80      0.00   3469.50 
   257.92     14.78   4364.43     -0.04     -7.26      0.00   3469.50 
   257.93     14.78   4364.43     -0.03    -15.87      0.00   3469.50 
   257.94     14.78   4364.43     -0.03     -5.49      0.00   3469.50 
   257.95     14.78   4364.43     -0.03    -16.41      0.00   3469.50 
   257.96     14.78   4364.43     -0.03    -16.41      0.00   3469.50 
   257.97     14.78   4364.43     -0.03     -8.33      0.00   3469.50 
   257.98     14.78   4364.43     -0.02    -16.94      0.00   3469.50 
   257.99     14.78   4364.43     -0.02    -15.79      0.00   3469.50 
   258.00     14.78   4364.43     -0.02    -17.48      0.00   3469.50 
