#Written by Robertson Geologging WinLogger V1.0/406
~VERSION INFORMATION
#------------------------------------------------------------------------------
 VERS. 2.0 : CWLS LOG ASCII STANDARD - VERSION 2.0
 WRAP. NO  : ONE LINE PER DEPTH STEP
~WELL INFORMATION
#MNEM.UNIT         DATA                                DESCRIPTION OF MNEMONIC
#------------------------------------------------------------------------------
 STRT.M          7.6600                            :   START DEPTH
 STOP.M        258.0000                            :   STOP DEPTH
 STEP.M          0.0100                            :   STEP VALUE
 NULL.        -999.2500                            :   NULL VALUE
 COMP.    I.W.S.                                   :   COMPANY NAME
 WELL.    Mainsforth                               :   WELL NAME
 FLD.     Mainsforth                               :   FIELD NAME
 LOC.     N/A                                      :   LOCATION
 PROV.    N/A                                      :   PROVINCE
 SRVC.    N/A                                      :   SERVICE COMPANY NAME
 DATE.    21 Jul 09                                :   DATE
 UWI.     N/A                                      :   UNIQUE WELL IDENTIFIER
~PARAMETER INFORMATION
#MNEMO.UNIT         VALUE                 DESCRIPTION OF MNEMONIC
#------------------------------------------------------------------------------
~OTHER INFORMATION SECTION
#------------------------------------------------------------------------------
 TCGS 1365
~CURVE INFORMATION
#MNEMO.UNIT         API CODE              CURVE DESCRIPTION
#------------------------------------------------------------------------------
 DEPTH.M                                 :   0     Depth
 TEMP.DegC                               :   1     Temperature
 CN25.uS/cm                              :   2     Conductivity@25DegC
 DELT.DegC                               :   3     Delta T
 DELC.uS/cm                              :   4     Delta C
 NGAM.CPS                                :   5     Natural Gamma
 COND.uS/cm                              :   6     Conductivity
#------------------------------------------------------------------------------
~A  DEPTH     TEMP      CN25      DELT      DELC      NGAM      COND      
# ...
    57.38     11.18   2170.69      0.01      1.91      0.00   1565.74 
    57.39     11.18   2168.19      0.00      5.95      0.00   1563.93 
    57.40     11.18   2161.95      0.00     -6.24      0.00   1559.41 
    57.41     11.18   2168.48     -0.00      6.54      0.00   1563.93 
    57.42     11.17   2171.28     -0.00      2.79      0.00   1565.74 
    57.43     11.17   2158.79     -0.00     -9.70      0.00   1556.70 
    57.44     11.17   2171.28     -0.00      0.29      0.00   1565.74 
    57.45     11.17   2169.07     -0.01      0.59      0.00   1563.93 
    57.46     11.17   2162.53     -0.00      0.29      0.00   1559.41 
    57.47     11.17   2169.07     -0.01      0.59      0.00   1563.93 
    57.48     11.17   2171.57      0.00      0.00      0.00   1565.74 
    57.49     11.17   2169.07      0.00      9.70      8.00   1563.93 
    57.50     11.17   2162.83     -0.00     -5.95      0.00   1559.41 
    57.51     11.17   2169.07      0.00     -2.79      0.00   1563.93 
    57.52     11.17   2171.57      0.00      2.50      0.00   1565.74 
    57.53     11.17   2168.78      0.00     -0.29      0.00   1563.93 
    57.54     11.16   2163.41      0.00      0.00      0.00   1559.41 
    57.55     11.17   2169.07      0.00      0.00      8.00   1563.93 
    57.56     11.15   2172.45     -0.02      1.17      0.00   1565.74 
    57.57     11.15   2169.95     -0.01     10.87      0.00   1563.93 
    57.58     11.17   2162.83     -0.00     -5.95      0.00   1559.41 
    57.59     11.16   2169.66     -0.01     -1.91      0.00   1563.93 
    57.60     11.16   2171.86     -0.00      2.79     14.00   1565.74 
    57.61     11.16   2169.66     -0.01      7.12      0.00   1563.93 
    57.62     11.15   2163.70     -0.01     -7.87      0.00   1559.41 
    57.63     11.15   2169.95     -0.01      0.88      8.00   1563.93 
    57.64     11.15   2172.45     -0.01      9.62      0.00   1565.74 
    57.65     11.15   2159.95     -0.02     -2.58      0.00   1556.70 
    57.66     11.15   2172.45     -0.02      3.67      0.00   1565.74 
    57.67     11.15   2170.24     -0.01      7.13      0.00   1563.93 
    57.68     11.16   2169.66     -0.01      0.88      0.00   1563.93 
    57.69     11.16   2163.41     -0.01     -8.16      0.00   1559.41 
    57.70     11.17   2168.78      0.00      5.95      0.00   1563.93 
    57.71     11.17   2171.57     -0.01      3.08      0.00   1565.74 
    57.72     11.16   2169.36     -0.00     -2.20      0.00   1563.93 
    57.73     11.17   2162.83      0.00      3.75      0.00   1559.41 
    57.74     11.16   2169.66     -0.01     -1.62      0.00   1563.93 
    57.75     11.16   2172.16     -0.01      0.59      0.00   1565.74 
    57.76     11.16   2169.36     -0.01     10.58      0.00   1563.93 
    57.77     11.16   2163.12     -0.00     -8.45      0.00   1559.41 
    57.78     11.16   2169.36     -0.01      6.83      0.00   1563.93 
    57.79     11.17   2171.28     -0.01      3.08      0.00   1565.74 
    57.80     11.17   2168.78      0.00     -2.50      0.00   1563.93 
    57.81     11.17   2162.83     -0.00      0.29      0.00   1559.41 
    57.82     11.17   2168.78      0.00     -0.29      0.00   1563.93 
    57.83     11.17   2171.57      0.00     -0.29      0.00   1565.74 
    57.84     11.16   2159.37     -0.01     -9.41      0.00   1556.70 
    57.85     11.16   2172.16     -0.02      9.91      0.00   1565.74 
    57.86     11.16   2169.36     -0.02      1.17      0.00   1563.93 
    57.87     11.16   2163.41     -0.02     -7.28      0.00   1559.41 
    57.88     11.15   2169.95     -0.01      7.12      0.00   1563.93 
    57.89     11.16   2171.86     -0.00      2.79      0.00   1565.74 
    57.90     11.16   2163.12      0.00     -8.74      0.00   1559.41 
    57.91     11.16   2169.36      0.00      5.95      0.00   1563.93 
    57.92     11.17   2171.57      0.00      2.20      0.00   1565.74 
    57.93     11.17   2168.78      0.01     -3.38      0.00   1563.93 
    57.94     11.17   2162.53      0.01     -0.88      0.00   1559.41 
    57.95     11.18   2168.48      0.01     -0.88      0.00   1563.93 
    57.96     11.17   2171.28      0.00     -0.29      0.00   1565.74 
    57.97     11.17   2162.83     -0.00     -5.95      0.00   1559.41 
    57.98     11.17   2168.78      0.00      5.95      0.00   1563.93 
    57.99     11.17   2171.28      0.01      1.91      0.00   1565.74 
    58.00     11.18   2162.24      0.01     -9.33      0.00   1559.41 
    58.01     11.18   2168.48      0.02      5.07      0.00   1563.93 
    58.02     11.16   2171.86      0.00      2.50      0.00   1565.74 
    58.03     11.16   2169.66      0.00      6.25      0.00   1563.93 
    58.04     11.15   2163.70      0.00     -8.75      0.00   1559.41 
    58.05     11.16   2172.16      0.00      2.50      0.00   1565.74 
    58.06     11.17   2168.78      0.01      5.37      0.00   1563.93 
    58.07     11.17   2162.53      0.01     -7.12      0.00   1559.41 
    58.08     11.17   2168.78      0.01     -3.08      0.00   1563.93 
    58.09     11.17   2171.57      0.00      2.50      0.00   1565.74 
    58.10     11.16   2169.36      0.00      6.25      0.00   1563.93 
    58.11     11.17   2162.83      0.00     -6.54      0.00   1559.41 
    58.12     11.16   2171.86      0.00     -0.29      0.00   1565.74 
    58.13     11.16   2169.36      0.01     -0.59      0.00   1563.93 
    58.14     11.15   2163.70     -0.00      0.29      0.00   1559.41 
    58.15     11.16   2171.86      0.01     -0.59      0.00   1565.74 
    58.16     11.17   2169.07      0.00      0.00      0.00   1563.93 
    58.17     11.17   2162.83      0.00     -0.29      7.00   1559.41 
    58.18     11.17   2168.78      0.00     -0.29      0.00   1563.93 
    58.19     11.17   2171.28      0.00      0.00      0.00   1565.74 
    58.20     11.17   2162.53      0.00     -6.24      0.00   1559.41 
    58.21     11.18   2168.48      0.00      5.95      0.00   1563.93 
    58.22     11.18   2170.98      0.01     -0.59      0.00   1565.74 
    58.23     11.17   2171.28     -0.00      2.79      0.00   1565.74 
    58.24     11.18   2158.50      0.00     -0.29      0.00   1556.70 
    58.25     11.18   2170.98      0.00      0.00      0.00   1565.74 
    58.26     11.18   2168.48     -0.00      0.29      0.00   1563.93 
    58.27     11.17   2162.53      0.00      0.00      0.00   1559.41 
    58.28     11.17   2169.07     -0.00      0.29      0.00   1563.93 
    58.29     11.17   2171.57      0.00      0.00      0.00   1565.74 
    58.30     11.17   2171.57      0.00      2.50      0.00   1565.74 
    58.31     11.17   2158.79      0.01     -4.62      0.00   1556.70 
    58.32     11.17   2171.57      0.00      2.20      0.00   1565.74 
    58.33     11.17   2169.07      0.00     -2.79      0.00   1563.93 
    58.34     11.16   2163.12      0.00     -6.25      0.00   1559.41 
    58.35     11.16   2169.36     -0.01      6.83      0.00   1563.93 
    58.36     11.16   2171.86     -0.01      3.08      0.00   1565.74 
    58.37     11.17   2169.07     -0.01     -1.62      0.00   1563.93 
    58.38     11.16   2163.12     -0.02     -5.07      0.00   1559.41 
    58.39     11.17   2169.07     -0.01      7.12      0.00   1563.93 
    58.40     11.17   2171.57     -0.01      3.08      0.00   1565.74 
    58.41     11.16   2169.36     -0.01     -1.91      0.00   1563.93 
    58.42     11.16   2163.41     -0.01      4.62      0.00   1559.41 
    58.43     11.16   2169.66     -0.01     -1.62      0.00   1563.93 
    58.44     11.16   2171.86     -0.00      2.79      0.00   1565.74 
    58.45     11.16   2169.66     -0.01      7.12      0.00   1563.93 
    58.46     11.17   2162.53      0.00     -6.54      0.00   1559.41 
    58.47     11.16   2169.36     -0.00     -2.20      0.00   1563.93 
    58.48     11.16   2171.86     -0.00      2.79      0.00   1565.74 
    58.49     11.16   2169.36     -0.00      6.54      0.00   1563.93 
    58.50     11.16   2163.41     -0.01     -5.66      0.00   1559.41 
