#Written by Robertson Geologging WinLogger V1.0/406
~VERSION INFORMATION
#------------------------------------------------------------------------------
 VERS. 2.0 : CWLS LOG ASCII STANDARD - VERSION 2.0
 WRAP. NO  : ONE LINE PER DEPTH STEP
~WELL INFORMATION
#MNEM.UNIT         DATA                                DESCRIPTION OF MNEMONIC
#------------------------------------------------------------------------------
 STRT.M          7.6600                            :   START DEPTH
 STOP.M        258.0000                            :   STOP DEPTH
 STEP.M          0.0100                            :   STEP VALUE
 NULL.        -999.2500                            :   NULL VALUE
 COMP.    I.W.S.                                   :   COMPANY NAME
 WELL.    Mainsforth                               :   WELL NAME
 FLD.     Mainsforth                               :   FIELD NAME
 LOC.     N/A                                      :   LOCATION
 PROV.    N/A                                      :   PROVINCE
 SRVC.    N/A                                      :   SERVICE COMPANY NAME
 DATE.    21 Jul 09                                :   DATE
 UWI.     N/A                                      :   UNIQUE WELL IDENTIFIER
~PARAMETER INFORMATION
#MNEMO.UNIT         VALUE                 DESCRIPTION OF MNEMONIC
#------------------------------------------------------------------------------
~OTHER INFORMATION SECTION
#------------------------------------------------------------------------------
 TCGS 1365
~CURVE INFORMATION
#MNEMO.UNIT         API CODE              CURVE DESCRIPTION
#------------------------------------------------------------------------------
 DEPTH.M                                 :   0     Depth
 TEMP.DegC                               :   1     Temperature
 CN25.uS/cm                              :   2     Conductivity@25DegC
 DELT.DegC                               :   3     Delta T
 DELC.uS/cm                              :   4     Delta C
 NGAM.CPS                                :   5     Natural Gamma
 COND.uS/cm                              :   6     Conductivity
#------------------------------------------------------------------------------
~A  DEPTH     TEMP      CN25      DELT      DELC      NGAM      COND      
# ...
    40.43     10.75   1889.34     -0.01     -0.74      0.00   1345.49 
    40.44     10.74   1890.86     -0.02     -8.79      0.00   1346.39 
    40.45     10.74   1900.95     -0.03     11.64      0.00   1353.60 
    40.46     10.76   1890.08     -0.01      2.04      0.00   1346.39 
    40.47     10.75   1889.08     -0.02    -10.05      0.00   1345.49 
    40.48     10.75   1900.43     -0.01     12.13      0.00   1353.60 
    40.49     10.75   1889.34     -0.01     -0.49      0.00   1345.49 
    40.50     10.74   1891.11     -0.03     -8.53      0.00   1346.39 
    40.51     10.74   1901.21     -0.01     10.87      0.00   1353.60 
    40.52     10.75   1890.60     -0.00     -9.83      0.00   1346.39 
    40.53     10.75   1900.69     -0.01     10.87      0.00   1353.60 
    40.54     10.75   1889.08     -0.00      0.26      0.00   1345.49 
    40.55     10.75   1890.60     -0.01     -9.31      7.00   1346.39 
    40.56     10.75   1900.43     -0.01     11.87      0.00   1353.60 
    40.57     10.75   1890.34     -0.00      0.26      0.00   1346.39 
    40.58     10.76   1888.82     -0.00    -11.09      0.00   1345.49 
    40.59     10.77   1899.65      0.00      9.83      0.00   1353.60 
    40.60     10.76   1888.82     -0.00      0.26      0.00   1345.49 
    40.61     10.77   1888.30      0.01    -11.87      0.00   1345.49 
    40.62     10.76   1899.91      0.00     11.09      0.00   1353.60 
    40.63     10.77   1888.30      0.01     -2.04      0.00   1345.49 
    40.64     10.78   1889.05      0.02    -11.38      0.00   1346.39 
    40.65     10.77   1899.39      0.01      9.31      0.00   1353.60 
    40.66     10.77   1889.56      0.01     -0.78      0.00   1346.39 
    40.67     10.76   1899.91      0.01     -0.78      0.00   1353.60 
    40.68     10.75   1890.34      0.00      1.00      0.00   1346.39 
    40.69     10.75   1889.08      0.00     -1.52      0.00   1345.49 
    40.70     10.75   1900.43      0.00      0.00      0.00   1353.60 
    40.71     10.76   1888.82     -0.00     -1.00      0.00   1345.49 
    40.72     10.76   1890.08      0.00    -10.09      0.00   1346.39 
    40.73     10.75   1900.43      0.00     10.09      0.00   1353.60 
    40.74     10.75   1890.34      0.00      1.00      0.00   1346.39 
    40.75     10.76   1888.82      0.02    -12.39      0.00   1345.49 
    40.76     10.76   1899.91      0.00     11.09      0.00   1353.60 
    40.77     10.76   1890.08      0.00     -0.26      0.00   1346.39 
    40.78     10.76   1888.56      0.01    -11.87      0.00   1345.49 
    40.79     10.76   1890.08      0.00      0.00      0.00   1346.39 
    40.80     10.76   1888.56      0.01     -0.78      0.00   1345.49 
    40.81     10.76   1889.82      0.01    -10.87      0.00   1346.39 
    40.82     10.76   1899.91      0.01     10.83      0.00   1353.60 
    40.83     10.75   1890.34      0.00     -0.26      0.00   1346.39 
    40.84     10.75   1889.34      0.01    -11.87      0.00   1345.49 
    40.85     10.75   1900.43      0.00     11.09      0.00   1353.60 
    40.86     10.76   1890.08      0.01     -0.78      0.00   1346.39 
    40.87     10.76   1888.56      0.02    -12.39      0.00   1345.49 
    40.88     10.76   1899.91      0.00     11.09      0.00   1353.60 
    40.89     10.76   1888.56      0.01    -11.87      8.00   1345.49 
    40.90     10.76   1890.08      0.00      1.26      0.00   1346.39 
    40.91     10.75   1900.43     -0.02     11.12      0.00   1353.60 
    40.92     10.76   1890.08     -0.01     -9.57      0.00   1346.39 
    40.93     10.76   1900.17     -0.02     12.38      0.00   1353.60 
    40.94     10.76   1888.56     -0.00     -1.00      0.00   1345.49 
    40.95     10.77   1889.56      0.01    -10.87      0.00   1346.39 
    40.96     10.77   1899.65      0.01     10.57      0.00   1353.60 
    40.97     10.77   1889.30      0.02     -1.03      0.00   1346.39 
    40.98     10.77   1888.30      0.00    -11.35      0.00   1345.49 
    40.99     10.76   1899.91     -0.01     10.60      0.00   1353.60 
    41.00     10.76   1889.82     -0.00      0.26      0.00   1346.39 
    41.01     10.76   1888.56     -0.01    -10.83      0.00   1345.49 
    41.02     10.76   1899.91      0.00     10.09      0.00   1353.60 
    41.03     10.77   1888.04      0.00      0.00      0.00   1345.49 
    41.04     10.78   1889.05      0.01    -10.60      0.00   1346.39 
    41.05     10.76   1900.17     -0.01     11.87      0.00   1353.60 
    41.06     10.76   1888.82     -0.00     -1.00      0.00   1345.49 
    41.07     10.75   1900.43      0.00     -0.26      0.00   1353.60 
    41.08     10.75   1889.34     -0.00      0.26      0.00   1345.49 
    41.09     10.75   1890.34      0.01     -0.78      0.00   1346.39 
    41.10     10.75   1900.43      0.00      0.00      0.00   1353.60 
    41.11     10.75   1890.60     -0.00      0.26      0.00   1346.39 
    41.12     10.76   1888.82      0.00    -11.61      0.00   1345.49 
    41.13     10.76   1899.91      0.00     10.09      0.00   1353.60 
    41.14     10.75   1889.08     -0.01     -0.74      0.00   1345.49 
    41.15     10.76   1888.56     -0.01    -10.83      0.00   1345.49 
    41.16     10.75   1900.43     -0.03     11.90      0.00   1353.60 
    41.17     10.76   1888.56     -0.02      1.03      0.00   1345.49 
    41.18     10.77   1899.65      0.00      0.00      0.00   1353.60 
    41.19     10.77   1888.04      0.00     -1.26      0.00   1345.49 
    41.20     10.77   1889.56      0.00      1.00      0.00   1346.39 
    41.21     10.76   1900.17      0.00     -0.26      0.00   1353.60 
    41.22     10.76   1888.56      0.00      0.00      0.00   1345.49 
    41.23     10.75   1890.34     -0.01      0.52      0.00   1346.39 
    41.24     10.76   1899.91      0.00      0.00      0.00   1353.60 
    41.25     10.76   1889.82     -0.00      0.26      0.00   1346.39 
    41.26     10.75   1889.08      0.00     -1.26      0.00   1345.49 
    41.27     10.76   1899.91      0.00      0.00      0.00   1353.60 
    41.28     10.76   1889.82      0.00     -0.26      0.00   1346.39 
    41.29     10.76   1888.82      0.00      0.00      0.00   1345.49 
    41.30     10.75   1900.43     -0.00      0.26      0.00   1353.60 
    41.31     10.76   1888.82      0.00     -0.26      0.00   1345.49 
    41.32     10.75   1890.34      0.00      0.00      0.00   1346.39 
    41.33     10.76   1899.91      0.00      0.00      0.00   1353.60 
    41.34     10.76   1889.82     -0.01      1.78      0.00   1346.39 
    41.35     10.76   1900.17     -0.00     10.35      0.00   1353.60 
    41.36     10.75   1890.34     -0.00     -9.83      0.00   1346.39 
    41.37     10.76   1888.82      0.00     -1.52      0.00   1345.49 
    41.38     10.76   1890.08      0.01    -10.61      0.00   1346.39 
    41.39     10.75   1900.43      0.00     10.09      0.00   1353.60 
    41.40     10.75   1890.34      0.00      1.26      0.00   1346.39 
    41.41     10.75   1890.60      0.00    -10.35      0.00   1346.39 
    41.42     10.75   1900.43      0.00     11.09      0.00   1353.60 
    41.43     10.76   1890.08      0.01     -0.78      0.00   1346.39 
    41.44     10.77   1899.65      0.02     -1.30      0.00   1353.60 
    41.45     10.76   1889.82      0.00     -0.26      0.00   1346.39 
    41.46     10.76   1888.82      0.00     -0.26      0.00   1345.49 
    41.47     10.76   1900.17      0.00     -0.26      0.00   1353.60 
    41.48     10.76   1888.82      0.01     -0.52      0.00   1345.49 
    41.49     10.76   1889.82      0.02     -1.29      7.00   1346.39 
    41.50     10.77   1899.65      0.03     -1.56      0.00   1353.60 
    41.51     10.77   1888.30      0.02     -2.30      0.00   1345.49 
    41.52     10.76   1889.82      0.01    -10.87      0.00   1346.39 
    41.53     10.77   1899.65      0.01     10.57      0.00   1353.60 
    41.54     10.77   1889.56      0.02     -1.03      0.00   1346.39 
    41.55     10.77   1888.04      0.02    -12.38      0.00   1345.49 
