#Written by Robertson Geologging WinLogger V1.0/406
~VERSION INFORMATION
#------------------------------------------------------------------------------
 VERS. 2.0 : CWLS LOG ASCII STANDARD - VERSION 2.0
 WRAP. NO  : ONE LINE PER DEPTH STEP
~WELL INFORMATION
#MNEM.UNIT         DATA                                DESCRIPTION OF MNEMONIC
#------------------------------------------------------------------------------
 STRT.M          7.6600                            :   START DEPTH
 STOP.M        258.0000                            :   STOP DEPTH
 STEP.M          0.0100                            :   STEP VALUE
 NULL.        -999.2500                            :   NULL VALUE
 COMP.    I.W.S.                                   :   COMPANY NAME
 WELL.    Mainsforth                               :   WELL NAME
 FLD.     Mainsforth                               :   FIELD NAME
 LOC.     N/A                                      :   LOCATION
 PROV.    N/A                                      :   PROVINCE
 SRVC.    N/A                                      :   SERVICE COMPANY NAME
 DATE.    21 Jul 09                                :   DATE
 UWI.     N/A                                      :   UNIQUE WELL IDENTIFIER
~PARAMETER INFORMATION
#MNEMO.UNIT         VALUE                 DESCRIPTION OF MNEMONIC
#------------------------------------------------------------------------------
~OTHER INFORMATION SECTION
#------------------------------------------------------------------------------
 TCGS 1365
~CURVE INFORMATION
#MNEMO.UNIT         API CODE              CURVE DESCRIPTION
#------------------------------------------------------------------------------
 DEPTH.M                                 :   0     Depth
 TEMP.DegC                               :   1     Temperature
 CN25.uS/cm                              :   2     Conductivity@25DegC
 DELT.DegC                               :   3     Delta T
 DELC.uS/cm                              :   4     Delta C
 NGAM.CPS                                :   5     Natural Gamma
 COND.uS/cm                              :   6     Conductivity
#------------------------------------------------------------------------------
~A  DEPTH     TEMP      CN25      DELT      DELC      NGAM      COND      
# ...
   141.00     12.11   3399.23     -0.01      0.89      0.00   2518.33 
   141.01     12.12   3396.33     -0.00     -2.01      0.00   2516.51 
   141.02     12.12   3398.79      0.00     -0.45      0.00   2518.33 
   141.03     12.12   3398.34      0.01     -1.34      0.00   2518.33 
   141.04     12.12   3397.90      0.02     -1.78      0.00   2518.33 
   141.05     12.12   3397.90      0.01      7.25      0.00   2518.33 
   141.06     12.12   3389.75      0.01     -7.03      0.00   2511.95 
   141.07     12.11   3399.23     -0.01      0.89      0.00   2518.33 
   141.08     12.11   3399.23     -0.00      0.45      0.00   2518.33 
   141.09     12.10   3400.13      0.00      0.00      0.00   2518.33 
   141.10     12.10   3400.13     -0.00      0.45      0.00   2518.33 
   141.11     12.11   3399.68      0.00      0.00      0.00   2518.33 
   141.12     12.11   3391.09     -0.00     -5.69      0.00   2511.95 
   141.13     12.12   3398.79     -0.00      9.03      0.00   2518.33 
   141.14     12.12   3395.44      0.00     -2.45      0.00   2516.51 
   141.15     12.13   3397.45      0.01     -1.34      0.00   2518.33 
   141.16     12.13   3397.45      0.01     -1.34      0.00   2518.33 
   141.17     12.12   3398.34      0.01     -0.89      0.00   2518.33 
   141.18     12.12   3398.34      0.01     -1.34      0.00   2518.33 
   141.19     12.11   3390.64      0.00     -0.44      0.00   2511.95 
   141.20     12.11   3399.23      0.00     -0.45      0.00   2518.33 
   141.21     12.11   3399.23     -0.00      2.90      7.00   2518.33 
   141.22     12.10   3400.13     -0.02      1.78      0.00   2518.33 
   141.23     12.10   3400.13     -0.02      2.23      0.00   2518.33 
   141.24     12.10   3400.57     -0.03      3.12      0.00   2518.33 
   141.25     12.10   3398.12     -0.02     -0.67      0.00   2516.51 
   141.26     12.10   3400.13     -0.00      9.04      0.00   2518.33 
   141.27     12.11   3391.09      0.00     -9.04      0.00   2511.95 
   141.28     12.11   3399.23      0.01     -0.89      0.00   2518.33 
   141.29     12.12   3398.79      0.00      2.01      0.00   2518.33 
   141.30     12.11   3399.23     -0.01      0.89      0.00   2518.33 
   141.31     12.11   3396.78     -0.01     -1.56      0.00   2516.51 
   141.32     12.12   3398.79      0.00      0.00      0.00   2518.33 
   141.33     12.11   3399.23      0.01      7.70      0.00   2518.33 
   141.34     12.11   3390.64      0.01     -9.93      0.00   2511.95 
   141.35     12.11   3399.68      0.01     -0.89      0.00   2518.33 
   141.36     12.10   3397.67      0.01     -3.35      0.00   2516.51 
   141.37     12.12   3398.79      0.01     -1.34      0.00   2518.33 
   141.38     12.12   3398.79      0.00      8.15      7.00   2518.33 
   141.39     12.11   3399.68     -0.00     -6.92      0.00   2518.33 
   141.40     12.11   3399.23     -0.01      9.48      0.00   2518.33 
   141.41     12.11   3399.68     -0.02      1.78      0.00   2518.33 
   141.42     12.11   3391.09     -0.02     -6.81      0.00   2511.95 
   141.43     12.11   3406.60     -0.01      8.26      0.00   2523.79 
   141.44     12.12   3390.20      0.00     -8.59      0.00   2511.95 
   141.45     12.12   3398.79      0.00      0.00      0.00   2518.33 
   141.46     12.12   3398.79      0.01      7.70      0.00   2518.33 
   141.47     12.12   3398.79      0.01     -0.89      0.00   2518.33 
   141.48     12.11   3399.23      0.00      2.01      0.00   2518.33 
   141.49     12.12   3396.33      0.00     -2.90      0.00   2516.51 
   141.50     12.12   3398.79      0.00      0.00      0.00   2518.33 
   141.51     12.12   3389.75      0.00     -9.03      0.00   2511.95 
   141.52     12.11   3399.68     -0.01      0.89      0.00   2518.33 
   141.53     12.10   3400.13     -0.01      3.35      0.00   2518.33 
   141.54     12.10   3400.57     -0.01      9.93      0.00   2518.33 
   141.55     12.10   3398.12     -0.01     -1.12      0.00   2516.51 
   141.56     12.11   3399.68     -0.00      0.45      0.00   2518.33 
   141.57     12.10   3400.13     -0.01      1.34      0.00   2518.33 
   141.58     12.11   3399.23     -0.01      3.35      0.00   2518.33 
   141.59     12.12   3381.61     -0.00    -16.73      0.00   2505.57 
   141.60     12.12   3398.79     -0.00      0.45      0.00   2518.33 
   141.61     12.12   3398.34      0.01      7.70      0.00   2518.33 
   141.62     12.12   3398.79      0.01     -0.89      0.00   2518.33 
   141.63     12.11   3399.68     -0.00      2.90      0.00   2518.33 
   141.64     12.11   3391.09      0.00     -9.04      0.00   2511.95 
   141.65     12.11   3399.68      0.01     -0.89      0.00   2518.33 
   141.66     12.11   3399.68      0.02     -1.79      0.00   2518.33 
   141.67     12.11   3399.23      0.02     -2.23      0.00   2518.33 
   141.68     12.11   3396.78      0.01     -3.79      0.00   2516.51 
   141.69     12.12   3398.79      0.01      7.70      0.00   2518.33 
   141.70     12.12   3397.90      0.01      1.56      7.00   2518.33 
   141.71     12.12   3398.79     -0.00      0.45      0.00   2518.33 
   141.72     12.12   3390.20     -0.00     -8.14      0.00   2511.95 
   141.73     12.11   3399.68     -0.01      1.34      0.00   2518.33 
   141.74     12.10   3400.13     -0.01      0.89      0.00   2518.33 
   141.75     12.10   3397.67     -0.01     -1.12      0.00   2516.51 
   141.76     12.11   3399.68     -0.01      9.48      0.00   2518.33 
   141.77     12.11   3399.68     -0.01      0.89      0.00   2518.33 
   141.78     12.12   3398.79      0.00     -0.45      0.00   2518.33 
   141.79     12.11   3391.09     -0.00     -8.15      0.00   2511.95 
   141.80     12.11   3399.23      0.00      0.00      0.00   2518.33 
   141.81     12.11   3399.23     -0.00      9.04      0.00   2518.33 
   141.82     12.11   3397.23     -0.01     -1.12      0.00   2516.51 
   141.83     12.11   3399.23     -0.01      0.89      0.00   2518.33 
   141.84     12.11   3399.23     -0.01      0.89      0.00   2518.33 
   141.85     12.11   3399.23     -0.00      0.45      0.00   2518.33 
   141.86     12.11   3399.23      0.00      0.00      0.00   2518.33 
   141.87     12.11   3390.64      0.01     -0.89      0.00   2511.95 
   141.88     12.11   3399.68      0.00     -0.45      0.00   2518.33 
   141.89     12.10   3400.13      0.00     -0.45      0.00   2518.33 
   141.90     12.11   3399.68      0.00     -0.45      0.00   2518.33 
   141.91     12.11   3397.23      0.00     -2.45      0.00   2516.51 
   141.92     12.11   3399.23      0.00      8.59      0.00   2518.33 
   141.93     12.12   3398.79      0.00     -0.45      0.00   2518.33 
   141.94     12.12   3390.20      0.01     -9.48      0.00   2511.95 
   141.95     12.12   3397.90      0.02     -1.78      0.00   2518.33 
   141.96     12.12   3398.34      0.02     -1.78      0.00   2518.33 
   141.97     12.12   3398.34      0.01     -1.34      0.00   2518.33 
   141.98     12.12   3398.79      0.00      8.15      0.00   2518.33 
   141.99     12.11   3399.23      0.00      0.00      0.00   2518.33 
   142.00     12.11   3391.09     -0.01     -5.25      0.00   2511.95 
   142.01     12.11   3399.23     -0.00      0.45      0.00   2518.33 
   142.02     12.11   3399.23     -0.01      0.89      0.00   2518.33 
   142.03     12.12   3398.79     -0.01      0.89      0.00   2518.33 
   142.04     12.11   3399.23     -0.01      1.34      0.00   2518.33 
   142.05     12.11   3399.23     -0.01      9.48      0.00   2518.33 
   142.06     12.11   3390.64      0.00     -8.59      0.00   2511.95 
   142.07     12.10   3400.13     -0.01      0.89      0.00   2518.33 
   142.08     12.11   3399.68      0.00     -0.45      0.00   2518.33 
   142.09     12.10   3400.57     -0.00      0.45      0.00   2518.33 
   142.10     12.10   3400.13     -0.00      0.45      7.00   2518.33 
   142.11     12.11   3399.68      0.00      8.59      0.00   2518.33 
   142.12     12.11   3390.64     -0.00     -8.15      0.00   2511.95 
