#Written by Robertson Geologging WinLogger V1.0/406
~VERSION INFORMATION
#------------------------------------------------------------------------------
 VERS. 2.0 : CWLS LOG ASCII STANDARD - VERSION 2.0
 WRAP. NO  : ONE LINE PER DEPTH STEP
~WELL INFORMATION
#MNEM.UNIT         DATA                                DESCRIPTION OF MNEMONIC
#------------------------------------------------------------------------------
 STRT.M          7.6600                            :   START DEPTH
 STOP.M        258.0000                            :   STOP DEPTH
 STEP.M          0.0100                            :   STEP VALUE
 NULL.        -999.2500                            :   NULL VALUE
 COMP.    I.W.S.                                   :   COMPANY NAME
 WELL.    Mainsforth                               :   WELL NAME
 FLD.     Mainsforth                               :   FIELD NAME
 LOC.     N/A                                      :   LOCATION
 PROV.    N/A                                      :   PROVINCE
 SRVC.    N/A                                      :   SERVICE COMPANY NAME
 DATE.    21 Jul 09                                :   DATE
 UWI.     N/A                                      :   UNIQUE WELL IDENTIFIER
~PARAMETER INFORMATION
#MNEMO.UNIT         VALUE                 DESCRIPTION OF MNEMONIC
#------------------------------------------------------------------------------
~OTHER INFORMATION SECTION
#------------------------------------------------------------------------------
 TCGS 1365
~CURVE INFORMATION
#MNEMO.UNIT         API CODE              CURVE DESCRIPTION
#------------------------------------------------------------------------------
 DEPTH.M                                 :   0     Depth
 TEMP.DegC                               :   1     Temperature
 CN25.uS/cm                              :   2     Conductivity@25DegC
 DELT.DegC                               :   3     Delta T
 DELC.uS/cm                              :   4     Delta C
 NGAM.CPS                                :   5     Natural Gamma
 COND.uS/cm                              :   6     Conductivity
#------------------------------------------------------------------------------
~A  DEPTH     TEMP      CN25      DELT      DELC      NGAM      COND      
# ...
    91.28     11.54   2671.79      0.00      8.33      0.00   1947.65 
    91.29     11.54   2671.79      0.00      8.33      0.00   1947.65 
    91.30     11.54   2673.39     -0.00     10.28      0.00   1948.56 
    91.31     11.54   2680.48      0.00     17.37      0.00   1954.00 
    91.32     11.55   2671.08      0.01     -0.71      0.00   1947.65 
    91.33     11.55   2672.32      0.01      9.21      0.00   1948.56 
    91.34     11.56   2670.72      0.02      7.26      0.00   1947.65 
    91.35     11.55   2679.76      0.02     15.94      0.00   1954.00 
    91.36     11.55   2672.32      0.01      0.53      0.00   1948.56 
    91.37     11.55   2671.08      0.01      7.61      0.00   1947.65 
    91.38     11.55   2671.08      0.01      7.61      0.00   1947.65 
    91.39     11.55   2672.32      0.01      0.17      0.00   1948.56 
    91.40     11.54   2680.48      0.01     16.65      0.00   1954.00 
    91.41     11.55   2671.08      0.01      7.61      0.00   1947.65 
    91.42     11.56   2671.61      0.02     -0.54      0.00   1948.56 
    91.43     11.56   2670.37      0.02      7.26      0.00   1947.65 
    91.44     11.57   2670.54      0.04     -1.97      0.00   1948.56 
    91.45     11.57   2678.33      0.03     15.22      0.00   1954.00 
    91.46     11.56   2670.72      0.01      7.97      0.00   1947.65 
    91.47     11.56   2671.96      0.01      0.53      0.00   1948.56 
    91.48     11.54   2680.48     -0.00     17.72      0.00   1954.00 
    91.49     11.55   2672.68      0.01     -0.71      0.00   1948.56 
    91.50     11.54   2671.79      0.00      8.33      0.00   1947.65 
    91.51     11.54   2671.79      0.01     -0.71      0.00   1947.65 
    91.52     11.55   2672.68      0.00      9.57      0.00   1948.56 
    91.53     11.54   2680.48     -0.01      9.40      0.00   1954.00 
    91.54     11.55   2672.32      0.00      9.92      0.00   1948.56 
    91.55     11.55   2671.08     -0.01      0.71      0.00   1947.65 
    91.56     11.55   2680.12     -0.01      8.15      0.00   1954.00 
    91.57     11.55   2672.68     -0.01     10.63      0.00   1948.56 
    91.58     11.54   2672.15     -0.01      1.07      0.00   1947.65 
    91.59     11.54   2680.83     -0.01     18.08      0.00   1954.00 
    91.60     11.55   2671.08      0.00      0.00      0.00   1947.65 
    91.61     11.55   2672.32      0.00      0.88      0.00   1948.56 
    91.62     11.55   2679.76      0.00     17.36      0.00   1954.00 
    91.63     11.56   2670.72      0.00     -1.60      0.00   1947.65 
    91.64     11.55   2671.08      0.00      8.32      0.00   1947.65 
    91.65     11.54   2682.96      0.00     11.16      0.00   1955.81 
    91.66     11.55   2671.08      0.01     -0.71      7.00   1947.65 
    91.67     11.54   2671.79      0.00      8.33      0.00   1947.65 
    91.68     11.54   2680.48      0.00      8.33      0.00   1954.00 
    91.69     11.54   2673.03     -0.00      1.60      0.00   1948.56 
    91.70     11.54   2671.79      0.00      0.00      0.00   1947.65 
    91.71     11.54   2680.48     -0.01     18.08      7.00   1954.00 
    91.72     11.54   2672.15     -0.02      1.43      0.00   1947.65 
    91.73     11.55   2682.24     -0.00     11.52      0.00   1955.81 
    91.74     11.55   2671.08      0.00     -0.36      0.00   1947.65 
    91.75     11.56   2670.01      0.02      7.26      0.00   1947.65 
    91.76     11.56   2678.69      0.02      7.25      0.00   1954.00 
    91.77     11.56   2670.72      0.02     -1.43      0.00   1947.65 
    91.78     11.55   2682.60      0.00     11.16      0.00   1955.81 
    91.79     11.54   2671.79      0.00     -1.24      0.00   1947.65 
    91.80     11.54   2680.48      0.00     17.01      0.00   1954.00 
    91.81     11.54   2672.15     -0.01      0.71      0.00   1947.65 
    91.82     11.54   2672.15     -0.01     -0.17      0.00   1947.65 
    91.83     11.54   2683.32     -0.01     11.88      0.00   1955.81 
    91.84     11.54   2672.15     -0.01      1.07      0.00   1947.65 
    91.85     11.54   2680.48     -0.00      9.04      0.00   1954.00 
    91.86     11.55   2671.44      0.00     -1.60      0.00   1947.65 
    91.87     11.54   2673.39     -0.01     10.99      0.00   1948.56 
    91.88     11.54   2680.48     -0.01      9.75      0.00   1954.00 
    91.89     11.54   2672.15     -0.02      0.54      0.00   1947.65 
    91.90     11.54   2680.83     -0.02     10.47      0.00   1954.00 
    91.91     11.55   2671.08     -0.00      0.36      0.00   1947.65 
    91.92     11.56   2681.53      0.00     10.80      0.00   1955.81 
    91.93     11.56   2670.01      0.01     -1.95      0.00   1947.65 
    91.94     11.57   2678.33      0.01      7.61      0.00   1954.00 
    91.95     11.56   2670.72     -0.00      0.36      0.00   1947.65 
    91.96     11.54   2680.48     -0.02      8.87      0.00   1954.00 
    91.97     11.55   2672.32      0.00      1.24      0.00   1948.56 
    91.98     11.56   2679.40      0.00      8.32      0.00   1954.00 
    91.99     11.56   2670.72      0.00     -1.60      0.00   1947.65 
    92.00     11.56   2679.05      0.01      7.97      0.00   1954.00 
    92.01     11.55   2672.32      0.00      1.24      0.00   1948.56 
    92.02     11.55   2671.08     -0.00     -0.88      0.00   1947.65 
    92.03     11.56   2679.40     -0.00      9.04      0.00   1954.00 
    92.04     11.55   2671.44     -0.00      0.36      0.00   1947.65 
    92.05     11.56   2681.88      0.01     10.45      0.00   1955.81 
    92.06     11.56   2670.72      0.02     -2.67      0.00   1947.65 
    92.07     11.55   2680.12      0.02      6.90      0.00   1954.00 
    92.08     11.55   2672.32      0.02     -0.19      0.00   1948.56 
    92.09     11.54   2680.83     -0.00      7.80      0.00   1954.00 
    92.10     11.53   2672.51     -0.01      0.71      0.00   1947.65 
    92.11     11.54   2683.32     -0.00     11.52      0.00   1955.81 
    92.12     11.53   2672.51     -0.01     -0.53      0.00   1947.65 
    92.13     11.54   2680.83     -0.00      9.04      0.00   1954.00 
    92.14     11.55   2671.08      0.01     -1.07      7.00   1947.65 
    92.15     11.55   2682.24      0.00     10.80      0.00   1955.81 
    92.16     11.55   2671.08      0.01     -1.95      0.00   1947.65 
    92.17     11.55   2680.12      0.01     -0.72      0.00   1954.00 
    92.18     11.55   2672.32      0.01      0.53      0.00   1948.56 
    92.19     11.55   2679.76      0.01      7.61      0.00   1954.00 
    92.20     11.56   2670.72      0.01     -2.31      7.00   1947.65 
    92.21     11.56   2681.53      0.02      9.73      0.00   1955.81 
    92.22     11.56   2670.72      0.02     -1.43      0.00   1947.65 
    92.23     11.55   2679.76      0.00     -0.36      0.00   1954.00 
    92.24     11.56   2671.96      0.01     -0.71      0.00   1948.56 
    92.25     11.56   2679.40      0.01      7.97      0.00   1954.00 
    92.26     11.55   2679.76      0.00      8.32      0.00   1954.00 
    92.27     11.55   2672.32      0.01      0.53      0.00   1948.56 
    92.28     11.55   2680.12      0.00      8.33      0.00   1954.00 
    92.29     11.55   2671.44      0.01     -1.95      0.00   1947.65 
    92.30     11.55   2682.24      0.01      1.76      0.00   1955.81 
    92.31     11.55   2671.44     -0.00      0.36      0.00   1947.65 
    92.32     11.55   2680.12     -0.00      7.80      0.00   1954.00 
    92.33     11.54   2672.15     -0.02      1.43      0.00   1947.65 
    92.34     11.53   2683.67     -0.02      3.91      0.00   1955.81 
    92.35     11.54   2672.15     -0.01     -0.17      0.00   1947.65 
    92.36     11.53   2681.19     -0.02     10.11      0.00   1954.00 
    92.37     11.53   2673.75     -0.02      2.67      0.00   1948.56 
    92.38     11.53   2672.51     -0.02      0.19      0.00   1947.65 
    92.39     11.54   2680.83     -0.00      0.36      0.00   1954.00 
    92.40     11.55   2672.68     -0.00      1.60      0.00   1948.56 
