#Written by Robertson Geologging WinLogger V1.0/406
~VERSION INFORMATION
#------------------------------------------------------------------------------
 VERS. 2.0 : CWLS LOG ASCII STANDARD - VERSION 2.0
 WRAP. NO  : ONE LINE PER DEPTH STEP
~WELL INFORMATION
#MNEM.UNIT         DATA                                DESCRIPTION OF MNEMONIC
#------------------------------------------------------------------------------
 STRT.M          7.0800                            :   START DEPTH
 STOP.M        258.0000                            :   STOP DEPTH
 STEP.M          0.0100                            :   STEP VALUE
 NULL.        -999.2500                            :   NULL VALUE
 COMP.    Coal Authority                           :   COMPANY NAME
 WELL.    Mainsforth Shaft                         :   WELL NAME
 FLD.     Mainsforth                               :   FIELD NAME
 LOC.     N/A                                      :   LOCATION
 PROV.    N/A                                      :   PROVINCE
 SRVC.    N/A                                      :   SERVICE COMPANY NAME
 DATE.    20 May 08                                :   DATE
 UWI.     N/A                                      :   UNIQUE WELL IDENTIFIER
~PARAMETER INFORMATION
#MNEMO.UNIT         VALUE                 DESCRIPTION OF MNEMONIC
#------------------------------------------------------------------------------
~OTHER INFORMATION SECTION
#------------------------------------------------------------------------------
 TCDS 1365
~CURVE INFORMATION
#MNEMO.UNIT         API CODE              CURVE DESCRIPTION
#------------------------------------------------------------------------------
 DEPTH.M                                 :   0     Depth
 TEMP.DegC                               :   1     Temperature
 COND.uS/cm                              :   2     Absolute Conductivity
 COND.uS/cm                              :   3     Conductivity@25DegC
 DELT.DegC                               :   4     Delta T
 DELC.uS/cm                              :   5     Delta C
#------------------------------------------------------------------------------
~A  DEPTH     TEMP      COND      COND      DELT      DELC      
# ...
    40.08     10.62   1451.05   2036.91      0.01     -0.83 
    40.09     10.61   1451.05   2037.46      0.00     -0.28 
    40.10     10.60   1451.05   2037.74      0.00     -2.81 
    40.11     10.60   1443.82   2027.87     -0.01     -9.59 
    40.12     10.60   1451.05   2037.74     -0.01      0.55 
    40.13     10.60   1451.05   2038.01     -0.00      0.28 
    40.14     10.61   1443.82   2027.05      0.01    -10.69 
    40.15     10.61   1451.05   2037.46      0.01     -0.55 
    40.16     10.60   1451.05   2038.01      0.01     -0.55 
    40.17     10.60   1451.05   2037.74      0.00      0.00 
    40.18     10.60   1443.82   2027.87     -0.01    -11.85 
    40.19     10.60   1452.85   2040.55     -0.02      3.64 
    40.20     10.61   1451.05   2037.46     -0.01      0.55 
    40.21     10.61   1443.82   2027.05     -0.00     -9.86 
    40.22     10.61   1451.05   2037.46     -0.00      0.28 
    40.23     10.62   1452.85   2039.44      0.00     -0.28 
    40.24     10.61   1443.82   2027.05     -0.00     -9.86 
    40.25     10.61   1451.05   2037.46     -0.01      0.83 
    40.26     10.61   1451.05   2037.18      0.00      0.00 
    40.27     10.61   1443.82   2027.05      0.00    -12.67 
    40.28     10.62   1451.05   2036.91      0.00     -0.28 
    40.29     10.62   1451.05   2036.63      0.01     -0.83 
    40.30     10.62   1451.05   2036.91      0.01     -3.09 
    40.31     10.61   1443.82   2027.05      0.00    -10.41 
    40.32     10.61   1452.85   2039.72      0.01      1.98 
    40.33     10.61   1451.05   2037.46      0.00     -0.28 
    40.34     10.60   1443.82   2027.87     -0.01      0.82 
    40.35     10.59   1451.05   2038.57     -0.02      1.11 
    40.36     10.60   1452.85   2040.55     -0.01      3.09 
    40.37     10.60   1443.82   2027.87     -0.02     -9.04 
    40.38     10.61   1451.05   2037.18      0.00     -2.53 
    40.39     10.62   1451.05   2036.63      0.01     -0.55 
    40.40     10.61   1443.82   2027.05      0.01    -10.69 
    40.41     10.61   1452.85   2040.00      0.02      1.15 
    40.42     10.61   1451.05   2037.18      0.03     -1.66 
    40.43     10.61   1443.82   2027.32      0.01    -13.50 
    40.44     10.62   1451.05   2036.91      0.01      9.31 
    40.45     10.62   1451.05   2036.91      0.01     -0.55 
    40.46     10.61   1443.82   2027.05      0.01    -10.69 
    40.47     10.60   1451.05   2037.74     -0.00      0.28 
    40.48     10.60   1452.85   2040.27     -0.00      0.28 
    40.49     10.60   1443.82   2027.87     -0.02     -9.04 
    40.50     10.59   1451.05   2038.29     -0.02      1.38 
    40.51     10.60   1451.05   2038.01     -0.02      1.38 
    40.52     10.59   1443.82   2028.15     -0.02     -8.76 
    40.53     10.60   1451.05   2037.74     -0.02     11.24 
    40.54     10.61   1443.82   2027.05     -0.02     -9.03 
    40.55     10.61   1451.05   2037.18     -0.02      1.10 
    40.56     10.62   1452.85   2039.44     -0.01      3.09 
    40.57     10.61   1443.82   2027.05      0.00    -10.14 
    40.58     10.61   1451.05   2037.46      0.00     -0.28 
    40.59     10.61   1443.82   2027.05      0.01    -13.50 
    40.60     10.61   1451.05   2037.46      0.00      0.00 
    40.61     10.61   1451.05   2037.46      0.00     10.14 
    40.62     10.61   1443.82   2027.05      0.01    -10.97 
    40.63     10.61   1451.05   2037.18      0.02     -1.38 
    40.64     10.61   1443.82   2027.05      0.02    -11.24 
    40.65     10.61   1452.85   2039.72      0.01     -0.55 
    40.66     10.61   1451.05   2037.46     -0.01      0.55 
    40.67     10.60   1443.82   2027.87     -0.02     -8.76 
    40.68     10.61   1452.85   2040.00     -0.01     13.22 
    40.69     10.61   1443.82   2027.32      0.00    -12.67 
    40.70     10.61   1451.05   2037.46      0.01     -0.55 
    40.71     10.62   1451.05   2036.91      0.02     -1.10 
    40.72     10.62   1443.82   2026.77      0.02    -11.52 
    40.73     10.62   1451.05   2036.63      0.03     -1.66 
    40.74     10.62   1443.82   2026.77      0.02     -1.10 
    40.75     10.62   1451.05   2036.91      0.02     -1.10 
    40.76     10.62   1443.82   2026.77      0.01    -10.96 
    40.77     10.61   1452.85   2039.72      0.01      1.98 
    40.78     10.61   1443.82   2027.05      0.00    -10.41 
    40.79     10.61   1451.05   2037.18      0.00     10.14 
    40.80     10.61   1451.05   2037.46     -0.00      0.28 
    40.81     10.61   1443.82   2027.32     -0.01     -9.59 
    40.82     10.61   1452.85   2040.00     -0.00      2.81 
    40.83     10.61   1443.82   2027.32     -0.00    -12.40 
    40.84     10.61   1451.05   2037.46     -0.00     10.41 
    40.85     10.61   1443.82   2027.05     -0.00     -9.86 
    40.86     10.61   1451.05   2037.18     -0.01      0.55 
    40.87     10.61   1443.82   2027.32     -0.00     -9.86 
    40.88     10.62   1451.05   2036.91      0.01     -3.09 
    40.89     10.61   1451.05   2037.46     -0.00     10.41 
    40.90     10.60   1443.82   2027.87     -0.00      0.27 
    40.91     10.60   1452.85   2040.27      0.00      2.54 
    40.92     10.60   1443.82   2027.87     -0.01    -11.85 
    40.93     10.60   1451.05   2037.74     -0.00     10.42 
    40.94     10.61   1443.82   2027.32      0.00    -10.14 
    40.95     10.61   1451.05   2037.46     -0.00      0.28 
    40.96     10.60   1443.82   2027.60     -0.01     -9.59 
    40.97     10.61   1452.85   2040.00     -0.01     13.22 
    40.98     10.61   1443.82   2027.32     -0.02     -8.76 
    40.99     10.61   1451.05   2037.46     -0.01      0.83 
    41.00     10.61   1443.82   2027.32     -0.01     -9.31 
    41.01     10.60   1451.05   2037.74     -0.01      0.83 
    41.02     10.61   1443.82   2027.32     -0.00      0.27 
    41.03     10.60   1451.05   2037.74     -0.02      1.10 
    41.04     10.61   1443.82   2027.32     -0.01     -9.31 
    41.05     10.61   1451.05   2037.18     -0.00      0.28 
    41.06     10.61   1443.82   2027.32     -0.01      0.55 
    41.07     10.61   1451.05   2037.18     -0.00      0.28 
    41.08     10.61   1443.82   2027.32      0.00    -10.14 
    41.09     10.61   1451.05   2037.18      0.01     -0.55 
    41.10     10.61   1443.82   2027.05      0.01     -0.82 
    41.11     10.60   1451.05   2037.74      0.00      0.00 
    41.12     10.61   1443.82   2027.05      0.01    -10.97 
    41.13     10.61   1452.85   2040.00     -0.00     12.95 
    41.14     10.62   1443.82   2026.77      0.01    -10.69 
    41.15     10.63   1451.05   2036.36      0.03     -1.66 
    41.16     10.63   1443.82   2026.22      0.02    -11.51 
    41.17     10.62   1451.05   2036.63      0.02      8.76 
    41.18     10.61   1443.82   2027.32      0.01    -13.23 
    41.19     10.61   1451.05   2037.18      0.00     -0.28 
    41.20     10.61   1443.82   2027.05      0.00      0.00 
    41.21     10.62   1451.05   2036.91      0.01     -0.55 
    41.22     10.62   1443.82   2026.77      0.00    -12.67 
    41.23     10.60   1451.05   2037.74     -0.01     10.69 
    41.24     10.59   1443.82   2028.15     -0.01     -9.31 
    41.25     10.59   1451.05   2038.29     -0.02      1.10 
    41.26     10.60   1443.82   2027.87     -0.01      0.82 
    41.27     10.60   1451.05   2037.74     -0.01      0.83 
    41.28     10.61   1443.82   2027.32     -0.01     -9.31 
    41.29     10.61   1443.82   2027.05     -0.00     -9.86 
    41.30     10.61   1451.05   2037.18      0.00     10.14 
    41.31     10.60   1443.82   2027.60     -0.01    -12.12 
    41.32     10.61   1452.85   2040.00      0.00      2.53 
    41.33     10.61   1443.82   2027.32      0.01     -0.55 
    41.34     10.60   1451.05   2037.74      0.01     -0.83 
    41.35     10.61   1443.82   2027.32      0.01    -13.23 
    41.36     10.61   1452.85   2040.00      0.01     12.12 
    41.37     10.60   1443.82   2027.60     -0.01     -9.59 
    41.38     10.61   1443.82   2027.32     -0.01     -9.31 
    41.39     10.61   1451.05   2037.18      0.00     10.14 
