#Written by Robertson Geologging WinLogger V1.5/410
~VERSION INFORMATION
#------------------------------------------------------------------------------
 VERS. 2.0 : CWLS LOG ASCII STANDARD - VERSION 2.0
 WRAP. NO  : ONE LINE PER DEPTH STEP
~WELL INFORMATION
#MNEM.UNIT         DATA                                DESCRIPTION OF MNEMONIC
#------------------------------------------------------------------------------
 STRT.M          6.2700                            :   START DEPTH
 STOP.M        256.6400                            :   STOP DEPTH
 STEP.M          0.0100                            :   STEP VALUE
 NULL.        -999.2500                            :   NULL VALUE
 COMP.    IWS                                      :   COMPANY NAME
 WELL.    MAINSFORTH                               :   WELL NAME
 FLD.     DURHAM                                   :   FIELD NAME
 LOC.     N/A                                      :   LOCATION
 PROV.    N/A                                      :   PROVINCE
 SRVC.    N/A                                      :   SERVICE COMPANY NAME
 DATE.    16 Dec 09                                :   DATE
 UWI.     N/A                                      :   UNIQUE WELL IDENTIFIER
~PARAMETER INFORMATION
#MNEMO.UNIT         VALUE                 DESCRIPTION OF MNEMONIC
#------------------------------------------------------------------------------
~OTHER INFORMATION SECTION
#------------------------------------------------------------------------------
 TCDS 1365
~CURVE INFORMATION
#MNEMO.UNIT         API CODE              CURVE DESCRIPTION
#------------------------------------------------------------------------------
 DEPTH.M                                 :   0     Depth
 TEMP.DegC                               :   1     Temperature
 COND.uS/cm                              :   2     Conductivity@25DegC
 COND.uS/cm                              :   3     Absolute Conductivity
 DELT.DegC                               :   4     Delta T
 DELC.uS/cm                              :   5     Delta C
#------------------------------------------------------------------------------
~A  DEPTH          TEMP          COND          COND          DELT          DELC
# ...
    23.27         10.58       1868.34       1329.67          0.02         -0.87
    23.28         10.58       1867.18       1328.83          0.01         -0.12
    23.29         10.58       1871.28       1331.76          0.01          4.14
    23.30         10.59       1868.29       1329.67          0.01          1.24
    23.31         10.59       1871.21       1331.76          0.01          4.23
    23.32         10.59       1867.07       1328.83          0.01          0.20
    23.33         10.59       1871.17       1331.76          0.01          0.27
    23.34         10.59       1866.50       1328.41          0.00         -0.16
    23.35         10.58       1866.55       1328.41          0.00         -4.17
    23.36         10.58       1866.55       1328.41          0.00         -0.09
    23.37         10.58       1866.59       1328.41          0.00         -0.11
    23.38         10.58       1870.69       1331.34          0.00          5.64
    23.39         10.58       1867.72       1329.25          0.01         -3.34
    23.40         10.59       1866.52       1328.41          0.01         -0.48
    23.41         10.58       1866.57       1328.41          0.01         -4.51
    23.42         10.58       1866.59       1328.41          0.01         -0.30
    23.43         10.58       1870.78       1331.34          0.00          4.01
    23.44         10.58       1866.75       1328.41         -0.00          0.09
    23.45         10.58       1868.52       1329.67         -0.00          1.88
    23.46         10.58       1867.39       1328.83         -0.00          0.82
    23.47         10.58       1871.51       1331.76         -0.01          5.03
    23.48         10.58       1868.50       1329.67         -0.01          2.11
    23.49         10.58       1868.50       1329.67         -0.01          2.18
    23.50         10.58       1866.68       1328.41         -0.01          0.37
    23.51         10.58       1867.82       1329.25         -0.01          1.45
    23.52         10.58       1867.77       1329.25         -0.00          1.29
    23.53         10.58       1868.90       1330.09          0.00          2.33
    23.54         10.59       1867.70       1329.25          0.00         -3.08
    23.55         10.59       1869.38       1330.50          0.01          2.62
    23.56         10.59       1867.54       1329.25          0.01          0.77
    23.57         10.59       1868.65       1330.09          0.01          1.85
    23.58         10.59       1864.50       1327.15          0.01         -2.34
    23.59         10.59       1867.52       1329.25          0.01         -0.60
    23.60         10.59       1867.56       1329.25          0.01         -3.61
    23.61         10.59       1869.40       1330.50          0.01          2.33
    23.62         10.59       1865.32       1327.57          0.01         -1.71
    23.63         10.59       1868.24       1329.67          0.01          1.35
    23.64         10.59       1868.24       1329.67          0.00          1.51
    23.65         10.59       1865.21       1327.57          0.00         -0.23
    23.66         10.59       1867.56       1329.25          0.00         -1.90
    23.67         10.59       1869.33       1330.50          0.00         -0.14
    23.68         10.59       1868.11       1329.67          0.00          2.74
    23.69         10.59       1868.08       1329.67          0.00         -0.25
    23.70         10.59       1869.17       1330.50          0.01          0.81
    23.71         10.59       1865.00       1327.57          0.01         -0.32
    23.72         10.59       1867.90       1329.67          0.01         -0.32
    23.73         10.59       1867.92       1329.67          0.01         -0.30
    23.74         10.59       1869.17       1330.50          0.00          0.99
    23.75         10.59       1865.12       1327.57          0.00         -6.05
    23.76         10.59       1868.17       1329.67          0.00         -0.07
    23.77         10.59       1868.22       1329.67          0.00         -0.05
    23.78         10.58       1868.31       1329.67         -0.00          1.79
    23.79         10.58       1869.56       1330.50         -0.00         -1.09
    23.80         10.58       1867.84       1329.25         -0.00          0.16
    23.81         10.58       1867.88       1329.25         -0.00          1.41
    23.82         10.58       1867.84       1329.25         -0.00          1.34
    23.83         10.58       1868.95       1330.09         -0.00          1.27
    23.84         10.59       1867.11       1328.83         -0.00         -3.51
    23.85         10.59       1867.04       1328.83          0.00          0.50
    23.86         10.59       1866.97       1328.83          0.00          0.41
    23.87         10.59       1866.88       1328.83          0.01          0.27
    23.88         10.59       1866.81       1328.83          0.01          0.13
    23.89         10.59       1866.68       1328.83          0.01         -4.79
    23.90         10.60       1865.38       1327.99          0.02         -1.98
    23.91         10.60       1867.10       1329.25          0.02         -4.43
    23.92         10.60       1867.04       1329.25          0.02          0.21
    23.93         10.60       1867.06       1329.25          0.02         -3.86
    23.94         10.60       1867.13       1329.25          0.02          0.31
    23.95         10.60       1871.81       1332.60          0.02          4.99
    23.96         10.60       1867.74       1329.67          0.02          0.87
    23.97         10.60       1867.76       1329.67          0.02         -0.31
    23.98         10.60       1868.94       1330.50          0.02         -2.12
    23.99         10.59       1867.81       1329.67          0.02          0.87
    24.00         10.59       1867.85       1329.67          0.02          0.96
    24.01         10.59       1867.88       1329.67          0.02          0.96
    24.02         10.59       1867.92       1329.67          0.01          1.06
    24.03         10.59       1868.01       1329.67          0.01         -0.62
    24.04         10.59       1868.06       1329.67          0.01          0.60
    24.05         10.59       1866.95       1328.83          0.01         -3.43
    24.06         10.59       1868.22       1329.67          0.01          0.81
    24.07         10.59       1868.24       1329.67          0.01         -3.27
    24.08         10.59       1871.21       1331.76          0.00          0.95
    24.09         10.58       1867.13       1328.83          0.00         -0.11
    24.10         10.58       1868.31       1329.67          0.00          1.06
    24.11         10.58       1871.30       1331.76          0.00          4.05
    24.12         10.58       1868.40       1329.67          0.00         -2.99
    24.13         10.58       1871.35       1331.76          0.00          4.08
    24.14         10.58       1867.23       1328.83          0.00         -2.97
    24.15         10.58       1871.33       1331.76          0.00          4.10
    24.16         10.58       1868.36       1329.67          0.00         -0.02
    24.17         10.58       1867.18       1328.83          0.00         -1.22
    24.18         10.58       1867.18       1328.83          0.00         -0.05
    24.19         10.58       1868.38       1329.67          0.00          4.08
    24.20         10.58       1871.35       1331.76          0.00          2.92
    24.21         10.58       1867.25       1328.83         -0.00         -1.15
    24.22         10.58       1868.40       1329.67         -0.00          0.02
    24.23         10.58       1868.38       1329.67         -0.00          0.07
    24.24         10.58       1868.36       1329.67         -0.00          0.02
    24.25         10.58       1868.34       1329.67         -0.00          0.02
    24.26         10.58       1867.18       1328.83         -0.00         -1.15
