#Written by Robertson Geologging WinLogger V1.5/410
~VERSION INFORMATION
#------------------------------------------------------------------------------
 VERS. 2.0 : CWLS LOG ASCII STANDARD - VERSION 2.0
 WRAP. NO  : ONE LINE PER DEPTH STEP
~WELL INFORMATION
#MNEM.UNIT         DATA                                DESCRIPTION OF MNEMONIC
#------------------------------------------------------------------------------
 STRT.M          6.2700                            :   START DEPTH
 STOP.M        256.6400                            :   STOP DEPTH
 STEP.M          0.0100                            :   STEP VALUE
 NULL.        -999.2500                            :   NULL VALUE
 COMP.    IWS                                      :   COMPANY NAME
 WELL.    MAINSFORTH                               :   WELL NAME
 FLD.     DURHAM                                   :   FIELD NAME
 LOC.     N/A                                      :   LOCATION
 PROV.    N/A                                      :   PROVINCE
 SRVC.    N/A                                      :   SERVICE COMPANY NAME
 DATE.    16 Dec 09                                :   DATE
 UWI.     N/A                                      :   UNIQUE WELL IDENTIFIER
~PARAMETER INFORMATION
#MNEMO.UNIT         VALUE                 DESCRIPTION OF MNEMONIC
#------------------------------------------------------------------------------
~OTHER INFORMATION SECTION
#------------------------------------------------------------------------------
 TCDS 1365
~CURVE INFORMATION
#MNEMO.UNIT         API CODE              CURVE DESCRIPTION
#------------------------------------------------------------------------------
 DEPTH.M                                 :   0     Depth
 TEMP.DegC                               :   1     Temperature
 COND.uS/cm                              :   2     Conductivity@25DegC
 COND.uS/cm                              :   3     Absolute Conductivity
 DELT.DegC                               :   4     Delta T
 DELC.uS/cm                              :   5     Delta C
#------------------------------------------------------------------------------
~A  DEPTH          TEMP          COND          COND          DELT          DELC
# ...
   205.27         12.65       3631.03       2734.20          0.02          7.46
   205.28         12.65       3631.93       2735.04          0.02          8.36
   205.29         12.65       3630.69       2734.20          0.02          7.20
   205.30         12.66       3631.12       2734.62          0.02          7.72
   205.31         12.66       3629.97       2733.78          0.02          6.56
   205.32         12.66       3629.88       2733.78          0.02          6.52
   205.33         12.66       3629.84       2733.78          0.02          6.43
   205.34         12.66       3629.84       2733.78          0.02          6.35
   205.35         12.66       3633.74       2736.72          0.02         10.17
   205.36         12.66       3629.37       2733.36          0.02          5.75
   205.37         12.65       3629.49       2733.36          0.02          8.67
   205.38         12.65       3629.62       2733.36          0.02          5.57
   205.39         12.65       3629.70       2733.36          0.01          4.71
   205.40         12.65       3634.85       2737.14          0.01         10.93
   205.41         12.65       3629.91       2733.36          0.01          5.95
   205.42         12.65       3631.03       2734.20          0.01          7.07
   205.43         12.65       3630.04       2733.36          0.01          6.03
   205.44         12.65       3635.02       2737.14          0.01         13.72
   205.45         12.65       3634.93       2737.14          0.01         10.29
   205.46         12.65       3629.83       2733.36          0.02          7.93
   205.47         12.65       3630.78       2734.20          0.02          5.53
   205.48         12.65       3633.96       2736.72          0.02          4.84
   205.49         12.66       3634.82       2737.56          0.02         10.04
   205.50         12.66       3634.56       2737.56          0.03          9.71
   205.51         12.66       3629.42       2733.78          0.03          4.52
   205.52         12.66       3630.45       2734.62          0.03          5.51
   205.53         12.66       3633.84       2737.14          0.03          8.90
   205.54         12.66       3634.95       2737.98          0.03         10.05
   205.55         12.66       3631.05       2735.04          0.03          3.48
   205.56         12.66       3629.98       2734.20          0.03          5.84
   205.57         12.66       3635.00       2737.98          0.02          8.20
   205.58         12.66       3633.92       2737.14          0.02         10.52
   205.59         12.66       3630.53       2734.62          0.02          8.20
   205.60         12.66       3630.53       2734.62          0.02          7.09
   205.61         12.66       3633.84       2737.14          0.03         11.46
   205.62         12.66       3634.87       2737.98          0.03         11.46
   205.63         12.66       3633.54       2737.14          0.03         11.38
   205.64         12.67       3629.90       2734.62          0.03          6.79
   205.65         12.67       3632.99       2737.14          0.03         11.13
   205.66         12.67       3632.74       2737.14          0.03          9.80
   205.67         12.68       3632.57       2737.14          0.03         10.79
   205.68         12.68       3632.45       2737.14          0.03          9.59
   205.69         12.68       3632.49       2737.14          0.03         10.83
   205.70         12.68       3632.57       2737.14          0.03          9.88
   205.71         12.67       3636.05       2739.67          0.03         14.47
   205.72         12.67       3632.83       2737.14          0.03         11.25
   205.73         12.67       3631.67       2736.30          0.03          9.97
   205.74         12.67       3632.87       2737.14          0.03         11.08
   205.75         12.67       3636.34       2739.67          0.03         14.43
   205.76         12.67       3633.12       2737.14          0.03         11.08
   205.77         12.67       3636.64       2739.67          0.03         14.52
   205.78         12.67       3636.72       2739.67          0.03         10.01
   205.79         12.67       3632.90       2736.72          0.03          9.97
   205.80         12.67       3637.24       2740.09          0.03         13.02
   205.81         12.67       3637.15       2740.09          0.03         13.93
   205.82         12.67       3633.72       2737.56          0.04          9.42
   205.83         12.67       3636.98       2740.09          0.04         11.57
   205.84         12.67       3636.98       2740.09          0.04         12.68
   205.85         12.67       3636.94       2740.09          0.04         11.44
   205.86         12.67       3636.77       2740.09          0.04         12.22
   205.87         12.67       3636.60       2740.09          0.04         10.81
   205.88         12.67       3632.10       2736.72          0.05          7.29
   205.89         12.67       3637.16       2740.51          0.05         15.62
   205.90         12.67       3636.13       2739.67          0.05         10.68
   205.91         12.67       3632.95       2737.14          0.04          8.71
   205.92         12.67       3636.34       2739.67          0.04         11.15
   205.93         12.67       3636.30       2739.67          0.04          7.80
   205.94         12.67       3631.80       2736.30          0.04          3.42
   205.95         12.67       3636.86       2740.09          0.04          8.65
   205.96         12.67       3635.83       2739.25          0.04          7.74
   205.97         12.67       3632.69       2736.72          0.03          4.90
   205.98         12.66       3636.33       2739.25          0.02          8.76
   205.99         12.66       3637.53       2740.09          0.02         10.25
   206.00         12.66       3633.59       2737.14          0.02          2.61
   206.01         12.67       3637.88       2740.51          0.02          8.10
   206.02         12.67       3637.71       2740.51          0.02          6.90
   206.03         12.67       3634.32       2737.98          0.02          4.46
   206.04         12.67       3637.75       2740.51          0.02         11.20
   206.05         12.67       3639.04       2741.35          0.02          9.09
   206.06         12.67       3638.48       2740.93          0.02          8.49
   206.07         12.67       3639.55       2741.77          0.02          9.65
   206.08         12.67       3639.38       2741.77          0.02          9.48
   206.09         12.67       3639.13       2741.77          0.02          9.35
   206.10         12.67       3639.04       2741.77          0.03          4.80
   206.11         12.67       3637.93       2740.93          0.03          7.55
   206.12         12.67       3638.01       2740.93          0.02          7.68
   206.13         12.67       3638.06       2740.93          0.03          4.25
   206.14         12.67       3641.32       2743.45          0.03          6.43
   206.15         12.67       3637.76       2740.93          0.03          2.88
   206.16         12.68       3636.39       2740.09          0.03          5.89
   206.17         12.68       3636.74       2740.51          0.03          5.16
   206.18         12.68       3635.41       2739.67          0.04          0.40
   206.19         12.68       3635.37       2739.67          0.04         -0.80
   206.20         12.68       3635.37       2739.67          0.04         -0.84
   206.21         12.68       3635.33       2739.67          0.04          3.50
   206.22         12.68       3639.79       2743.03          0.04          8.04
   206.23         12.68       3636.40       2740.51          0.04          3.58
   206.24         12.68       3635.24       2739.67          0.04          2.64
   206.25         12.68       3635.33       2739.67          0.03          2.97
   206.26         12.68       3635.50       2739.67          0.03          4.47
