#Written by Robertson Geologging WinLogger V1.0/406
~VERSION INFORMATION
#------------------------------------------------------------------------------
 VERS. 2.0 : CWLS LOG ASCII STANDARD - VERSION 2.0
 WRAP. NO  : ONE LINE PER DEPTH STEP
~WELL INFORMATION
#MNEM.UNIT         DATA                                DESCRIPTION OF MNEMONIC
#------------------------------------------------------------------------------
 STRT.M          7.0800                            :   START DEPTH
 STOP.M        258.0000                            :   STOP DEPTH
 STEP.M          0.0100                            :   STEP VALUE
 NULL.        -999.2500                            :   NULL VALUE
 COMP.    Coal Authority                           :   COMPANY NAME
 WELL.    Mainsforth Shaft                         :   WELL NAME
 FLD.     Mainsforth                               :   FIELD NAME
 LOC.     N/A                                      :   LOCATION
 PROV.    N/A                                      :   PROVINCE
 SRVC.    N/A                                      :   SERVICE COMPANY NAME
 DATE.    20 May 08                                :   DATE
 UWI.     N/A                                      :   UNIQUE WELL IDENTIFIER
~PARAMETER INFORMATION
#MNEMO.UNIT         VALUE                 DESCRIPTION OF MNEMONIC
#------------------------------------------------------------------------------
~OTHER INFORMATION SECTION
#------------------------------------------------------------------------------
 TCDS 1365
~CURVE INFORMATION
#MNEMO.UNIT         API CODE              CURVE DESCRIPTION
#------------------------------------------------------------------------------
 DEPTH.M                                 :   0     Depth
 TEMP.DegC                               :   1     Temperature
 COND.uS/cm                              :   2     Absolute Conductivity
 COND.uS/cm                              :   3     Conductivity@25DegC
 DELT.DegC                               :   4     Delta T
 DELC.uS/cm                              :   5     Delta C
#------------------------------------------------------------------------------
~A  DEPTH     TEMP      COND      COND      DELT      DELC      
     7.08     11.72    357.76    487.09      0.00      0.00 
     7.09     11.72    358.65    488.30      0.00      0.00 
     7.10     11.71    357.76    487.21      0.00      0.00 
     7.11     11.72    357.76    487.15      0.00      0.00 
     7.12     11.72    358.65    488.37      0.00      0.00 
     7.13     11.71    357.76    487.21      0.00      0.00 
     7.14     11.72    357.76    487.15      0.00      0.00 
     7.15     11.71    358.65    488.43      0.00      0.00 
     7.16     11.71    357.76    487.28      0.00      0.00 
     7.17     11.72    357.76    487.15      0.00      0.00 
     7.18     11.72    358.65    488.37      0.00      0.00 
     7.19     11.72    357.76    487.09      0.00      0.00 
     7.20     11.72    357.76    487.15      0.00      0.00 
     7.21     11.72    357.76    487.15      0.00      0.00 
     7.22     11.72    358.65    488.37      0.00      0.00 
     7.23     11.71    357.76    487.21      0.00      0.00 
     7.24     11.73    357.76    487.02      0.00      0.00 
     7.25     11.74    352.39    479.53      0.00      0.00 
     7.26     11.74    357.76    486.83      0.00      0.00 
     7.27     11.74    357.76    486.83      0.00      0.00 
     7.28     11.74    357.76    486.89      0.00      0.00 
     7.29     11.73    358.65    488.24      0.00      0.00 
     7.30     11.73    357.76    487.02      0.00      0.00 
     7.31     11.73    357.76    487.02      0.00      0.00 
     7.32     11.72    357.76    487.09      0.00      0.00 
     7.33     11.71    358.65    488.43      0.00      0.00 
     7.34     11.72    357.76    487.15      0.00      0.00 
     7.35     11.73    357.76    487.02      0.00      0.00 
     7.36     11.73    358.65    488.24      0.00      0.00 
     7.37     11.73    357.76    487.02      0.00      0.00 
     7.38     11.72    357.76    487.09      0.00      0.00 
     7.39     11.71    358.65    488.43      0.00      0.00 
     7.40     11.71    357.76    487.21      0.00      0.00 
     7.41     11.71    358.65    488.43      0.00      0.00 
     7.42     11.72    357.76    487.09      0.00      0.00 
     7.43     11.72    357.76    487.09      0.00      0.00 
     7.44     11.73    352.39    479.72      0.00      0.00 
     7.45     11.73    357.76    486.96      0.00      0.00 
     7.46     11.73    358.65    488.17      0.00      0.00 
     7.47     11.73    357.76    487.02      0.00      0.00 
     7.48     11.73    357.76    487.02      0.00      0.00 
     7.49     11.72    358.65    488.30      0.00      0.00 
     7.50     11.72    357.76    487.15      0.00      0.00 
     7.51     11.72    358.65    488.37      0.00      0.00 
     7.52     11.72    357.76    487.15      0.00      0.00 
     7.53     11.71    358.65    488.43      0.00      0.00 
     7.54     11.71    357.76    487.28      0.00      0.00 
     7.55     11.72    357.76    487.15      0.00      0.00 
     7.56     11.72    397.10    540.73      0.00      0.00 
     7.57     11.72    589.55    802.68      0.00      0.00 
     7.58     11.72    659.45    897.85      0.00      0.00 
     7.59     11.71    768.87   1047.10      0.00      0.00 
     7.60     11.73    877.50   1194.56      0.00      0.00 
     7.61     11.73    910.73   1239.64      0.00      0.00 
     7.62     11.74    910.73   1239.48      0.00      0.00 
     7.63     11.75    909.83   1237.93      0.00      0.00 
     7.64     11.74    910.73   1239.48      0.00      0.00 
     7.65     11.73    910.73   1239.80      0.00      0.00 
     7.66     11.70    909.83   1239.39      0.00      0.00 
     7.67     11.66    910.73   1242.09      0.00      0.00 
     7.68     11.61    910.73   1243.73      0.00      0.00 
     7.69     11.56    916.12   1252.90      0.00      0.00 
     7.70     11.52    910.73   1247.01      0.00      0.00 
     7.71     11.46    910.73   1248.83      0.00      0.00 
     7.72     11.42    909.83   1249.25      0.00      0.00 
     7.73     11.37    917.92   1262.03      0.00      0.00 
     7.74     11.31    909.83   1252.90      0.00      0.00 
     7.75     11.26    910.73   1255.81      0.00      0.00 
     7.76     11.21    910.73   1257.48      0.00      0.00 
     7.77     11.17    916.12   1266.45      0.00      0.00 
     7.78     11.14    910.73   1260.00      0.00      0.00 
     7.79     11.11    916.12   1268.65      0.00      0.00 
     7.80     11.08    910.73   1262.19      0.00      0.00 
     7.81     11.05    910.73   1263.04      0.00      0.00 
     7.82     11.01    916.12   1271.88      0.00      0.00 
     7.83     10.98    910.73   1265.58     -0.73    777.09 
     7.84     10.96    917.92   1276.42     -0.77    788.12 
     7.85     10.92    916.12   1275.30     -0.81    787.06 
     7.86     10.90    910.73   1268.47     -0.83    781.39 
     7.87     10.88    917.92   1279.17     -0.83    799.26 
     7.88     10.85    910.73   1270.18     -0.85    781.62 
     7.89     10.83    916.12   1278.56     -0.87    789.94 
     7.90     10.80    917.92   1281.93     -0.90    794.53 
     7.91     10.77    916.12   1280.46     -0.94    793.18 
     7.92     10.74    917.92   1284.01     -0.97    795.51 
     7.93     10.73    910.73   1274.47     -0.99    787.32 
     7.94     10.71    922.41   1291.69     -1.02    804.60 
     7.95     10.69    910.73   1276.02     -1.04    787.72 
     7.96     10.68    917.92   1286.44     -1.05    799.42 
     7.97     10.65    917.92   1287.49     -1.09    800.53 
     7.98     10.63    916.12   1285.49     -1.10    797.25 
     7.99     10.61    917.92   1288.71     -1.11    801.69 
     8.00     10.59    916.12   1287.06     -1.14    798.82 
     8.01     10.58    917.92   1289.93     -1.14    802.78 
     8.02     10.57    926.01   1301.82     -1.15    814.67 
     8.03     10.56    916.12   1288.10     -1.15    808.20 
     8.04     10.56    917.92   1290.63     -1.15    803.35 
     8.05     10.56    917.92   1290.81     -1.16    802.44 
     8.06     10.56    916.12   1288.28     -1.16    801.13 
     8.07     10.55    926.01   1302.53     -1.18    815.45 
     8.08     10.54    917.92   1291.51     -1.19    803.20 
     8.09     10.53    916.12   1289.33     -1.19    802.12 
     8.10     10.53    917.92   1291.86     -1.19    804.71 
     8.11     10.52    917.92   1292.21     -1.20    803.84 
     8.12     10.51    926.01   1303.95     -1.21    816.73 
     8.13     10.50    916.12   1290.21     -1.22    803.06 
     8.14     10.50    917.92   1292.91     -1.22    804.48 
     8.15     10.49    926.01   1304.48     -1.22    817.20 
     8.16     10.49    917.92   1293.26     -1.23    806.11 
     8.17     10.48    916.12   1290.91     -1.24    802.54 
     8.18     10.47    917.92   1293.97     -1.25    806.88 
     8.19     10.47    917.92   1293.97     -1.25    806.82 
     8.20     10.46    922.41   1300.65     -1.26    813.50 
     8.21     10.45    917.92   1294.50     -1.26    806.13 
     8.22     10.45    917.92   1294.67     -1.26    807.46 
     8.23     10.45    917.92   1294.85     -1.28    807.83 
     8.24     10.44    922.41   1301.36     -1.30    821.83 
     8.25     10.43    917.92   1295.55     -1.32    808.72 
     8.26     10.42    922.41   1302.25     -1.33    815.42 
     8.27     10.41    917.92   1296.26     -1.33    809.37 
     8.28     10.40    917.92   1296.44     -1.33    808.20 
     8.29     10.40    922.41   1302.78     -1.33    815.76 
     8.30     10.39    917.92   1296.79     -1.34    809.77 
     8.31     10.40    917.92   1296.61     -1.33    809.53 
     8.32     10.40    922.41   1302.96     -1.32    814.53 
     8.33     10.40    917.92   1296.61     -1.32    809.46 
     8.34     10.40    917.92   1296.61     -1.33    809.59 
     8.35     10.40    917.92   1296.61     -1.33    808.38 
     8.36     10.39    922.41   1303.14     -1.34    816.12 
     8.37     10.40    917.92   1296.61     -1.33    809.53 
     8.38     10.39    917.92   1296.97     -1.33    808.54 
     8.39     10.37    916.12   1295.14     -1.35    807.92 
