#Written by Robertson Geologging WinLogger V1.5/410
~VERSION INFORMATION
#------------------------------------------------------------------------------
 VERS. 2.0 : CWLS LOG ASCII STANDARD - VERSION 2.0
 WRAP. NO  : ONE LINE PER DEPTH STEP
~WELL INFORMATION
#MNEM.UNIT         DATA                                DESCRIPTION OF MNEMONIC
#------------------------------------------------------------------------------
 STRT.M          6.2700                            :   START DEPTH
 STOP.M        256.6400                            :   STOP DEPTH
 STEP.M          0.0100                            :   STEP VALUE
 NULL.        -999.2500                            :   NULL VALUE
 COMP.    IWS                                      :   COMPANY NAME
 WELL.    MAINSFORTH                               :   WELL NAME
 FLD.     DURHAM                                   :   FIELD NAME
 LOC.     N/A                                      :   LOCATION
 PROV.    N/A                                      :   PROVINCE
 SRVC.    N/A                                      :   SERVICE COMPANY NAME
 DATE.    16 Dec 09                                :   DATE
 UWI.     N/A                                      :   UNIQUE WELL IDENTIFIER
~PARAMETER INFORMATION
#MNEMO.UNIT         VALUE                 DESCRIPTION OF MNEMONIC
#------------------------------------------------------------------------------
~OTHER INFORMATION SECTION
#------------------------------------------------------------------------------
 TCDS 1365
~CURVE INFORMATION
#MNEMO.UNIT         API CODE              CURVE DESCRIPTION
#------------------------------------------------------------------------------
 DEPTH.M                                 :   0     Depth
 TEMP.DegC                               :   1     Temperature
 COND.uS/cm                              :   2     Conductivity@25DegC
 COND.uS/cm                              :   3     Absolute Conductivity
 DELT.DegC                               :   4     Delta T
 DELC.uS/cm                              :   5     Delta C
#------------------------------------------------------------------------------
~A  DEPTH          TEMP          COND          COND          DELT          DELC
# ...
   106.27         11.39       2499.13       1819.00          0.01          1.71
   106.28         11.39       2499.07       1819.00          0.01         -2.48
   106.29         11.39       2499.01       1819.00          0.01         -2.60
   106.30         11.40       2502.95       1821.94          0.01          5.99
   106.31         11.40       2498.83       1819.00          0.01         -2.08
   106.32         11.40       2498.71       1819.00          0.01         -2.02
   106.33         11.40       2502.71       1821.94          0.01          2.16
   106.34         11.40       2498.74       1819.00          0.01         -1.66
   106.35         11.40       2498.83       1819.00          0.00         -1.45
   106.36         11.40       2502.98       1821.94          0.00          2.82
   106.37         11.39       2499.07       1819.00         -0.00         -1.06
   106.38         11.39       2500.31       1819.84         -0.00         -0.88
   106.39         11.39       2500.37       1819.84         -0.01          3.30
   106.40         11.39       2500.40       1819.84         -0.01         -0.64
   106.41         11.39       2496.42       1816.90         -0.01         -4.56
   106.42         11.39       2500.52       1819.84         -0.01          3.57
   106.43         11.39       2501.79       1820.68         -0.01          0.78
   106.44         11.39       2497.82       1817.74         -0.01          0.78
   106.45         11.39       2501.82       1820.68         -0.01          0.72
   106.46         11.39       2501.73       1820.68         -0.01          0.63
   106.47         11.39       2497.55       1817.74         -0.01          0.48
   106.48         11.39       2501.46       1820.68         -0.01          0.48
   106.49         11.39       2501.31       1820.68         -0.00          1.48
   106.50         11.40       2497.22       1817.74         -0.00         -3.76
   106.51         11.40       2501.25       1820.68         -0.00          4.27
   106.52         11.40       2501.22       1820.68         -0.00          0.06
   106.53         11.40       2498.37       1818.58          0.00         -2.88
   106.54         11.40       2501.25       1820.68          0.00         -0.15
   106.55         11.40       2501.19       1820.68          0.00         -0.30
   106.56         11.40       2497.10       1817.74          0.01         -0.36
   106.57         11.40       2501.13       1820.68          0.00         -0.27
   106.58         11.40       2501.16       1820.68          0.00         -0.15
   106.59         11.40       2497.22       1817.74         -0.00          0.03
   106.60         11.39       2501.43       1820.68         -0.01          0.42
   106.61         11.39       2502.70       1821.52         -0.01          3.03
   106.62         11.39       2498.76       1818.58         -0.01         -0.71
   106.63         11.39       2502.88       1821.52         -0.02          3.63
   106.64         11.39       2501.73       1820.68         -0.02          2.53
   106.65         11.39       2497.70       1817.74         -0.02          2.62
   106.66         11.39       2501.79       1820.68         -0.02          2.80
   106.67         11.39       2501.91       1820.68         -0.02          2.86
   106.68         11.38       2498.00       1817.74         -0.02         -1.20
   106.69         11.38       2502.12       1820.68         -0.02          2.80
   106.70         11.38       2502.06       1820.68         -0.02          2.50
   106.71         11.39       2497.85       1817.74         -0.01         -1.92
   106.72         11.39       2500.58       1819.84         -0.01          0.63
   106.73         11.39       2500.43       1819.84         -0.00          0.27
   106.74         11.39       2496.27       1816.90         -0.00         -4.00
   106.75         11.39       2500.19       1819.84          0.00         -0.12
   106.76         11.40       2500.01       1819.84          0.01         -0.39
   106.77         11.40       2499.83       1819.84          0.01         -0.72
   106.78         11.40       2499.65       1819.84          0.01         -0.96
   106.79         11.41       2499.41       1819.84          0.02          2.77
   106.80         11.41       2499.23       1819.84          0.02         -1.47
   106.81         11.41       2499.23       1819.84          0.02         -1.38
   106.82         11.41       2500.44       1820.68          0.02         -0.14
   106.83         11.41       2499.95       1820.26          0.02         -0.59
   106.84         11.40       2500.07       1820.26          0.01         -0.41
   106.85         11.40       2501.23       1821.10          0.01          0.77
   106.86         11.40       2501.29       1821.10          0.01          0.83
   106.87         11.40       2501.35       1821.10          0.01          0.92
   106.88         11.40       2497.34       1818.16          0.01         -3.09
   106.89         11.40       2501.50       1821.10          0.01          1.04
   106.90         11.40       2501.62       1821.10          0.01          1.19
   106.91         11.40       2497.70       1818.16          0.01         -2.73
   106.92         11.40       2501.71       1821.10          0.01          1.28
   106.93         11.40       2499.25       1819.42          0.01          2.86
   106.94         11.40       2499.65       1819.84          0.01         -0.78
   106.95         11.41       2499.41       1819.84          0.01         -1.02
   106.96         11.41       2498.17       1819.00          0.02         -2.26
   106.97         11.41       2498.11       1819.00          0.02         -2.29
   106.98         11.41       2498.14       1819.00          0.02         -2.23
   106.99         11.41       2498.23       1819.00          0.01         -2.05
   107.00         11.41       2498.20       1819.00          0.01         -2.02
   107.01         11.41       2498.20       1819.00          0.01         -2.02
   107.02         11.41       2498.17       1819.00          0.01         -2.08
   107.03         11.41       2498.23       1819.00          0.01         -2.11
   107.04         11.40       2499.59       1819.84          0.01         -0.78
   107.05         11.40       2499.77       1819.84          0.01         -0.54
   107.06         11.40       2499.98       1819.84          0.00         -0.24
   107.07         11.40       2500.10       1819.84         -0.00          4.06
   107.08         11.39       2500.19       1819.84         -0.00          0.30
   107.09         11.39       2500.28       1819.84         -0.01          0.54
   107.10         11.39       2500.31       1819.84         -0.01          4.69
   107.11         11.39       2500.37       1819.84         -0.01          0.81
   107.12         11.39       2500.43       1819.84         -0.01          0.93
   107.13         11.39       2500.49       1819.84         -0.01          1.02
   107.14         11.39       2500.55       1819.84         -0.02          1.14
   107.15         11.39       2500.55       1819.84         -0.02          1.11
   107.16         11.39       2500.55       1819.84         -0.01          1.02
   107.17         11.39       2500.49       1819.84         -0.01          0.84
   107.18         11.39       2500.49       1819.84         -0.01          0.63
   107.19         11.39       2500.52       1819.84         -0.01          0.42
   107.20         11.39       2500.55       1819.84         -0.00          0.27
   107.21         11.39       2500.64       1819.84         -0.00          0.24
   107.22         11.39       2500.70       1819.84         -0.00          0.27
   107.23         11.39       2500.76       1819.84         -0.00          0.33
   107.24         11.38       2500.85       1819.84         -0.01          4.49
   107.25         11.38       2500.91       1819.84         -0.01          0.57
   107.26         11.38       2501.03       1819.84         -0.01          1.90
