#Written by Robertson Geologging WinLogger V1.5/410
~VERSION INFORMATION
#------------------------------------------------------------------------------
 VERS. 2.0 : CWLS LOG ASCII STANDARD - VERSION 2.0
 WRAP. NO  : ONE LINE PER DEPTH STEP
~WELL INFORMATION
#MNEM.UNIT         DATA                                DESCRIPTION OF MNEMONIC
#------------------------------------------------------------------------------
 STRT.M          6.2700                            :   START DEPTH
 STOP.M        256.6400                            :   STOP DEPTH
 STEP.M          0.0100                            :   STEP VALUE
 NULL.        -999.2500                            :   NULL VALUE
 COMP.    IWS                                      :   COMPANY NAME
 WELL.    MAINSFORTH                               :   WELL NAME
 FLD.     DURHAM                                   :   FIELD NAME
 LOC.     N/A                                      :   LOCATION
 PROV.    N/A                                      :   PROVINCE
 SRVC.    N/A                                      :   SERVICE COMPANY NAME
 DATE.    16 Dec 09                                :   DATE
 UWI.     N/A                                      :   UNIQUE WELL IDENTIFIER
~PARAMETER INFORMATION
#MNEMO.UNIT         VALUE                 DESCRIPTION OF MNEMONIC
#------------------------------------------------------------------------------
~OTHER INFORMATION SECTION
#------------------------------------------------------------------------------
 TCDS 1365
~CURVE INFORMATION
#MNEMO.UNIT         API CODE              CURVE DESCRIPTION
#------------------------------------------------------------------------------
 DEPTH.M                                 :   0     Depth
 TEMP.DegC                               :   1     Temperature
 COND.uS/cm                              :   2     Conductivity@25DegC
 COND.uS/cm                              :   3     Absolute Conductivity
 DELT.DegC                               :   4     Delta T
 DELC.uS/cm                              :   5     Delta C
#------------------------------------------------------------------------------
~A  DEPTH          TEMP          COND          COND          DELT          DELC
# ...
   222.27         14.11       4636.61       3626.86          0.09         36.85
   222.28         14.11       4636.61       3626.86          0.08         33.90
   222.29         14.11       4634.03       3624.76          0.08         34.19
   222.30         14.11       4636.77       3626.86          0.07         40.09
   222.31         14.11       4638.33       3628.12          0.07         35.76
   222.32         14.11       4636.46       3626.86          0.07         36.89
   222.33         14.11       4633.56       3624.76          0.06         34.40
   222.34         14.12       4636.04       3626.86          0.06         32.40
   222.35         14.12       4637.55       3628.12          0.06         34.16
   222.36         14.12       4636.04       3626.86          0.06         31.50
   222.37         14.12       4633.41       3624.76          0.05         31.76
   222.38         14.11       4636.25       3626.86          0.05         33.25
   222.39         14.11       4637.92       3628.12          0.05         37.76
   222.40         14.11       4640.71       3630.23          0.05         38.50
   222.41         14.11       4638.07       3628.12          0.04         33.48
   222.42         14.11       4638.18       3628.12          0.04         35.56
   222.43         14.11       4638.38       3628.12          0.04         29.67
   222.44         14.11       4638.49       3628.12          0.03         29.98
   222.45         14.11       4638.69       3628.12          0.03         30.39
   222.46         14.11       4638.80       3628.12          0.03         28.50
   222.47         14.11       4643.15       3631.49          0.03         36.77
   222.48         14.11       4643.00       3631.49          0.02         32.03
   222.49         14.11       4640.05       3629.39          0.02         29.34
   222.50         14.11       4638.18       3628.12          0.03         27.67
   222.51         14.11       4638.89       3628.96          0.03         26.93
   222.52         14.12       4637.17       3627.70          0.03         23.16
   222.53         14.12       4637.02       3627.70          0.03         25.21
   222.54         14.12       4642.29       3631.91          0.03         32.15
   222.55         14.12       4640.57       3630.65          0.03         26.82
   222.56         14.12       4637.57       3628.54          0.03         23.92
   222.57         14.12       4640.11       3630.65          0.03         28.76
   222.58         14.12       4637.16       3628.54          0.03         23.66
   222.59         14.12       4639.85       3630.65          0.03         24.79
   222.60         14.12       4640.11       3630.65          0.03         26.66
   222.61         14.12       4640.31       3630.65          0.03         24.28
   222.62         14.12       4639.39       3629.81          0.02         20.98
   222.63         14.12       4641.01       3631.07          0.02         24.90
   222.64         14.12       4643.59       3633.17          0.02         23.98
   222.65         14.12       4639.62       3630.23          0.02         20.21
   222.66         14.12       4639.57       3630.23          0.02         24.03
   222.67         14.12       4643.39       3633.17          0.02         28.05
   222.68         14.12       4639.19       3629.81          0.01         20.30
   222.69         14.12       4642.13       3631.91          0.01         21.89
   222.70         14.12       4639.50       3629.81          0.01         21.12
   222.71         14.12       4642.08       3631.91          0.01         26.07
   222.72         14.12       4643.59       3633.17          0.01         21.17
   222.73         14.12       4643.59       3633.17          0.01         27.52
   222.74         14.12       4641.93       3631.91          0.01         23.60
   222.75         14.12       4639.39       3629.81          0.01         20.92
   222.76         14.12       4642.34       3631.91          0.01         22.10
   222.77         14.12       4644.01       3633.17          0.01         21.61
   222.78         14.12       4643.09       3632.33          0.01         19.07
   222.79         14.12       4644.75       3633.59          0.01         22.35
   222.80         14.11       4642.12       3631.49          0.01         19.56
   222.81         14.11       4644.91       3633.59          0.01         22.15
   222.82         14.11       4642.27       3631.49          0.01         15.54
   222.83         14.11       4644.96       3633.59          0.01         22.33
   222.84         14.11       4642.22       3631.49          0.01         15.77
   222.85         14.11       4646.63       3634.86          0.01         22.43
   222.86         14.11       4646.68       3634.86          0.01         19.84
   222.87         14.11       4646.73       3634.86          0.01         23.81
   222.88         14.11       4646.78       3634.86          0.01         19.72
   222.89         14.11       4644.09       3632.75          0.01         20.79
   222.90         14.11       4646.63       3634.86          0.01         19.08
   222.91         14.11       4646.47       3634.86          0.01         22.89
   222.92         14.11       4646.42       3634.86          0.01         18.59
   222.93         14.11       4646.42       3634.86          0.00         18.80
   222.94         14.11       4646.52       3634.86          0.00         19.16
   222.95         14.11       4646.47       3634.86          0.00         19.31
   222.96         14.12       4646.26       3634.86          0.00         15.49
   222.97         14.12       4645.95       3634.86          0.00         19.59
   222.98         14.12       4642.90       3632.75          0.01         12.77
   222.99         14.12       4645.43       3634.86          0.01         19.61
   223.00         14.12       4645.22       3634.86          0.01         15.84
   223.01         14.12       4645.22       3634.86          0.01         18.69
   223.02         14.12       4645.22       3634.86          0.00         16.69
   223.03         14.13       4646.25       3635.70          0.00         20.61
   223.04         14.13       4644.53       3634.43          0.00         20.61
   223.05         14.13       4645.50       3635.28          0.00         20.07
   223.06         14.13       4643.99       3634.01          0.00         15.93
   223.07         14.12       4645.23       3634.86          0.00         17.11
   223.08         14.12       4643.87       3633.59          0.00         15.60
   223.09         14.12       4647.90       3636.54         -0.00         19.57
   223.10         14.12       4643.70       3633.17         -0.00         15.16
   223.11         14.12       4647.62       3636.12         -0.00         18.88
   223.12         14.12       4643.42       3632.75          0.00         11.83
   223.13         14.12       4647.18       3635.70          0.00         13.83
   223.14         14.12       4643.47       3632.75          0.00         11.57
   223.15         14.12       4647.83       3636.12          0.00         14.21
   223.16         14.12       4644.06       3633.17          0.00         11.91
   223.17         14.12       4648.41       3636.54          0.00         16.16
   223.18         14.12       4644.70       3633.59          0.00         12.44
   223.19         14.12       4649.06       3636.96          0.00         16.80
   223.20         14.11       4645.39       3634.01          0.00         13.09
   223.21         14.11       4650.88       3638.22          0.00         14.26
   223.22         14.11       4645.50       3634.01          0.00          8.78
   223.23         14.11       4650.83       3638.22          0.00         18.36
   223.24         14.11       4645.34       3634.01          0.00         12.93
   223.25         14.12       4648.95       3636.96          0.01         12.24
   223.26         14.12       4644.55       3633.59          0.01          7.93
