#Written by Robertson Geologging WinLogger V1.0/406
~VERSION INFORMATION
#------------------------------------------------------------------------------
 VERS. 2.0 : CWLS LOG ASCII STANDARD - VERSION 2.0
 WRAP. NO  : ONE LINE PER DEPTH STEP
~WELL INFORMATION
#MNEM.UNIT         DATA                                DESCRIPTION OF MNEMONIC
#------------------------------------------------------------------------------
 STRT.M          7.6600                            :   START DEPTH
 STOP.M        258.0000                            :   STOP DEPTH
 STEP.M          0.0100                            :   STEP VALUE
 NULL.        -999.2500                            :   NULL VALUE
 COMP.    I.W.S.                                   :   COMPANY NAME
 WELL.    Mainsforth                               :   WELL NAME
 FLD.     Mainsforth                               :   FIELD NAME
 LOC.     N/A                                      :   LOCATION
 PROV.    N/A                                      :   PROVINCE
 SRVC.    N/A                                      :   SERVICE COMPANY NAME
 DATE.    21 Jul 09                                :   DATE
 UWI.     N/A                                      :   UNIQUE WELL IDENTIFIER
~PARAMETER INFORMATION
#MNEMO.UNIT         VALUE                 DESCRIPTION OF MNEMONIC
#------------------------------------------------------------------------------
~OTHER INFORMATION SECTION
#------------------------------------------------------------------------------
 TCGS 1365
~CURVE INFORMATION
#MNEMO.UNIT         API CODE              CURVE DESCRIPTION
#------------------------------------------------------------------------------
 DEPTH.M                                 :   0     Depth
 TEMP.DegC                               :   1     Temperature
 CN25.uS/cm                              :   2     Conductivity@25DegC
 DELT.DegC                               :   3     Delta T
 DELC.uS/cm                              :   4     Delta C
 NGAM.CPS                                :   5     Natural Gamma
 COND.uS/cm                              :   6     Conductivity
#------------------------------------------------------------------------------
~A  DEPTH     TEMP      CN25      DELT      DELC      NGAM      COND      
# ...
   240.44     14.15   4690.24      0.00      0.00      0.00   3668.93 
   240.45     14.15   4699.06      0.01     -1.75      0.00   3676.29 
   240.46     14.15   4689.66      0.02     -2.91      0.00   3668.93 
   240.47     14.14   4700.23      0.02      7.07      0.00   3676.29 
   240.48     14.14   4691.41      0.01    -10.57      0.00   3668.93 
   240.49     14.15   4699.64      0.01      8.82      0.00   3676.29 
   240.50     14.15   4689.07      0.00    -11.16      0.00   3668.01 
   240.51     14.16   4698.48      0.00      8.81      0.00   3676.29 
   240.52     14.16   4688.50      0.00     -9.40      0.00   3668.93 
   240.53     14.15   4699.64     -0.01     10.56      7.00   3676.29 
   240.54     14.16   4687.90      0.01    -11.74      8.00   3668.01 
   240.55     14.16   4689.08      0.00      0.59      0.00   3668.93 
   240.56     14.16   4689.08      0.01    -10.56      0.00   3668.93 
   240.57     14.17   4697.31      0.03      5.90      0.00   3676.29 
   240.58     14.16   4687.32      0.01     -2.92      0.00   3668.01 
   240.59     14.16   4697.89      0.01     -1.17      0.00   3676.29 
   240.60     14.16   4689.08      0.02     -2.33      0.00   3668.93 
   240.61     14.15   4699.06      0.01     -1.17      0.00   3676.29 
   240.62     14.15   4690.24      0.01     -1.75      0.00   3668.93 
   240.63     14.15   4699.64      0.01     -1.75      0.00   3676.29 
   240.64     14.15   4690.24      0.00     -0.58      0.00   3668.93 
   240.65     14.15   4699.64     -0.00      0.58      0.00   3676.29 
   240.66     14.14   4691.41     -0.02      2.33      0.00   3668.93 
   240.67     14.14   4700.81     -0.01      1.17      0.00   3676.29 
   240.68     14.13   4691.99     -0.02      3.51      0.00   3668.93 
   240.69     14.13   4701.40     -0.01     11.15      0.00   3676.29 
   240.70     14.13   4692.58     -0.02     -7.07      0.00   3668.93 
   240.71     14.13   4701.40     -0.00      9.99      0.00   3676.29 
   240.72     14.13   4691.99      0.00     -9.40      7.00   3668.93 
   240.73     14.13   4701.40      0.00      9.40      0.00   3676.29 
   240.74     14.14   4690.83      0.00     -9.40      0.00   3668.93 
   240.75     14.14   4700.81     -0.02     11.73      0.00   3676.29 
   240.76     14.15   4690.24     -0.01     -7.65      0.00   3668.93 
   240.77     14.15   4699.64     -0.01     11.15      0.00   3676.29 
   240.78     14.16   4689.08     -0.00     -8.81      0.00   3668.93 
   240.79     14.17   4697.31      0.02      7.06      0.00   3676.29 
   240.80     14.16   4688.50      0.02     -2.33      0.00   3668.93 
   240.81     14.15   4699.06      0.01     -1.17      0.00   3676.29 
   240.82     14.14   4690.83      0.00     -0.58      0.00   3668.93 
   240.83     14.15   4699.64      0.00      0.00      0.00   3676.29 
   240.84     14.16   4689.08      0.00      1.17      0.00   3668.93 
   240.85     14.16   4697.89      0.00      0.00      0.00   3676.29 
   240.86     14.17   4687.91      0.00     -0.58      0.00   3668.93 
   240.87     14.16   4698.48      0.00      0.00      0.00   3676.29 
   240.88     14.14   4690.83      0.00      0.00      0.00   3668.93 
   240.89     14.14   4700.81      0.00      0.00      0.00   3676.29 
   240.90     14.13   4691.99     -0.01      1.17      0.00   3668.93 
   240.91     14.14   4700.81     -0.00      9.98      0.00   3676.29 
   240.92     14.14   4690.83     -0.01     -8.23      0.00   3668.93 
   240.93     14.15   4699.64     -0.01     12.32      0.00   3676.29 
   240.94     14.16   4689.08     -0.00     -8.81      0.00   3668.93 
   240.95     14.15   4699.64     -0.03     12.89      0.00   3676.29 
   240.96     14.15   4689.66     -0.01     -7.65      0.00   3668.93 
   240.97     14.15   4699.06     -0.00     11.15      0.00   3676.29 
   240.98     14.16   4689.08      0.00     -9.98      0.00   3668.93 
   240.99     14.17   4697.31      0.02      6.48      0.00   3676.29 
   241.00     14.17   4687.91      0.03    -12.90      0.00   3668.93 
   241.01     14.17   4696.72      0.04      4.73      0.00   3676.29 
   241.02     14.16   4688.50      0.03     -4.08      0.00   3668.93 
   241.03     14.15   4699.06      0.02     -2.34      0.00   3676.29 
   241.04     14.15   4689.07      0.01     -2.34      0.00   3668.01 
   241.05     14.15   4699.64      0.00     -0.58      0.00   3676.29 
   241.06     14.14   4690.83     -0.01      1.17      0.00   3668.93 
   241.07     14.15   4699.64     -0.00      0.58      0.00   3676.29 
   241.08     14.15   4689.07      0.00     -1.17      8.00   3668.01 
   241.09     14.15   4699.64      0.00     -0.58      0.00   3676.29 
   241.10     14.15   4690.24      0.01     -1.75      0.00   3668.93 
   241.11     14.15   4699.06      0.03     -3.51      0.00   3676.29 
   241.12     14.15   4689.66      0.02     -2.33      0.00   3668.93 
   241.13     14.15   4699.06      0.02     -2.34      0.00   3676.29 
   241.14     14.16   4688.50      0.01     -0.57      7.00   3668.93 
   241.15     14.16   4698.48      0.00     -0.58      0.00   3676.29 
   241.16     14.15   4689.66     -0.00      0.58      0.00   3668.93 
   241.17     14.14   4700.23     -0.02      2.34      0.00   3676.29 
   241.18     14.14   4689.65     -0.00     -0.59      0.00   3668.01 
   241.19     14.14   4700.81     -0.01     10.57      7.00   3676.29 
   241.20     14.14   4691.41      0.00     -9.40      0.00   3668.93 
   241.21     14.14   4700.23      0.01      7.65      0.00   3676.29 
   241.22     14.15   4689.07      0.01    -11.74      8.00   3668.01 
   241.23     14.15   4699.06      0.01      9.41      0.00   3676.29 
   241.24     14.16   4689.08      0.00     -9.98      0.00   3668.93 
   241.25     14.15   4699.64     -0.01     11.15      0.00   3676.29 
   241.26     14.14   4690.83     -0.02     -7.06      0.00   3668.93 
   241.27     14.14   4700.81     -0.01     11.15      0.00   3676.29 
   241.28     14.14   4690.83      0.00     -9.98      0.00   3668.93 
   241.29     14.15   4699.64      0.01      7.65      0.00   3676.29 
   241.30     14.15   4689.66      0.01    -11.15      0.00   3668.93 
   241.31     14.14   4700.23      0.00     10.57      0.00   3676.29 
   241.32     14.14   4691.41     -0.01     -7.65      0.00   3668.93 
   241.33     14.14   4700.23     -0.01     11.15      0.00   3676.29 
   241.34     14.15   4699.64     -0.00      0.58      0.00   3676.29 
   241.35     14.15   4689.66      0.01     -1.17      0.00   3668.93 
   241.36     14.15   4699.06      0.01     -1.17      0.00   3676.29 
   241.37     14.15   4690.24      0.00      1.17      0.00   3668.93 
   241.38     14.15   4699.64     -0.01      1.17      0.00   3676.29 
   241.39     14.14   4690.83     -0.03      3.49      0.00   3668.93 
   241.40     14.16   4689.08     -0.01     -8.23      0.00   3668.93 
   241.41     14.16   4697.89      0.00      9.40      0.00   3676.29 
   241.42     14.16   4698.48      0.00     -0.58      0.00   3676.29 
   241.43     14.16   4689.08      0.01     -1.17      0.00   3668.93 
   241.44     14.15   4699.64     -0.00      0.58      0.00   3676.29 
   241.45     14.14   4690.83     -0.01      1.17      0.00   3668.93 
   241.46     14.14   4700.23      0.00      0.00      7.00   3676.29 
   241.47     14.15   4689.66      0.01     -1.75      0.00   3668.93 
   241.48     14.15   4699.06      0.00     -0.58      8.00   3676.29 
   241.49     14.16   4689.08      0.01      0.01      0.00   3668.93 
   241.50     14.16   4698.48      0.00      0.00      0.00   3676.29 
   241.51     14.15   4690.24     -0.01      1.75      0.00   3668.93 
   241.52     14.14   4700.23     -0.00      0.58      0.00   3676.29 
   241.53     14.14   4690.23     -0.02      2.33      0.00   3668.01 
   241.54     14.14   4700.81     -0.02     11.73      0.00   3676.29 
   241.55     14.14   4690.83     -0.01      1.75      0.00   3668.93 
   241.56     14.15   4699.64     -0.02      2.33      0.00   3676.29 
