#Written by Robertson Geologging WinLogger V1.0/406
~VERSION INFORMATION
#------------------------------------------------------------------------------
 VERS. 2.0 : CWLS LOG ASCII STANDARD - VERSION 2.0
 WRAP. NO  : ONE LINE PER DEPTH STEP
~WELL INFORMATION
#MNEM.UNIT         DATA                                DESCRIPTION OF MNEMONIC
#------------------------------------------------------------------------------
 STRT.M          7.0800                            :   START DEPTH
 STOP.M        258.0000                            :   STOP DEPTH
 STEP.M          0.0100                            :   STEP VALUE
 NULL.        -999.2500                            :   NULL VALUE
 COMP.    Coal Authority                           :   COMPANY NAME
 WELL.    Mainsforth Shaft                         :   WELL NAME
 FLD.     Mainsforth                               :   FIELD NAME
 LOC.     N/A                                      :   LOCATION
 PROV.    N/A                                      :   PROVINCE
 SRVC.    N/A                                      :   SERVICE COMPANY NAME
 DATE.    20 May 08                                :   DATE
 UWI.     N/A                                      :   UNIQUE WELL IDENTIFIER
~PARAMETER INFORMATION
#MNEMO.UNIT         VALUE                 DESCRIPTION OF MNEMONIC
#------------------------------------------------------------------------------
~OTHER INFORMATION SECTION
#------------------------------------------------------------------------------
 TCDS 1365
~CURVE INFORMATION
#MNEMO.UNIT         API CODE              CURVE DESCRIPTION
#------------------------------------------------------------------------------
 DEPTH.M                                 :   0     Depth
 TEMP.DegC                               :   1     Temperature
 COND.uS/cm                              :   2     Absolute Conductivity
 COND.uS/cm                              :   3     Conductivity@25DegC
 DELT.DegC                               :   4     Delta T
 DELC.uS/cm                              :   5     Delta C
#------------------------------------------------------------------------------
~A  DEPTH     TEMP      COND      COND      DELT      DELC      
# ...
   156.24     12.33   2418.17   3238.71     -0.00      0.42 
   156.25     12.33   2425.45   3248.47     -0.00      0.42 
   156.26     12.32   2425.45   3249.31     -0.02     11.43 
   156.27     12.32   2418.17   3239.55     -0.02     -8.07 
   156.28     12.32   2425.45   3249.31     -0.02      1.68 
   156.29     12.33   2422.72   3244.81      0.00      5.68 
   156.30     12.34   2425.45   3247.63      0.02     -1.68 
   156.31     12.35   2418.17   3237.46      0.02     -2.09 
   156.32     12.36   2425.45   3246.37      0.03     -2.52 
   156.33     12.35   2425.45   3246.79      0.02     -1.68 
   156.34     12.35   2418.17   3237.46      0.02     -2.09 
   156.35     12.34   2425.45   3247.63      0.01      2.82 
   156.36     12.34   2425.45   3248.05      0.01     -0.84 
   156.37     12.33   2418.17   3239.13     -0.01      1.26 
   156.38     12.33   2425.45   3248.89     -0.02      1.68 
   156.39     12.32   2425.45   3249.31     -0.01      1.26 
   156.40     12.32   2418.17   3239.55     -0.02      1.67 
   156.41     12.33   2425.45   3248.47     -0.00      0.42 
   156.42     12.33   2425.45   3248.47     -0.00      0.42 
   156.43     12.34   2418.17   3237.88     -0.00      0.42 
   156.44     12.33   2425.45   3248.47     -0.01      0.84 
   156.45     12.32   2418.17   3239.55     -0.02     -8.07 
   156.46     12.32   2425.45   3249.31     -0.01     11.01 
   156.47     12.32   2425.45   3249.73     -0.01      1.26 
   156.48     12.34   2422.72   3244.39      0.00      5.68 
   156.49     12.35   2418.17   3237.46      0.02    -11.43 
   156.50     12.35   2425.45   3246.79      0.02      1.56 
   156.51     12.35   2425.45   3246.79      0.01     -0.84 
   156.52     12.35   2418.17   3237.04      0.01     -0.84 
   156.53     12.34   2425.45   3247.63      0.00      0.00 
   156.54     12.35   2425.45   3247.21      0.01     -0.84 
   156.55     12.35   2418.17   3237.04      0.02     -2.09 
   156.56     12.34   2425.45   3247.63      0.01     -0.84 
   156.57     12.34   2425.45   3247.63      0.01      2.82 
   156.58     12.33   2418.17   3239.13     -0.00     -9.33 
   156.59     12.32   2425.45   3249.31     -0.01     11.01 
   156.60     12.32   2425.45   3249.31     -0.01      1.26 
   156.61     12.33   2418.17   3239.13     -0.00     -9.33 
   156.62     12.34   2425.45   3247.63      0.01      8.91 
   156.63     12.35   2422.72   3243.55      0.00     -0.42 
   156.64     12.36   2425.45   3245.95      0.02     -1.68 
   156.65     12.36   2425.45   3245.95      0.01     -1.26 
   156.66     12.36   2418.17   3236.62      0.00     -0.42 
   156.67     12.35   2425.45   3247.21      0.00     -0.42 
   156.68     12.34   2425.45   3248.05      0.00      0.00 
   156.69     12.33   2418.17   3239.13     -0.02     -4.42 
   156.70     12.32   2425.45   3249.31     -0.03     12.27 
   156.71     12.34   2425.45   3248.05     -0.01      1.26 
   156.72     12.35   2422.72   3243.55     -0.01     -2.40 
   156.73     12.35   2425.45   3246.79      0.00      9.75 
   156.74     12.35   2418.17   3237.04     -0.00     -5.67 
   156.75     12.35   2425.45   3247.21     -0.02      2.10 
   156.76     12.34   2425.45   3248.05     -0.03      2.52 
   156.77     12.35   2422.72   3243.55     -0.01      6.93 
   156.78     12.35   2425.45   3246.79      0.01     -0.84 
   156.79     12.36   2418.17   3236.62      0.02     -1.67 
   156.80     12.36   2425.45   3246.37      0.02      1.56 
   156.81     12.36   2425.45   3246.37      0.00     -0.42 
   156.82     12.36   2422.72   3242.29      0.00     -4.07 
   156.83     12.36   2425.45   3246.37      0.00      9.75 
   156.84     12.36   2418.17   3236.62      0.00    -10.17 
   156.85     12.34   2425.45   3247.63      0.00      0.00 
   156.86     12.33   2425.45   3248.89     -0.02     11.43 
   156.87     12.33   2425.45   3248.89     -0.01      1.26 
   156.88     12.33   2422.72   3245.23     -0.01     -2.82 
   156.89     12.34   2425.45   3247.63      0.00      9.33 
   156.90     12.35   2418.17   3237.04      0.02     -7.77 
   156.91     12.35   2425.45   3246.79      0.01     -0.84 
   156.92     12.35   2425.45   3246.79      0.00      0.00 
   156.93     12.36   2422.72   3242.71      0.01      5.25 
   156.94     12.37   2425.45   3245.53      0.01     -1.26 
   156.95     12.36   2418.17   3236.20      0.00     -0.42 
   156.96     12.36   2425.45   3245.95      0.01     -0.84 
   156.97     12.35   2425.45   3247.21     -0.00      0.42 
   156.98     12.33   2425.45   3248.89     -0.03     12.26 
   156.99     12.33   2422.72   3245.23     -0.02     -1.56 
   157.00     12.34   2418.17   3238.30     -0.01     -8.49 
   157.01     12.35   2425.45   3247.21     -0.00     10.17 
   157.02     12.35   2425.45   3246.79      0.00      9.33 
   157.03     12.36   2425.45   3246.37      0.03     -2.52 
   157.04     12.36   2425.45   3246.37      0.02      7.65 
   157.05     12.34   2418.17   3237.88      0.00     -6.51 
   157.06     12.35   2425.45   3247.21      0.00     -0.42 
   157.07     12.34   2425.45   3247.63     -0.02      1.68 
   157.08     12.34   2425.45   3248.05     -0.02     11.84 
   157.09     12.34   2418.17   3237.88     -0.01     -8.91 
   157.10     12.33   2425.45   3248.47     -0.02     11.84 
   157.11     12.33   2425.45   3248.47     -0.01      4.50 
   157.12     12.33   2425.45   3248.47     -0.01      0.84 
   157.13     12.34   2418.17   3237.88      0.00     -9.75 
   157.14     12.35   2425.45   3247.21      0.01      8.49 
   157.15     12.35   2425.45   3247.21      0.01     -0.84 
   157.16     12.35   2425.45   3247.21      0.01     -1.26 
   157.17     12.34   2418.17   3238.30     -0.00     -5.67 
   157.18     12.34   2425.45   3247.63     -0.00     10.17 
   157.19     12.34   2422.72   3243.97     -0.02     -1.98 
   157.20     12.35   2425.45   3247.21     -0.01      1.26 
   157.21     12.35   2425.45   3247.21     -0.01     10.59 
   157.22     12.35   2425.45   3246.79      0.00     -0.42 
   157.23     12.36   2418.17   3236.62      0.02     -2.09 
   157.24     12.35   2425.45   3247.21      0.01     -1.26 
   157.25     12.35   2425.45   3247.21      0.02     -2.10 
   157.26     12.34   2425.45   3248.05      0.01      8.49 
   157.27     12.33   2418.17   3238.71      0.01    -10.59 
   157.28     12.34   2422.72   3243.97      0.01     -0.84 
   157.29     12.34   2425.45   3247.63      0.00      0.00 
   157.30     12.35   2425.45   3247.21      0.00      9.75 
   157.31     12.35   2425.45   3246.79     -0.00      0.42 
   157.32     12.35   2425.45   3247.21     -0.00      0.42 
   157.33     12.35   2422.72   3243.55      0.00      6.09 
   157.34     12.35   2418.17   3237.04      0.01    -10.59 
   157.35     12.35   2425.45   3246.79      0.01     -1.26 
   157.36     12.35   2425.45   3246.79      0.02      7.65 
   157.37     12.35   2425.45   3247.21      0.02     -1.68 
   157.38     12.35   2425.45   3247.21      0.02     -2.10 
   157.39     12.35   2422.72   3243.55      0.02      4.00 
   157.40     12.35   2418.17   3237.04      0.02    -11.43 
   157.41     12.35   2425.45   3246.79      0.02     -1.68 
   157.42     12.33   2425.45   3248.47     -0.01     10.59 
   157.43     12.32   2425.45   3249.31     -0.01      0.84 
   157.44     12.32   2425.45   3249.73     -0.00     10.17 
   157.45     12.31   2418.17   3240.81     -0.01     -8.50 
   157.46     12.31   2425.45   3250.15     -0.00      0.42 
   157.47     12.32   2425.45   3249.31     -0.01      4.92 
   157.48     12.33   2425.45   3248.47     -0.01     11.01 
   157.49     12.35   2422.72   3243.55     -0.00     -3.24 
   157.50     12.35   2425.45   3246.79      0.00      0.00 
   157.51     12.37   2418.17   3235.79      0.01     -1.25 
   157.52     12.36   2425.45   3245.95      0.02     -1.68 
   157.53     12.37   2425.45   3245.53      0.02     -1.68 
   157.54     12.37   2425.45   3245.53      0.01      8.49 
   157.55     12.35   2418.17   3237.46      0.00    -10.17 
