#Written by Robertson Geologging WinLogger V1.5/410
~VERSION INFORMATION
#------------------------------------------------------------------------------
 VERS. 2.0 : CWLS LOG ASCII STANDARD - VERSION 2.0
 WRAP. NO  : ONE LINE PER DEPTH STEP
~WELL INFORMATION
#MNEM.UNIT         DATA                                DESCRIPTION OF MNEMONIC
#------------------------------------------------------------------------------
 STRT.M          6.2700                            :   START DEPTH
 STOP.M        256.6400                            :   STOP DEPTH
 STEP.M          0.0100                            :   STEP VALUE
 NULL.        -999.2500                            :   NULL VALUE
 COMP.    IWS                                      :   COMPANY NAME
 WELL.    MAINSFORTH                               :   WELL NAME
 FLD.     DURHAM                                   :   FIELD NAME
 LOC.     N/A                                      :   LOCATION
 PROV.    N/A                                      :   PROVINCE
 SRVC.    N/A                                      :   SERVICE COMPANY NAME
 DATE.    16 Dec 09                                :   DATE
 UWI.     N/A                                      :   UNIQUE WELL IDENTIFIER
~PARAMETER INFORMATION
#MNEMO.UNIT         VALUE                 DESCRIPTION OF MNEMONIC
#------------------------------------------------------------------------------
~OTHER INFORMATION SECTION
#------------------------------------------------------------------------------
 TCDS 1365
~CURVE INFORMATION
#MNEMO.UNIT         API CODE              CURVE DESCRIPTION
#------------------------------------------------------------------------------
 DEPTH.M                                 :   0     Depth
 TEMP.DegC                               :   1     Temperature
 COND.uS/cm                              :   2     Conductivity@25DegC
 COND.uS/cm                              :   3     Absolute Conductivity
 DELT.DegC                               :   4     Delta T
 DELC.uS/cm                              :   5     Delta C
#------------------------------------------------------------------------------
~A  DEPTH          TEMP          COND          COND          DELT          DELC
# ...
   122.27         11.95       3386.22       2502.33          0.01          0.46
   122.28         11.95       3386.50       2502.33          0.00          3.01
   122.29         11.94       3390.76       2505.27          0.00          7.31
   122.30         11.94       3387.59       2502.75         -0.00          4.14
   122.31         11.94       3387.71       2502.75         -0.00          5.44
   122.32         11.94       3391.69       2505.69         -0.00          8.24
   122.33         11.94       3391.57       2505.69         -0.00          8.04
   122.34         11.94       3390.35       2504.85          0.00          6.78
   122.35         11.94       3390.27       2504.85          0.00          5.48
   122.36         11.94       3390.19       2504.85          0.00          5.36
   122.37         11.94       3390.15       2504.85          0.00          5.40
   122.38         11.94       3390.03       2504.85          0.00          5.28
   122.39         11.94       3390.03       2504.85          0.00          5.24
   122.40         11.94       3387.19       2502.75          0.00          2.52
   122.41         11.94       3389.43       2504.43          0.00          8.81
   122.42         11.94       3389.43       2504.43          0.00          7.76
   122.43         11.94       3385.45       2501.49          0.00          5.08
   122.44         11.94       3385.49       2501.49          0.00          5.12
   122.45         11.94       3389.55       2504.43         -0.00          8.00
   122.46         11.94       3389.59       2504.43         -0.00          9.21
   122.47         11.94       3387.31       2502.75         -0.00          6.94
   122.48         11.94       3391.33       2505.69         -0.00         13.23
   122.49         11.94       3391.45       2505.69         -0.00         13.39
   122.50         11.94       3391.49       2505.69         -0.00         11.16
   122.51         11.94       3391.49       2505.69         -0.00          9.90
   122.52         11.94       3391.49       2505.69         -0.00          5.88
   122.53         11.94       3391.45       2505.69         -0.00          6.98
   122.54         11.94       3391.41       2505.69          0.00          5.68
   122.55         11.94       3392.51       2506.53         -0.00          6.86
   122.56         11.94       3388.45       2503.59         -0.00          4.06
   122.57         11.94       3388.45       2503.59         -0.00          6.29
   122.58         11.94       3390.80       2505.27         -0.00          4.75
   122.59         11.94       3387.96       2503.17         -0.00         -0.41
   122.60         11.94       3387.84       2503.17          0.00         -0.65
   122.61         11.95       3387.64       2503.17          0.00          1.42
   122.62         11.95       3387.56       2503.17          0.00          2.56
   122.63         11.95       3387.48       2503.17          0.00          2.40
   122.64         11.95       3387.44       2503.17          0.01          1.10
   122.65         11.95       3388.62       2504.01          0.01          3.34
   122.66         11.95       3387.52       2503.17          0.01          2.04
   122.67         11.94       3387.72       2503.17          0.01          2.08
   122.68         11.94       3387.88       2503.17          0.01         -1.25
   122.69         11.94       3389.14       2504.01          0.01          3.83
   122.70         11.94       3388.04       2503.17          0.01          2.65
   122.71         11.94       3388.04       2503.17          0.01          2.69
   122.72         11.94       3389.22       2504.01          0.01          0.54
   122.73         11.94       3388.04       2503.17          0.01         -0.60
   122.74         11.94       3392.06       2506.11          0.00          3.54
   122.75         11.94       3392.10       2506.11          0.00          4.80
   122.76         11.94       3392.18       2506.11          0.00          3.78
   122.77         11.94       3392.30       2506.11         -0.00          4.02
   122.78         11.94       3392.26       2506.11         -0.00          4.06
   122.79         11.94       3392.30       2506.11         -0.00          5.28
   122.80         11.94       3392.34       2506.11         -0.00          5.40
   122.81         11.94       3392.38       2506.11         -0.00          7.75
   122.82         11.94       3392.50       2506.11         -0.01          7.87
   122.83         11.93       3392.62       2506.11         -0.01          5.11
   122.84         11.93       3392.70       2506.11         -0.01          5.07
   122.85         11.93       3388.80       2503.17         -0.00          3.28
   122.86         11.93       3390.02       2504.01         -0.00          4.34
   122.87         11.93       3388.80       2503.17         -0.00          4.18
   122.88         11.93       3388.68       2503.17         -0.00          4.02
   122.89         11.94       3388.60       2503.17          0.00         -0.04
   122.90         11.94       3389.62       2504.01          0.00          1.06
   122.91         11.94       3388.44       2503.17          0.00         -0.08
   122.92         11.94       3388.44       2503.17          0.00         -2.35
   122.93         11.94       3392.38       2506.11          0.00          1.54
   122.94         11.94       3388.89       2503.59          0.00          0.90
   122.95         11.94       3392.87       2506.53          0.00          4.96
   122.96         11.94       3392.91       2506.53         -0.00          2.88
   122.97         11.94       3391.81       2505.69         -0.00          2.03
   122.98         11.94       3392.99       2506.53         -0.01          3.32
   122.99         11.94       3392.99       2506.53         -0.01          3.36
   123.00         11.94       3392.83       2506.53         -0.00          6.05
   123.01         11.94       3391.49       2505.69         -0.00          4.75
   123.02         11.94       3392.35       2506.53          0.00          5.60
   123.03         11.95       3392.11       2506.53          0.00          4.23
   123.04         11.95       3388.01       2503.59          0.00          1.26
   123.05         11.95       3390.24       2505.27          0.01          3.42
   123.06         11.95       3390.12       2505.27          0.01          3.30
   123.07         11.95       3387.61       2503.59          0.01          0.82
   123.08         11.96       3391.30       2506.53          0.01          4.56
   123.09         11.96       3389.97       2505.69          0.01          3.26
   123.10         11.96       3389.93       2505.69          0.01          3.18
   123.11         11.96       3390.05       2505.69          0.01          3.18
   123.12         11.95       3390.21       2505.69          0.01          3.22
   123.13         11.95       3390.37       2505.69          0.01          3.38
   123.14         11.95       3390.45       2505.69          0.01          4.72
   123.15         11.95       3390.41       2505.69          0.01          3.79
   123.16         11.95       3390.33       2505.69          0.01          5.12
   123.17         11.95       3390.29       2505.69          0.00          5.28
   123.18         11.95       3392.64       2507.37          0.00          6.58
   123.19         11.95       3388.78       2504.43          0.00          2.72
   123.20         11.95       3390.12       2505.27         -0.00          4.06
   123.21         11.95       3390.20       2505.27         -0.00          4.14
   123.22         11.95       3390.20       2505.27         -0.00          4.26
   123.23         11.95       3391.42       2506.11         -0.00          5.52
   123.24         11.95       3390.32       2505.27         -0.00          4.42
   123.25         11.95       3390.44       2505.27         -0.01          4.46
   123.26         11.94       3390.68       2505.27         -0.01          4.46
