#Written by Robertson Geologging WinLogger V1.0/406
~VERSION INFORMATION
#------------------------------------------------------------------------------
 VERS. 2.0 : CWLS LOG ASCII STANDARD - VERSION 2.0
 WRAP. NO  : ONE LINE PER DEPTH STEP
~WELL INFORMATION
#MNEM.UNIT         DATA                                DESCRIPTION OF MNEMONIC
#------------------------------------------------------------------------------
 STRT.M          7.0800                            :   START DEPTH
 STOP.M        258.0000                            :   STOP DEPTH
 STEP.M          0.0100                            :   STEP VALUE
 NULL.        -999.2500                            :   NULL VALUE
 COMP.    Coal Authority                           :   COMPANY NAME
 WELL.    Mainsforth Shaft                         :   WELL NAME
 FLD.     Mainsforth                               :   FIELD NAME
 LOC.     N/A                                      :   LOCATION
 PROV.    N/A                                      :   PROVINCE
 SRVC.    N/A                                      :   SERVICE COMPANY NAME
 DATE.    20 May 08                                :   DATE
 UWI.     N/A                                      :   UNIQUE WELL IDENTIFIER
~PARAMETER INFORMATION
#MNEMO.UNIT         VALUE                 DESCRIPTION OF MNEMONIC
#------------------------------------------------------------------------------
~OTHER INFORMATION SECTION
#------------------------------------------------------------------------------
 TCDS 1365
~CURVE INFORMATION
#MNEMO.UNIT         API CODE              CURVE DESCRIPTION
#------------------------------------------------------------------------------
 DEPTH.M                                 :   0     Depth
 TEMP.DegC                               :   1     Temperature
 COND.uS/cm                              :   2     Absolute Conductivity
 COND.uS/cm                              :   3     Conductivity@25DegC
 DELT.DegC                               :   4     Delta T
 DELC.uS/cm                              :   5     Delta C
#------------------------------------------------------------------------------
~A  DEPTH     TEMP      COND      COND      DELT      DELC      
# ...
   223.56     14.39   3323.59   4218.49      0.01     -1.03 
   223.57     14.39   3331.84   4229.48     -0.00     11.00 
   223.58     14.39   3328.17   4224.83     -0.02      7.89 
   223.59     14.39   3323.59   4219.01     -0.02      2.07 
   223.60     14.38   3331.84   4230.52     -0.02     13.07 
   223.61     14.37   3331.84   4231.04     -0.02     12.55 
   223.62     14.37   3323.59   4221.08     -0.02      2.07 
   223.63     14.37   3331.84   4231.04     -0.01     11.52 
   223.64     14.37   3323.59   4221.08     -0.01      1.55 
   223.65     14.36   3331.84   4232.08     -0.02     12.55 
   223.66     14.36   3323.59   4221.59     -0.01      1.03 
   223.67     14.36   3331.84   4232.60     -0.02     13.07 
   223.68     14.37   3323.59   4221.08     -0.01      1.55 
   223.69     14.38   3331.84   4230.52     -0.01     11.52 
   223.70     14.38   3323.59   4219.52     -0.02     -3.75 
   223.71     14.37   3331.84   4231.56     -0.01     12.04 
   223.72     14.36   3331.84   4232.60     -0.03     13.59 
   223.73     14.36   3323.59   4222.11     -0.02      2.07 
   223.74     14.35   3331.84   4233.12     -0.00     11.01 
   223.75     14.37   3323.59   4221.08      0.01     -1.04 
   223.76     14.37   3331.84   4231.56      0.00      9.97 
   223.77     14.37   3323.59   4221.08      0.00    -10.48 
   223.78     14.37   3331.84   4231.04     -0.01     11.52 
   223.79     14.37   3331.84   4231.04     -0.01     12.03 
   223.80     14.39   3323.59   4219.01      0.00      0.00 
   223.81     14.39   3331.84   4229.48      0.00      9.96 
   223.82     14.40   3327.26   4222.63      0.01     -2.72 
   223.83     14.40   3331.84   4228.45      0.02      7.89 
   223.84     14.40   3328.17   4223.79      0.03      2.20 
   223.85     14.39   3323.59   4218.49      0.02     -2.07 
   223.86     14.37   3331.84   4231.04      0.00     10.48 
   223.87     14.37   3331.84   4231.56      0.00      0.00 
   223.88     14.36   3323.59   4222.11     -0.01     10.87 
   223.89     14.36   3331.84   4232.60     -0.01     12.04 
   223.90     14.37   3323.59   4221.08     -0.00      0.52 
   223.91     14.36   3331.84   4232.08     -0.02     13.07 
   223.92     14.38   3331.84   4230.00      0.00     -0.52 
   223.93     14.40   3323.59   4217.97      0.03     -3.10 
   223.94     14.40   3334.59   4231.42      0.03     10.35 
   223.95     14.41   3323.59   4216.94      0.05    -11.00 
   223.96     14.39   3331.84   4229.48      0.02      8.41 
   223.97     14.38   3331.84   4230.52      0.00     10.48 
   223.98     14.37   3323.59   4220.56      0.00      0.00 
   223.99     14.38   3331.84   4230.52      0.00     10.48 
   224.00     14.38   3331.84   4230.52     -0.00      0.52 
   224.01     14.38   3323.59   4220.04     -0.01      1.03 
   224.02     14.38   3334.59   4233.50     -0.00      8.67 
   224.03     14.38   3323.59   4220.04     -0.01      1.03 
   224.04     14.38   3331.84   4230.52      0.00     10.48 
   224.05     14.38   3331.84   4230.52      0.01      9.45 
   224.06     14.37   3323.59   4220.56      0.00      0.00 
   224.07     14.37   3331.84   4231.04     -0.00      0.52 
   224.08     14.38   3331.84   4230.52      0.00     10.48 
   224.09     14.39   3331.84   4228.97      0.00      9.96 
   224.10     14.40   3328.17   4223.79      0.02     -2.59 
   224.11     14.40   3323.59   4217.97      0.03     -3.10 
   224.12     14.38   3331.84   4230.00      0.00      9.96 
   224.13     14.37   3331.84   4231.04      0.01     -1.56 
   224.14     14.36   3331.84   4232.08      0.00     10.48 
   224.15     14.37   3323.59   4221.08      0.01     -1.04 
   224.16     14.38   3331.84   4230.00      0.03     -3.11 
   224.17     14.39   3331.84   4228.97      0.03      6.86 
   224.18     14.40   3328.17   4223.79      0.04      1.68 
   224.19     14.39   3331.84   4228.97      0.02      7.89 
   224.20     14.39   3331.84   4229.48      0.01     -1.56 
   224.21     14.38   3331.84   4230.52      0.00      9.96 
   224.22     14.38   3323.59   4219.52      0.01     -7.38 
   224.23     14.38   3331.84   4230.00      0.02      8.41 
   224.24     14.37   3331.84   4231.04      0.01      9.45 
   224.25     14.37   3328.17   4226.38      0.00     -5.18 
   224.26     14.36   3331.84   4232.60     -0.01     12.04 
   224.27     14.36   3331.84   4232.08     -0.01      1.04 
   224.28     14.36   3323.59   4222.11     -0.01      1.04 
   224.29     14.37   3331.84   4231.56     -0.00     11.00 
   224.30     14.37   3331.84   4231.56     -0.00      0.52 
   224.31     14.37   3331.84   4231.56     -0.01     11.52 
   224.32     14.37   3331.84   4231.04     -0.01     12.03 
   224.33     14.37   3323.59   4221.08     -0.02     -7.89 
   224.34     14.38   3331.84   4230.52     -0.01     12.03 
   224.35     14.37   3331.84   4231.04     -0.02     12.55 
   224.36     14.38   3323.59   4220.04     -0.01     -8.93 
   224.37     14.38   3331.84   4230.00     -0.00     11.00 
   224.38     14.37   3328.17   4226.38     -0.01     -3.10 
   224.39     14.38   3331.84   4230.52     -0.01     12.03 
   224.40     14.37   3331.84   4231.04     -0.01      6.21 
   224.41     14.36   3331.84   4232.60     -0.02     13.07 
   224.42     14.37   3323.59   4221.08     -0.01     -8.93 
   224.43     14.37   3331.84   4231.04     -0.00     11.00 
   224.44     14.36   3331.84   4232.60     -0.01      1.04 
   224.45     14.37   3331.84   4231.56      0.00     10.48 
   224.46     14.35   3331.84   4233.12     -0.01      1.04 
   224.47     14.35   3331.84   4233.12     -0.01     11.52 
   224.48     14.36   3323.59   4222.11     -0.01     -9.45 
   224.49     14.37   3331.84   4231.56     -0.01     14.36 
   224.50     14.39   3331.84   4229.48      0.01     -1.04 
   224.51     14.39   3331.84   4229.48      0.02      8.41 
   224.52     14.40   3331.84   4228.45      0.03     -3.11 
   224.53     14.39   3331.84   4228.97      0.03      7.37 
   224.54     14.38   3331.84   4230.00      0.00      0.00 
   224.55     14.38   3331.84   4230.00     -0.01     11.51 
   224.56     14.38   3323.59   4220.04     -0.01     -9.44 
   224.57     14.38   3331.84   4230.00     -0.00      5.18 
   224.58     14.38   3331.84   4230.00     -0.00     11.00 
   224.59     14.39   3331.84   4229.48      0.01     -1.04 
   224.60     14.39   3334.59   4232.98      0.01      1.94 
   224.61     14.38   3323.59   4219.52      0.01     -1.55 
   224.62     14.38   3331.84   4230.52      0.00     -0.52 
   224.63     14.38   3331.84   4230.52      0.01      9.45 
   224.64     14.37   3331.84   4231.56      0.00     -0.52 
   224.65     14.37   3331.84   4231.56      0.00      9.97 
   224.66     14.36   3331.84   4232.08      0.00     -0.52 
   224.67     14.36   3331.84   4232.08     -0.00     11.00 
   224.68     14.38   3331.84   4230.52      0.00      0.00 
   224.69     14.37   3331.84   4231.04     -0.01     11.52 
   224.70     14.39   3331.84   4229.48      0.02     -2.07 
   224.71     14.39   3331.84   4229.48      0.03     -3.11 
   224.72     14.39   3331.84   4228.97      0.03      6.86 
   224.73     14.40   3328.17   4223.79      0.04     -9.32 
   224.74     14.40   3331.84   4227.93      0.03      6.86 
   224.75     14.39   3331.84   4228.97      0.02     -2.59 
   224.76     14.39   3331.84   4229.48      0.02      8.41 
   224.77     14.37   3331.84   4231.56     -0.00      0.52 
   224.78     14.35   3331.84   4233.12     -0.02      2.08 
   224.79     14.35   3331.84   4233.12     -0.03     14.11 
   224.80     14.36   3331.84   4232.08     -0.02      2.59 
   224.81     14.37   3331.84   4231.56     -0.03      8.93 
   224.82     14.37   3331.84   4231.04     -0.02      2.59 
   224.83     14.36   3331.84   4232.08     -0.03      8.29 
   224.84     14.35   3331.84   4233.12     -0.04     14.63 
   224.85     14.35   3331.84   4233.12     -0.02      2.08 
   224.86     14.36   3331.84   4232.60     -0.01      1.04 
   224.87     14.36   3331.84   4232.08      0.00      9.97 
