#Written by Robertson Geologging WinLogger V1.0/406
~VERSION INFORMATION
#------------------------------------------------------------------------------
 VERS. 2.0 : CWLS LOG ASCII STANDARD - VERSION 2.0
 WRAP. NO  : ONE LINE PER DEPTH STEP
~WELL INFORMATION
#MNEM.UNIT         DATA                                DESCRIPTION OF MNEMONIC
#------------------------------------------------------------------------------
 STRT.M          7.0800                            :   START DEPTH
 STOP.M        258.0000                            :   STOP DEPTH
 STEP.M          0.0100                            :   STEP VALUE
 NULL.        -999.2500                            :   NULL VALUE
 COMP.    Coal Authority                           :   COMPANY NAME
 WELL.    Mainsforth Shaft                         :   WELL NAME
 FLD.     Mainsforth                               :   FIELD NAME
 LOC.     N/A                                      :   LOCATION
 PROV.    N/A                                      :   PROVINCE
 SRVC.    N/A                                      :   SERVICE COMPANY NAME
 DATE.    20 May 08                                :   DATE
 UWI.     N/A                                      :   UNIQUE WELL IDENTIFIER
~PARAMETER INFORMATION
#MNEMO.UNIT         VALUE                 DESCRIPTION OF MNEMONIC
#------------------------------------------------------------------------------
~OTHER INFORMATION SECTION
#------------------------------------------------------------------------------
 TCDS 1365
~CURVE INFORMATION
#MNEMO.UNIT         API CODE              CURVE DESCRIPTION
#------------------------------------------------------------------------------
 DEPTH.M                                 :   0     Depth
 TEMP.DegC                               :   1     Temperature
 COND.uS/cm                              :   2     Absolute Conductivity
 COND.uS/cm                              :   3     Conductivity@25DegC
 DELT.DegC                               :   4     Delta T
 DELC.uS/cm                              :   5     Delta C
#------------------------------------------------------------------------------
~A  DEPTH     TEMP      COND      COND      DELT      DELC      
# ...
   239.40     14.41   3369.45   4274.61     -0.01     10.36 
   239.41     14.42   3362.11   4264.78     -0.00      0.52 
   239.42     14.42   3361.20   4263.61     -0.00     -7.62 
   239.43     14.41   3369.45   4274.61     -0.01     10.36 
   239.44     14.42   3362.11   4264.78     -0.01      1.04 
   239.45     14.42   3362.11   4264.25     -0.01      1.04 
   239.46     14.42   3367.62   4271.76     -0.02      9.07 
   239.47     14.43   3362.11   4263.21      0.00      1.16 
   239.48     14.43   3369.45   4272.52      0.01     -1.05 
   239.49     14.43   3362.11   4263.73      0.00     -0.52 
   239.50     14.43   3361.20   4262.05      0.01     -2.21 
   239.51     14.44   3369.45   4271.99      0.02      8.38 
   239.52     14.43   3362.11   4263.73      0.00     -0.52 
   239.53     14.43   3367.62   4270.19      0.02      4.89 
   239.54     14.43   3362.11   4263.73      0.01    -10.35 
   239.55     14.42   3362.11   4264.78     -0.01      2.21 
   239.56     14.42   3369.45   4274.09     -0.00      9.83 
   239.57     14.42   3362.11   4264.78     -0.01      1.04 
   239.58     14.41   3367.62   4272.28     -0.01      8.03 
   239.59     14.42   3362.11   4264.25      0.00     -7.50 
   239.60     14.42   3362.11   4264.78     -0.01      1.04 
   239.61     14.42   3369.45   4274.09     -0.01     10.88 
   239.62     14.43   3362.11   4263.73      0.00      1.16 
   239.63     14.41   3367.62   4272.28     -0.02      9.07 
   239.64     14.41   3362.11   4265.30     -0.02     -7.22 
   239.65     14.40   3362.11   4266.34     -0.03      3.13 
   239.66     14.39   3369.45   4276.70     -0.03     13.61 
   239.67     14.41   3362.11   4265.82     -0.00      0.52 
   239.68     14.41   3367.62   4272.80     -0.00      7.51 
   239.69     14.41   3362.11   4265.30      0.00     -9.83 
   239.70     14.42   3369.45   4274.09      0.00      9.95 
   239.71     14.41   3362.11   4265.30      0.00      0.00 
   239.72     14.42   3361.20   4263.61      0.01     -2.21 
   239.73     14.41   3369.45   4274.61      0.00      2.33 
   239.74     14.42   3362.11   4264.25      0.01     -1.04 
   239.75     14.42   3367.62   4271.76      0.00      6.46 
   239.76     14.42   3362.11   4264.78      0.00     -0.52 
   239.77     14.42   3369.45   4273.56      0.00      9.31 
   239.78     14.41   3362.11   4265.30     -0.02      2.09 
   239.79     14.41   3367.62   4272.28     -0.02      2.61 
   239.80     14.41   3362.11   4265.30     -0.02      2.61 
   239.81     14.42   3362.11   4264.25      0.00     -0.52 
   239.82     14.43   3369.45   4272.52      0.02      7.22 
   239.83     14.43   3361.20   4262.57      0.01      6.58 
   239.84     14.43   3369.45   4272.52      0.01     -1.05 
   239.85     14.42   3362.11   4264.78     -0.01      1.04 
   239.86     14.41   3367.62   4272.80     -0.02      9.07 
   239.87     14.41   3362.11   4265.82     -0.02      3.25 
   239.88     14.40   3369.45   4275.66     -0.01     10.36 
   239.89     14.41   3362.11   4265.82      0.00     -9.31 
   239.90     14.41   3367.62   4272.80      0.00      6.46 
   239.91     14.42   3362.11   4264.78      0.01     -1.57 
   239.92     14.42   3362.11   4264.78      0.00     -0.52 
   239.93     14.41   3369.45   4274.61      0.00      1.80 
   239.94     14.42   3362.11   4264.25      0.02     -2.09 
   239.95     14.42   3369.45   4273.56      0.02      7.22 
   239.96     14.42   3361.20   4263.09      0.02     -3.78 
   239.97     14.42   3369.45   4273.56      0.02      0.23 
   239.98     14.40   3362.11   4266.34     -0.01      1.57 
   239.99     14.41   3369.45   4274.61     -0.01     11.52 
   240.00     14.42   3362.11   4264.25     -0.01      1.04 
   240.01     14.43   3367.62   4270.19     -0.00     -1.80 
   240.02     14.44   3362.11   4262.69      0.00     -0.52 
   240.03     14.42   3369.45   4273.56     -0.01     11.52 
   240.04     14.42   3362.11   4264.25      0.00     -9.83 
   240.05     14.42   3362.11   4264.25     -0.00      1.69 
   240.06     14.43   3367.62   4270.19      0.01      5.41 
   240.07     14.43   3369.45   4272.52      0.01     -1.05 
   240.08     14.42   3362.11   4264.25     -0.00      1.69 
   240.09     14.42   3362.11   4264.25      0.00      0.00 
   240.10     14.42   3367.62   4271.76     -0.00      7.50 
   240.11     14.42   3369.45   4274.09      0.00      1.80 
   240.12     14.42   3362.11   4264.78      0.00     -0.52 
   240.13     14.41   3367.62   4272.28     -0.00      7.51 
   240.14     14.40   3362.11   4266.34     -0.01     -5.94 
   240.15     14.41   3369.45   4275.13     -0.00      9.83 
   240.16     14.40   3361.20   4265.18     -0.02     -6.06 
   240.17     14.41   3369.45   4275.13     -0.01     10.36 
   240.18     14.42   3362.11   4264.25     -0.01      1.04 
   240.19     14.42   3367.62   4271.24     -0.01      1.05 
   240.20     14.43   3362.11   4263.73      0.00     -0.52 
   240.21     14.43   3369.45   4272.52      0.01      8.26 
   240.22     14.42   3367.62   4271.76     -0.00      0.52 
   240.23     14.42   3362.11   4264.78     -0.01      1.57 
   240.24     14.42   3369.45   4273.56     -0.01     10.35 
   240.25     14.41   3354.78   4255.99     -0.01    -15.25 
   240.26     14.42   3369.45   4273.56      0.01      8.26 
   240.27     14.42   3362.11   4264.25      0.01     -1.57 
   240.28     14.41   3367.62   4272.80      0.00     -0.52 
   240.29     14.41   3362.11   4265.82      0.00     -0.52 
   240.30     14.41   3369.45   4275.13      0.00      9.31 
   240.31     14.41   3367.62   4272.80      0.00      0.00 
   240.32     14.41   3362.11   4265.82      0.00      0.00 
   240.33     14.42   3369.45   4273.56      0.00      9.31 
   240.34     14.42   3361.20   4263.61     -0.00     -7.62 
   240.35     14.41   3369.45   4274.61     -0.00      9.83 
   240.36     14.42   3362.11   4264.25      0.00      0.00 
   240.37     14.42   3367.62   4271.76      0.00     -0.52 
   240.38     14.42   3362.11   4264.78      0.00     -0.52 
   240.39     14.42   3369.45   4273.56      0.01     -1.05 
   240.40     14.42   3367.62   4271.24      0.00      6.46 
   240.41     14.43   3362.11   4263.73      0.01      0.12 
   240.42     14.42   3369.45   4273.56      0.01     -1.05 
   240.43     14.42   3361.20   4263.61      0.00     -1.16 
   240.44     14.41   3369.45   4274.61     -0.01     10.36 
   240.45     14.42   3362.11   4264.78      0.00     -6.98 
   240.46     14.42   3367.62   4271.24     -0.01      8.03 
   240.47     14.43   3369.45   4273.04     -0.00      0.52 
   240.48     14.43   3362.11   4263.73      0.00      0.00 
   240.49     14.42   3367.62   4271.24     -0.01      9.19 
   240.50     14.42   3362.11   4264.25     -0.01     -7.74 
   240.51     14.42   3369.45   4273.56     -0.00      9.83 
   240.52     14.42   3362.11   4264.25     -0.01     -5.94 
   240.53     14.42   3367.62   4271.76     -0.01      8.03 
   240.54     14.42   3369.45   4274.09      0.00      9.31 
   240.55     14.41   3362.11   4265.30     -0.00     -8.79 
   240.56     14.42   3369.45   4273.56      0.00      8.79 
   240.57     14.43   3361.20   4262.57      0.01     -9.71 
   240.58     14.43   3369.45   4273.04      0.00      8.79 
   240.59     14.43   3362.11   4263.21      0.01     -1.57 
   240.60     14.42   3369.45   4273.56      0.00     -0.52 
   240.61     14.43   3367.62   4270.71      0.00      6.98 
   240.62     14.43   3362.11   4263.73      0.01     -8.55 
   240.63     14.42   3369.45   4273.56      0.01      8.26 
   240.64     14.42   3362.11   4264.25      0.02     -2.09 
   240.65     14.43   3369.45   4273.04      0.03     -3.66 
   240.66     14.43   3362.11   4263.21      0.02     -2.61 
   240.67     14.44   3367.62   4269.67      0.03     -3.14 
   240.68     14.44   3362.11   4262.17      0.03     -3.13 
   240.69     14.43   3369.45   4272.52      0.01     -1.57 
   240.70     14.42   3362.11   4264.25      0.01     -1.04 
   240.71     14.42   3369.45   4274.09      0.00     10.47 
