#Written by Robertson Geologging WinLogger V1.5/410
~VERSION INFORMATION
#------------------------------------------------------------------------------
 VERS. 2.0 : CWLS LOG ASCII STANDARD - VERSION 2.0
 WRAP. NO  : ONE LINE PER DEPTH STEP
~WELL INFORMATION
#MNEM.UNIT         DATA                                DESCRIPTION OF MNEMONIC
#------------------------------------------------------------------------------
 STRT.M          6.2700                            :   START DEPTH
 STOP.M        256.6400                            :   STOP DEPTH
 STEP.M          0.0100                            :   STEP VALUE
 NULL.        -999.2500                            :   NULL VALUE
 COMP.    IWS                                      :   COMPANY NAME
 WELL.    MAINSFORTH                               :   WELL NAME
 FLD.     DURHAM                                   :   FIELD NAME
 LOC.     N/A                                      :   LOCATION
 PROV.    N/A                                      :   PROVINCE
 SRVC.    N/A                                      :   SERVICE COMPANY NAME
 DATE.    16 Dec 09                                :   DATE
 UWI.     N/A                                      :   UNIQUE WELL IDENTIFIER
~PARAMETER INFORMATION
#MNEMO.UNIT         VALUE                 DESCRIPTION OF MNEMONIC
#------------------------------------------------------------------------------
~OTHER INFORMATION SECTION
#------------------------------------------------------------------------------
 TCDS 1365
~CURVE INFORMATION
#MNEMO.UNIT         API CODE              CURVE DESCRIPTION
#------------------------------------------------------------------------------
 DEPTH.M                                 :   0     Depth
 TEMP.DegC                               :   1     Temperature
 COND.uS/cm                              :   2     Conductivity@25DegC
 COND.uS/cm                              :   3     Absolute Conductivity
 DELT.DegC                               :   4     Delta T
 DELC.uS/cm                              :   5     Delta C
#------------------------------------------------------------------------------
~A  DEPTH          TEMP          COND          COND          DELT          DELC
# ...
   189.27         12.11       3438.77       2552.31         -0.00         -4.32
   189.28         12.11       3443.82       2556.09         -0.00          0.81
   189.29         12.11       3443.82       2556.09         -0.00          5.34
   189.30         12.11       3443.78       2556.09         -0.00          0.24
   189.31         12.11       3443.70       2556.09         -0.00          0.24
   189.32         12.11       3439.17       2552.73         -0.00          0.77
   189.33         12.11       3444.26       2556.51         -0.00          1.33
   189.34         12.11       3444.30       2556.51         -0.00          1.42
   189.35         12.11       3439.21       2552.73         -0.00         -4.28
   189.36         12.11       3443.70       2556.09         -0.00          0.24
   189.37         12.11       3443.70       2556.09         -0.00          5.21
   189.38         12.11       3443.70       2556.09         -0.00          0.61
   189.39         12.11       3443.78       2556.09         -0.00          0.65
   189.40         12.11       3439.25       2552.73         -0.00         -3.92
   189.41         12.11       3443.82       2556.09         -0.00          0.65
   189.42         12.11       3443.94       2556.09         -0.00          5.82
   189.43         12.11       3443.46       2555.67         -0.00          0.24
   189.44         12.11       3443.58       2555.67         -0.00          4.81
   189.45         12.11       3438.61       2551.89         -0.00         -0.32
   189.46         12.11       3443.74       2555.67         -0.00          0.16
   189.47         12.11       3443.78       2555.67         -0.00          5.17
   189.48         12.11       3439.17       2552.31         -0.00         -4.45
   189.49         12.11       3443.70       2555.67         -0.00          0.12
   189.50         12.11       3438.57       2551.89         -0.00          0.12
   189.51         12.11       3443.17       2555.25         -0.00          0.28
   189.52         12.10       3443.30       2555.25         -0.00          5.50
   189.53         12.10       3438.81       2551.89         -0.01         -4.00
   189.54         12.10       3443.94       2555.67         -0.01          1.21
   189.55         12.10       3438.89       2551.89         -0.01         -3.76
   189.56         12.10       3443.94       2555.67         -0.01          1.42
   189.57         12.10       3444.02       2555.67         -0.01          6.71
   189.58         12.10       3439.62       2552.31         -0.01         -2.79
   189.59         12.10       3444.35       2555.67         -0.02          1.99
   189.60         12.10       3444.51       2555.67         -0.02          6.67
   189.61         12.10       3445.16       2556.09         -0.02          2.15
   189.62         12.10       3445.16       2556.09         -0.02          6.59
   189.63         12.10       3439.98       2552.31         -0.01         -3.80
   189.64         12.10       3444.51       2555.67         -0.01          0.61
   189.65         12.10       3444.43       2555.67         -0.01          5.58
   189.66         12.10       3444.92       2556.09         -0.01          1.54
   189.67         12.10       3444.87       2556.09         -0.01          1.50
   189.68         12.10       3440.22       2552.73         -0.01         -3.68
   189.69         12.10       3444.67       2556.09         -0.01          0.81
   189.70         12.10       3444.59       2556.09         -0.01          5.26
   189.71         12.10       3439.37       2552.31         -0.01         -4.49
   189.72         12.11       3443.78       2555.67         -0.01         -0.04
   189.73         12.11       3438.53       2551.89         -0.00         -4.69
   189.74         12.11       3443.42       2555.67         -0.00          0.36
   189.75         12.11       3443.21       2555.67         -0.00          4.85
   189.76         12.11       3438.61       2552.31         -0.00         -4.81
   189.77         12.11       3443.05       2555.67         -0.00         -0.36
   189.78         12.11       3443.01       2555.67         -0.00          4.61
   189.79         12.11       3443.01       2555.67          0.00         -0.04
   189.80         12.11       3443.01       2555.67          0.00          4.93
   189.81         12.11       3438.44       2552.31          0.00         -4.24
   189.82         12.11       3443.50       2556.09          0.00          0.77
   189.83         12.11       3443.54       2556.09          0.01          5.74
   189.84         12.11       3443.58       2556.09          0.01          0.60
   189.85         12.11       3443.70       2556.09          0.01          5.54
   189.86         12.11       3438.69       2552.31          0.01         -4.29
   189.87         12.11       3443.29       2555.67          0.01          0.24
   189.88         12.11       3443.29       2555.67          0.01          5.33
   189.89         12.11       3438.73       2552.31          0.01         -4.25
   189.90         12.11       3443.21       2555.67          0.01          0.32
   189.91         12.11       3438.52       2552.31          0.01         -4.85
   189.92         12.12       3442.89       2555.67          0.01         -0.49
   189.93         12.12       3442.81       2555.67          0.01          3.96
   189.94         12.12       3437.68       2551.89          0.01         -6.15
   189.95         12.12       3442.73       2555.67          0.01         -1.05
   189.96         12.12       3442.69       2555.67          0.01         -1.54
   189.97         12.12       3442.65       2555.67          0.01         -1.46
   189.98         12.12       3442.65       2555.67          0.01          3.03
   189.99         12.12       3437.63       2551.89          0.01         -7.16
   190.00         12.12       3442.28       2555.25          0.01         -2.59
   190.01         12.11       3442.36       2555.25          0.01          1.94
   190.02         12.11       3441.92       2554.83          0.01         -3.03
   190.03         12.11       3442.08       2554.83          0.01          2.34
   190.04         12.11       3437.64       2551.47          0.00         -6.55
   190.05         12.11       3442.77       2555.25          0.00         -1.29
   190.06         12.11       3442.77       2555.25          0.00          3.35
   190.07         12.11       3437.68       2551.47         -0.00         -6.18
   190.08         12.11       3442.77       2555.25         -0.00          4.04
   190.09         12.11       3437.55       2551.47          0.00         -5.66
   190.10         12.11       3442.53       2555.25          0.00         -0.73
   190.11         12.11       3442.36       2555.25          0.00          3.64
   190.12         12.12       3437.68       2551.89          0.00         -5.50
   190.13         12.12       3442.65       2555.67          0.00          4.08
   190.14         12.12       3442.61       2555.67          0.01         -1.09
   190.15         12.12       3442.56       2555.67          0.01         -1.17
   190.16         12.12       3442.61       2555.67          0.01          3.88
   190.17         12.12       3438.16       2552.31          0.01         -5.18
   190.18         12.12       3443.29       2556.09          0.01          4.48
   190.19         12.12       3443.33       2556.09          0.01         -0.57
   190.20         12.12       3444.02       2556.51          0.00          0.20
   190.21         12.11       3444.14       2556.51          0.00          5.54
   190.22         12.11       3439.70       2553.15         -0.00         -3.35
   190.23         12.11       3444.35       2556.51         -0.00          1.25
   190.24         12.11       3444.47       2556.51         -0.00          1.25
   190.25         12.11       3439.41       2552.73         -0.00         -3.88
   190.26         12.11       3444.10       2556.09         -0.00          5.34
