#Written by Robertson Geologging WinLogger V1.5/410
~VERSION INFORMATION
#------------------------------------------------------------------------------
 VERS. 2.0 : CWLS LOG ASCII STANDARD - VERSION 2.0
 WRAP. NO  : ONE LINE PER DEPTH STEP
~WELL INFORMATION
#MNEM.UNIT         DATA                                DESCRIPTION OF MNEMONIC
#------------------------------------------------------------------------------
 STRT.M          6.2700                            :   START DEPTH
 STOP.M        256.6400                            :   STOP DEPTH
 STEP.M          0.0100                            :   STEP VALUE
 NULL.        -999.2500                            :   NULL VALUE
 COMP.    IWS                                      :   COMPANY NAME
 WELL.    MAINSFORTH                               :   WELL NAME
 FLD.     DURHAM                                   :   FIELD NAME
 LOC.     N/A                                      :   LOCATION
 PROV.    N/A                                      :   PROVINCE
 SRVC.    N/A                                      :   SERVICE COMPANY NAME
 DATE.    16 Dec 09                                :   DATE
 UWI.     N/A                                      :   UNIQUE WELL IDENTIFIER
~PARAMETER INFORMATION
#MNEMO.UNIT         VALUE                 DESCRIPTION OF MNEMONIC
#------------------------------------------------------------------------------
~OTHER INFORMATION SECTION
#------------------------------------------------------------------------------
 TCDS 1365
~CURVE INFORMATION
#MNEMO.UNIT         API CODE              CURVE DESCRIPTION
#------------------------------------------------------------------------------
 DEPTH.M                                 :   0     Depth
 TEMP.DegC                               :   1     Temperature
 COND.uS/cm                              :   2     Conductivity@25DegC
 COND.uS/cm                              :   3     Absolute Conductivity
 DELT.DegC                               :   4     Delta T
 DELC.uS/cm                              :   5     Delta C
#------------------------------------------------------------------------------
~A  DEPTH          TEMP          COND          COND          DELT          DELC
# ...
   139.27         12.09       3441.40       2553.15         -0.01          9.02
   139.28         12.10       3436.75       2549.79         -0.00          8.94
   139.29         12.10       3436.67       2549.79         -0.00          4.37
   139.30         12.10       3436.59       2549.79         -0.00          8.33
   139.31         12.10       3436.55       2549.79         -0.00          3.76
   139.32         12.10       3436.55       2549.79         -0.00          3.80
   139.33         12.10       3436.42       2549.79         -0.00          7.60
   139.34         12.10       3436.22       2549.79          0.00          2.83
   139.35         12.10       3436.06       2549.79          0.00          2.75
   139.36         12.10       3436.02       2549.79          0.00         -1.25
   139.37         12.10       3436.10       2549.79          0.00         -1.82
   139.38         12.10       3436.30       2549.79         -0.00          2.87
   139.39         12.10       3436.99       2550.21         -0.00         -1.01
   139.40         12.10       3441.64       2553.57         -0.00          8.13
   139.41         12.10       3437.19       2550.21         -0.00         -0.24
   139.42         12.10       3441.76       2553.57         -0.00          8.90
   139.43         12.10       3437.35       2550.21         -0.01         -0.04
   139.44         12.09       3438.08       2550.63         -0.01          0.77
   139.45         12.09       3438.29       2550.63         -0.01          5.54
   139.46         12.09       3438.41       2550.63         -0.01          1.01
   139.47         12.09       3438.41       2550.63         -0.01          5.38
   139.48         12.09       3438.89       2551.05         -0.01          1.82
   139.49         12.09       3438.77       2551.05         -0.00          1.54
   139.50         12.09       3438.12       2550.63         -0.00          0.89
   139.51         12.10       3437.92       2550.63         -0.00          0.69
   139.52         12.10       3437.80       2550.63          0.00          4.41
   139.53         12.10       3437.60       2550.63          0.00         -0.41
   139.54         12.10       3437.39       2550.63          0.01          3.84
   139.55         12.10       3441.24       2553.57          0.01          3.68
   139.56         12.10       3436.50       2550.21          0.01         -1.62
   139.57         12.11       3440.91       2553.57          0.01          7.40
   139.58         12.11       3436.79       2550.63          0.01         -1.21
   139.59         12.11       3436.10       2550.21          0.01          2.59
   139.60         12.11       3435.98       2550.21          0.02         -2.06
   139.61         12.11       3435.90       2550.21          0.02          2.26
   139.62         12.11       3435.90       2550.21          0.02         -2.35
   139.63         12.11       3435.90       2550.21          0.02         -1.78
   139.64         12.11       3436.06       2550.21          0.02          2.30
   139.65         12.11       3436.79       2550.63          0.02         -1.54
   139.66         12.11       3436.99       2550.63          0.01          3.15
   139.67         12.10       3437.27       2550.63          0.01         -0.57
   139.68         12.10       3437.43       2550.63          0.01         -0.45
   139.69         12.10       3437.56       2550.63          0.01         -0.32
   139.70         12.10       3442.21       2553.99          0.01          3.80
   139.71         12.10       3437.80       2550.63          0.01         -0.57
   139.72         12.10       3442.45       2553.99          0.00          4.20
   139.73         12.09       3438.08       2550.63          0.00          4.53
   139.74         12.09       3438.65       2551.05         -0.00          0.69
   139.75         12.09       3438.61       2551.05         -0.00          1.38
   139.76         12.09       3438.00       2550.63         -0.00          0.85
   139.77         12.10       3437.88       2550.63         -0.00          0.73
   139.78         12.10       3437.76       2550.63          0.00          0.53
   139.79         12.10       3437.68       2550.63          0.00         -0.24
   139.80         12.10       3437.03       2550.21          0.00         -0.93
   139.81         12.10       3436.91       2550.21          0.01         -0.53
   139.82         12.10       3436.79       2550.21          0.01          3.88
   139.83         12.10       3436.71       2550.21          0.01         -0.77
   139.84         12.10       3436.67       2550.21          0.01         -0.89
   139.85         12.10       3440.75       2553.15          0.01          3.07
   139.86         12.10       3436.38       2549.79          0.01         -1.38
   139.87         12.10       3440.99       2553.15          0.01          3.19
   139.88         12.10       3436.46       2549.79          0.01         -1.38
   139.89         12.10       3440.95       2553.15          0.01          3.15
   139.90         12.10       3436.42       2549.79          0.01         -0.73
   139.91         12.10       3441.03       2553.15          0.01          3.96
   139.92         12.10       3436.71       2549.79          0.00         -0.28
   139.93         12.09       3437.48       2550.21          0.00          0.57
   139.94         12.09       3437.56       2550.21         -0.00          0.73
   139.95         12.09       3437.52       2550.21         -0.00          0.69
   139.96         12.09       3437.48       2550.21         -0.00          0.77
   139.97         12.10       3437.40       2550.21         -0.00          0.69
   139.98         12.09       3437.44       2550.21         -0.00          0.69
   139.99         12.09       3437.52       2550.21         -0.00          0.81
   140.00         12.09       3437.48       2550.21         -0.00          0.77
   140.01         12.09       3437.44       2550.21         -0.00          0.20
   140.02         12.10       3437.31       2550.21         -0.00          0.12
   140.03         12.10       3437.15       2550.21          0.00         -0.04
   140.04         12.10       3440.99       2553.15          0.00          3.76
   140.05         12.10       3435.86       2549.37          0.00         -1.42
   140.06         12.10       3440.47       2552.73          0.00          3.23
   140.07         12.10       3436.55       2549.79          0.00         -0.69
   140.08         12.10       3441.16       2553.15         -0.00          4.00
   140.09         12.10       3436.55       2549.79         -0.00         -0.44
   140.10         12.10       3440.95       2553.15         -0.00          4.00
   140.11         12.10       3436.42       2549.79         -0.00         -0.49
   140.12         12.10       3440.91       2553.15         -0.00          4.04
   140.13         12.10       3436.42       2549.79         -0.00         -0.49
   140.14         12.10       3440.99       2553.15         -0.00          4.08
   140.15         12.10       3437.03       2550.21         -0.00          0.12
   140.16         12.10       3442.04       2553.99          0.00          5.05
   140.17         12.10       3437.43       2550.63          0.00          0.36
   140.18         12.10       3441.24       2553.57          0.01          4.04
   140.19         12.10       3436.54       2550.21          0.01         -0.73
   140.20         12.10       3437.07       2550.63          0.01         -0.24
   140.21         12.11       3437.03       2550.63          0.01         -0.28
   140.22         12.11       3436.95       2550.63          0.01         -0.41
   140.23         12.11       3436.87       2550.63          0.01         -0.00
   140.24         12.11       3436.83       2550.63          0.01         -0.12
   140.25         12.11       3436.75       2550.63          0.01         -0.20
   140.26         12.11       3436.79       2550.63          0.01         -4.61
