#Written by Robertson Geologging WinLogger V1.0/406
~VERSION INFORMATION
#------------------------------------------------------------------------------
 VERS. 2.0 : CWLS LOG ASCII STANDARD - VERSION 2.0
 WRAP. NO  : ONE LINE PER DEPTH STEP
~WELL INFORMATION
#MNEM.UNIT         DATA                                DESCRIPTION OF MNEMONIC
#------------------------------------------------------------------------------
 STRT.M          7.0800                            :   START DEPTH
 STOP.M        258.0000                            :   STOP DEPTH
 STEP.M          0.0100                            :   STEP VALUE
 NULL.        -999.2500                            :   NULL VALUE
 COMP.    Coal Authority                           :   COMPANY NAME
 WELL.    Mainsforth Shaft                         :   WELL NAME
 FLD.     Mainsforth                               :   FIELD NAME
 LOC.     N/A                                      :   LOCATION
 PROV.    N/A                                      :   PROVINCE
 SRVC.    N/A                                      :   SERVICE COMPANY NAME
 DATE.    20 May 08                                :   DATE
 UWI.     N/A                                      :   UNIQUE WELL IDENTIFIER
~PARAMETER INFORMATION
#MNEMO.UNIT         VALUE                 DESCRIPTION OF MNEMONIC
#------------------------------------------------------------------------------
~OTHER INFORMATION SECTION
#------------------------------------------------------------------------------
 TCDS 1365
~CURVE INFORMATION
#MNEMO.UNIT         API CODE              CURVE DESCRIPTION
#------------------------------------------------------------------------------
 DEPTH.M                                 :   0     Depth
 TEMP.DegC                               :   1     Temperature
 COND.uS/cm                              :   2     Absolute Conductivity
 COND.uS/cm                              :   3     Conductivity@25DegC
 DELT.DegC                               :   4     Delta T
 DELC.uS/cm                              :   5     Delta C
#------------------------------------------------------------------------------
~A  DEPTH     TEMP      COND      COND      DELT      DELC      
# ...
   107.40     11.20   1631.71   2253.87      0.01     -0.60 
   107.41     11.21   1631.71   2253.27      0.01     -0.90 
   107.42     11.21   1631.71   2253.27      0.02     -1.20 
   107.43     11.20   1631.71   2253.57      0.01     -0.60 
   107.44     11.19   1631.71   2254.17      0.01     -0.60 
   107.45     11.18   1624.48   2245.08      0.00    -10.30 
   107.46     11.17   1631.71   2255.38      0.00      0.00 
   107.47     11.17   1631.71   2255.68      0.00     -0.30 
   107.48     11.17   1631.71   2255.68      0.00      0.00 
   107.49     11.17   1631.71   2255.68     -0.00      0.30 
   107.50     11.17   1631.71   2255.68     -0.01      0.60 
   107.51     11.17   1631.71   2255.68     -0.01      0.60 
   107.52     11.18   1633.52   2257.27      0.01      1.60 
   107.53     11.18   1630.81   2253.53      0.02     -2.45 
   107.54     11.19   1633.52   2256.97      0.02      0.99 
   107.55     11.19   1630.81   2252.92      0.03     -3.36 
   107.56     11.18   1624.48   2244.78      0.01    -10.90 
   107.57     11.20   1631.71   2253.87      0.02     -1.50 
   107.58     11.20   1631.71   2253.87      0.02     -1.50 
   107.59     11.18   1631.71   2254.77     -0.00      0.30 
   107.60     11.19   1631.71   2254.17     -0.00      0.30 
   107.61     11.19   1631.71   2254.47     -0.01      0.60 
   107.62     11.18   1631.71   2254.77     -0.01     10.59 
   107.63     11.20   1631.71   2253.87      0.01     -0.60 
   107.64     11.19   1631.71   2254.17      0.01     -0.90 
   107.65     11.19   1624.48   2244.18      0.01    -10.59 
   107.66     11.19   1631.71   2254.17     -0.00      0.30 
   107.67     11.19   1631.71   2254.17     -0.01      0.60 
   107.68     11.19   1631.71   2254.17     -0.01      0.90 
   107.69     11.19   1631.71   2254.47     -0.01      0.90 
   107.70     11.19   1631.71   2254.47     -0.00      0.30 
   107.71     11.17   1631.71   2255.38     -0.01      0.60 
   107.72     11.16   1631.71   2255.98     -0.01      0.90 
   107.73     11.16   1631.71   2255.98     -0.02      1.20 
   107.74     11.17   1624.48   2245.68     -0.01     -9.10 
   107.75     11.17   1631.71   2255.68     -0.02     -1.29 
   107.76     11.17   1631.71   2255.38     -0.02      1.50 
   107.77     11.18   1631.71   2255.08     -0.01      0.90 
   107.78     11.18   1631.71   2255.08     -0.01      0.90 
   107.79     11.18   1631.71   2254.77     -0.00      0.30 
   107.80     11.18   1631.71   2254.77      0.01     -0.60 
   107.81     11.18   1631.71   2254.77      0.01     -0.60 
   107.82     11.18   1631.71   2254.77      0.00      9.99 
   107.83     11.18   1624.48   2244.78      0.00    -10.29 
   107.84     11.18   1631.71   2254.77      0.00      0.00 
   107.85     11.18   1633.52   2257.27      0.00      2.50 
   107.86     11.18   1631.71   2254.77      0.01     -0.60 
   107.87     11.18   1631.71   2254.77      0.01     -0.60 
   107.88     11.19   1631.71   2254.47      0.02     -1.20 
   107.89     11.19   1631.71   2254.47      0.01     -0.90 
   107.90     11.19   1624.48   2244.18      0.02    -11.19 
   107.91     11.19   1631.71   2254.17      0.01     -0.60 
   107.92     11.19   1631.71   2254.47     -0.00      0.30 
   107.93     11.18   1631.71   2254.77     -0.01     -1.60 
   107.94     11.18   1631.71   2254.77     -0.03      1.80 
   107.95     11.18   1631.71   2255.08     -0.03      2.10 
   107.96     11.18   1631.71   2254.77     -0.02      1.20 
   107.97     11.18   1631.71   2255.08     -0.01      0.90 
   107.98     11.17   1624.48   2245.38     -0.01      0.60 
   107.99     11.17   1633.52   2257.88     -0.01      3.10 
   108.00     11.17   1630.81   2254.13     -0.01     -0.65 
   108.01     11.17   1633.52   2257.88      0.00      2.50 
   108.02     11.18   1631.71   2255.08      0.00     -2.80 
   108.03     11.19   1631.71   2254.47      0.00     -0.30 
   108.04     11.19   1624.48   2244.48      0.00    -10.29 
   108.05     11.20   1631.71   2253.57      0.01     -0.60 
   108.06     11.20   1631.71   2253.87      0.01     -0.90 
   108.07     11.19   1631.71   2254.47      0.01     -0.60 
   108.08     11.19   1631.71   2254.17      0.01     -0.60 
   108.09     11.19   1631.71   2254.47      0.00     -0.30 
   108.10     11.19   1631.71   2254.47     -0.00      0.30 
   108.11     11.19   1624.48   2244.48     -0.00      0.30 
   108.12     11.18   1631.71   2254.77     -0.01      0.90 
   108.13     11.18   1631.71   2255.08     -0.01      0.90 
   108.14     11.18   1631.71   2254.77     -0.01      0.60 
   108.15     11.18   1631.71   2254.77     -0.00      0.30 
   108.16     11.18   1631.71   2254.77     -0.00      0.30 
   108.17     11.18   1624.48   2245.08     -0.02     -8.79 
   108.18     11.18   1631.71   2254.77     -0.02      1.20 
   108.19     11.18   1631.71   2254.77     -0.02      1.20 
   108.20     11.18   1633.52   2257.27     -0.02      3.70 
   108.21     11.19   1631.71   2254.47     -0.01      0.60 
   108.22     11.18   1631.71   2255.08     -0.00      0.30 
   108.23     11.17   1624.48   2245.38     -0.01     -9.39 
   108.24     11.17   1631.71   2255.38     -0.00     10.30 
   108.25     11.17   1631.71   2255.68     -0.01      0.60 
   108.26     11.16   1631.71   2255.98     -0.02      1.50 
   108.27     11.17   1631.71   2255.68     -0.02      1.20 
   108.28     11.17   1631.71   2255.38     -0.01      0.60 
   108.29     11.17   1631.71   2255.38     -0.01      0.60 
   108.30     11.18   1624.48   2244.78      0.01    -13.40 
   108.31     11.18   1631.71   2255.08     -0.00      0.30 
   108.32     11.18   1633.52   2257.27     -0.00      2.80 
   108.33     11.18   1631.71   2254.77      0.00     -0.30 
   108.34     11.18   1631.71   2254.77     -0.01     10.59 
   108.35     11.19   1631.71   2254.17      0.01     -0.90 
   108.36     11.20   1631.71   2253.87      0.02     -1.20 
   108.37     11.19   1624.48   2244.18      0.01    -10.59 
   108.38     11.19   1631.71   2254.47      0.00     -2.80 
   108.39     11.18   1630.81   2253.53     -0.01     -0.35 
   108.40     11.18   1631.71   2255.08     -0.03      1.80 
   108.41     11.18   1631.71   2255.08     -0.03      1.80 
   108.42     11.18   1631.71   2255.08     -0.02      1.50 
   108.43     11.18   1631.71   2255.08     -0.01      0.90 
   108.44     11.18   1631.71   2255.08      0.00     10.00 
   108.45     11.17   1624.48   2245.38      0.00    -10.00 
   108.46     11.17   1631.71   2255.68      0.00      0.00 
   108.47     11.17   1631.71   2255.68      0.00      0.00 
   108.48     11.17   1631.71   2255.38      0.00     -0.30 
   108.49     11.18   1631.71   2255.08      0.01     -0.60 
   108.50     11.18   1624.48   2245.08      0.01    -10.60 
   108.51     11.18   1631.71   2254.77      0.00     -2.50 
   108.52     11.18   1631.71   2255.08     -0.00      1.55 
   108.53     11.18   1631.71   2254.77     -0.00     -2.20 
   108.54     11.19   1631.71   2254.47     -0.00      1.55 
   108.55     11.18   1631.71   2254.77      0.00      9.99 
   108.56     11.18   1631.71   2254.77     -0.01      0.90 
   108.57     11.18   1624.48   2245.08     -0.02     -8.79 
   108.58     11.18   1633.52   2257.57     -0.00      2.80 
   108.59     11.18   1631.71   2255.08     -0.01      0.90 
   108.60     11.18   1631.71   2254.77     -0.00      0.30 
   108.61     11.18   1631.71   2254.77      0.00      0.00 
   108.62     11.18   1624.48   2244.78     -0.01     -9.09 
   108.63     11.18   1631.71   2254.77     -0.01      0.60 
   108.64     11.18   1633.52   2257.27     -0.01     13.09 
   108.65     11.18   1631.71   2254.77     -0.01      0.60 
   108.66     11.18   1631.71   2254.77     -0.01      0.60 
   108.67     11.18   1624.48   2245.08     -0.01     -9.09 
   108.68     11.18   1631.71   2254.77     -0.00      0.30 
   108.69     11.19   1631.71   2254.17      0.00     -0.30 
   108.70     11.18   1631.71   2255.08      0.00     -0.30 
   108.71     11.17   1631.71   2255.38      0.01     -0.60 
