#Written by Robertson Geologging WinLogger V1.0/406
~VERSION INFORMATION
#------------------------------------------------------------------------------
 VERS. 2.0 : CWLS LOG ASCII STANDARD - VERSION 2.0
 WRAP. NO  : ONE LINE PER DEPTH STEP
~WELL INFORMATION
#MNEM.UNIT         DATA                                DESCRIPTION OF MNEMONIC
#------------------------------------------------------------------------------
 STRT.M          7.0800                            :   START DEPTH
 STOP.M        258.0000                            :   STOP DEPTH
 STEP.M          0.0100                            :   STEP VALUE
 NULL.        -999.2500                            :   NULL VALUE
 COMP.    Coal Authority                           :   COMPANY NAME
 WELL.    Mainsforth Shaft                         :   WELL NAME
 FLD.     Mainsforth                               :   FIELD NAME
 LOC.     N/A                                      :   LOCATION
 PROV.    N/A                                      :   PROVINCE
 SRVC.    N/A                                      :   SERVICE COMPANY NAME
 DATE.    20 May 08                                :   DATE
 UWI.     N/A                                      :   UNIQUE WELL IDENTIFIER
~PARAMETER INFORMATION
#MNEMO.UNIT         VALUE                 DESCRIPTION OF MNEMONIC
#------------------------------------------------------------------------------
~OTHER INFORMATION SECTION
#------------------------------------------------------------------------------
 TCDS 1365
~CURVE INFORMATION
#MNEMO.UNIT         API CODE              CURVE DESCRIPTION
#------------------------------------------------------------------------------
 DEPTH.M                                 :   0     Depth
 TEMP.DegC                               :   1     Temperature
 COND.uS/cm                              :   2     Absolute Conductivity
 COND.uS/cm                              :   3     Conductivity@25DegC
 DELT.DegC                               :   4     Delta T
 DELC.uS/cm                              :   5     Delta C
#------------------------------------------------------------------------------
~A  DEPTH     TEMP      COND      COND      DELT      DELC      
# ...
   256.56     14.50   3034.13   3840.73      0.06   -441.21 
   256.57     14.50   3034.13   3840.73      0.06   -451.04 
   256.58     14.48   3025.89   3831.72      0.05   -454.24 
   256.59     14.48   3034.13   3842.14      0.05   -440.32 
   256.60     14.49   3034.13   3841.67      0.06   -450.62 
   256.61     14.49   3034.13   3841.20      0.06   -441.78 
   256.62     14.50   3034.13   3840.73      0.07   -453.89 
   256.63     14.50   3034.13   3840.26      0.08   -443.77 
   256.64     14.50   3034.13   3840.73      0.08   -453.14 
   256.65     14.51   3034.13   3839.80      0.10   -448.78 
   256.66     14.51   3034.13   3839.80      0.09   -444.77 
   256.67     14.50   3034.13   3840.73      0.08   -452.61 
   256.68     14.49   3034.13   3841.20      0.07   -445.80 
   256.69     14.50   3034.13   3840.73      0.06   -451.04 
   256.70     14.49   3034.13   3841.20      0.05   -429.74 
   256.71     14.49   3034.13   3841.67      0.05   -443.76 
   256.72     14.48   3034.13   3842.14      0.04   -448.58 
   256.73     14.48   3034.13   3842.14      0.04   -439.27 
   256.74     14.48   3026.81   3832.87      0.04   -458.37 
   256.75     14.49   3034.13   3841.20      0.05   -444.23 
   256.76     14.49   3034.13   3841.20      0.04   -448.99 
   256.77     14.49   3034.13   3841.67      0.04   -439.74 
   256.78     14.49   3034.13   3841.20      0.04   -448.99 
   256.79     14.49   3034.13   3841.67      0.04   -443.23 
   256.80     14.49   3034.13   3841.67      0.05   -450.10 
   256.81     14.49   3034.13   3841.67      0.07   -442.36 
   256.82     14.48   3034.13   3842.14      0.07   -452.26 
   256.83     14.49   3034.13   3841.67      0.06   -441.84 
   256.84     14.49   3034.13   3841.20      0.07   -452.14 
   256.85     14.49   3034.13   3841.67      0.05   -443.76 
   256.86     14.49   3025.89   3831.25      0.05   -460.52 
   256.87     14.48   3034.13   3842.14      0.05   -440.84 
   256.88     14.48   3034.13   3842.14      0.05   -450.15 
   256.89     14.49   3034.13   3841.67      0.06   -441.84 
   256.90     14.50   3034.13   3840.73      0.07   -452.09 
   256.91     14.50   3034.13   3840.26      0.06   -450.98 
   256.92     14.50   3034.13   3840.73      0.07   -445.74 
   256.93     14.50   3034.13   3840.73      0.07   -442.25 
   256.94     14.50   3034.13   3840.73      0.07   -451.56 
   256.95     14.50   3034.13   3840.73      0.08   -452.61 
   256.96     14.50   3034.13   3840.26      0.08   -443.25 
   256.97     14.50   3025.89   3829.84      0.08   -415.79 
   256.98     14.50   3034.13   3840.73      0.08   -375.17 
   256.99     14.49   3034.13   3841.20      0.06   -354.55 
   257.00     14.48   3034.13   3842.14      0.05   -344.31 
   257.01     14.49   3034.13   3841.20      0.07   -344.60 
   257.02     14.49   3034.13   3841.20      0.06   -325.48 
   257.03     14.50   3034.13   3840.73      0.08   -330.46 
   257.04     14.51   3034.13   3839.80      0.09   -317.44 
   257.05     14.51   3034.13   3839.80      0.09   -317.44 
   257.06     14.51   3034.13   3839.80      0.09   -307.49 
   257.07     14.49   3025.89   3830.78      0.08   -317.67 
   257.08     14.50   3034.13   3840.73      0.08   -278.14 
   257.09     14.51   3034.13   3839.80      0.08   -280.90 
   257.10     14.50   3034.13   3840.26      0.07   -268.30 
   257.11     14.51   3034.13   3839.80      0.07   -248.02 
   257.12     14.51   3034.13   3839.80      0.07   -248.02 
   257.13     14.50   3034.13   3840.26      0.07   -247.39 
   257.14     14.50   3034.13   3840.26      0.07   -228.80 
   257.15     14.50   3034.13   3840.26      0.07   -210.21 
   257.16     14.50   3034.13   3840.73      0.08   -198.44 
   257.17     14.50   3026.81   3831.00      0.08   -190.92 
   257.18     14.50   3034.13   3840.26      0.07   -151.65 
   257.19     14.51   3034.13   3839.80      0.08    -74.14 
   257.20     14.50   3034.13   3840.26      0.06    -15.39 
   257.21     14.49   3034.13   3841.20      0.05    -12.82 
   257.22     14.50   3034.13   3840.26      0.07    -16.33 
   257.23     14.50   3025.89   3830.31      0.05    -24.87 
   257.24     14.51   3034.13   3839.33      0.07    -23.29 
   257.25     14.51   3034.13   3839.80      0.07    -16.33 
   257.26     14.49   3025.89   3830.78      0.04    -23.93 
   257.27     14.49   3034.13   3841.20      0.04    -12.35 
   257.28     14.48   3034.13   3842.14      0.02    -11.15 
   257.29     14.49   3034.13   3841.20      0.02    -11.62 
   257.30     14.51   3034.13   3839.80      0.04    -13.50 
   257.31     14.50   3034.13   3840.26      0.06    -13.76 
   257.32     14.50   3034.13   3840.26      0.06    -14.92 
   257.33     14.50   3034.13   3840.26      0.05    -13.97 
   257.34     14.51   3034.13   3839.80      0.05     -4.70 
   257.35     14.51   3026.81   3830.53      0.04    -22.76 
   257.36     14.51   3034.13   3839.80      0.04     -4.23 
   257.37     14.50   3034.13   3840.26      0.05     -4.70 
   257.38     14.49   3034.13   3841.67      0.02     -2.35 
   257.39     14.50   3034.13   3840.73      0.02     -2.35 
   257.40     14.51   3034.13   3839.80      0.03     -2.82 
   257.41     14.52   3034.13   3838.39      0.04      6.20 
   257.42     14.53   3034.13   3837.92      0.06     -5.63 
   257.43     14.51   3034.13   3839.33      0.04     -4.23 
   257.44     14.51   3025.89   3829.38      0.03    -13.71 
   257.45     14.49   3034.13   3841.20      0.01     -1.41 
   257.46     14.49   3034.13   3841.67      0.00      0.00 
   257.47     14.49   3034.13   3841.67      0.00      0.00 
   257.48     14.48   3034.13   3842.14      0.00      0.00 
   257.49     14.48   3034.13   3842.14     -0.00      0.47 
   257.50     14.49   3034.13   3841.20      0.01     -0.94 
   257.51     14.49   3034.13   3841.20      0.01     -1.41 
   257.52     14.49   3034.13   3841.20      0.02     -1.88 
   257.53     14.50   3025.89   3830.31      0.02    -12.30 
   257.54     14.49   3034.13   3841.67      0.00     -0.47 
   257.55     14.49   3034.13   3841.20     -0.00      0.47 
   257.56     14.50   3034.13   3840.73      0.00      0.00 
   257.57     14.50   3034.13   3840.26      0.02      8.55 
   257.58     14.51   3034.13   3839.33      0.03     -2.82 
   257.59     14.51   3034.13   3839.80      0.02     -1.88 
   257.60     14.50   3034.13   3840.73      0.00     -0.47 
   257.61     14.50   3034.13   3840.26      0.00     -0.47 
   257.62     14.51   3026.81   3830.53      0.00     -9.73 
   257.63     14.51   3034.13   3839.80      0.01     -0.94 
   257.64     14.51   3034.13   3839.33      0.00     -0.47 
   257.65     14.50   3034.13   3840.26     -0.00      0.47 
   257.66     14.51   3034.13   3839.80      0.01     -0.94 
   257.67     14.52   3034.13   3838.86      0.02     -2.35 
   257.68     14.50   3034.13   3840.26      0.00     -0.47 
   257.69     14.51   3034.13   3839.80      0.01     -1.41 
   257.70     14.50   3025.89   3830.31      0.01    -11.36 
   257.71     14.50   3034.13   3840.73      0.01     -1.41 
   257.72     14.51   3034.13   3839.33      0.03     -2.82 
   257.73     14.52   3034.13   3838.86      0.03      5.98 
   257.74     14.52   3034.13   3838.86      0.02     -2.35 
   257.75     14.52   3034.13   3838.86      0.02     -2.35 
   257.76     14.52   3034.13   3838.86      0.03     -2.82 
   257.77     14.52   3034.13   3838.86      0.02     -2.35 
   257.78     14.52   3034.13   3838.86      0.03     -2.82 
   257.79     14.52   3034.13   3838.86      0.03     -2.82 
   257.80     14.52   3034.13   3838.86      0.03     -2.82 
   257.81     14.52   3034.13   3838.86      0.03     -3.28 
   257.82     14.52   3034.13   3838.86      0.03     -2.82 
   257.83     14.52   3034.13   3838.86      0.02     -2.35 
   257.84     14.52   3034.13   3838.86      0.03     -2.82 
   257.85     14.52   3034.13   3838.86      0.03      7.61 
   257.86     14.52   3034.13   3838.86      0.03     -3.28 
   257.87     14.52   3034.13   3838.86      0.03     -3.28 
