#Written by Robertson Geologging WinLogger V1.0/406
~VERSION INFORMATION
#------------------------------------------------------------------------------
 VERS. 2.0 : CWLS LOG ASCII STANDARD - VERSION 2.0
 WRAP. NO  : ONE LINE PER DEPTH STEP
~WELL INFORMATION
#MNEM.UNIT         DATA                                DESCRIPTION OF MNEMONIC
#------------------------------------------------------------------------------
 STRT.M          7.0800                            :   START DEPTH
 STOP.M        258.0000                            :   STOP DEPTH
 STEP.M          0.0100                            :   STEP VALUE
 NULL.        -999.2500                            :   NULL VALUE
 COMP.    Coal Authority                           :   COMPANY NAME
 WELL.    Mainsforth Shaft                         :   WELL NAME
 FLD.     Mainsforth                               :   FIELD NAME
 LOC.     N/A                                      :   LOCATION
 PROV.    N/A                                      :   PROVINCE
 SRVC.    N/A                                      :   SERVICE COMPANY NAME
 DATE.    20 May 08                                :   DATE
 UWI.     N/A                                      :   UNIQUE WELL IDENTIFIER
~PARAMETER INFORMATION
#MNEMO.UNIT         VALUE                 DESCRIPTION OF MNEMONIC
#------------------------------------------------------------------------------
~OTHER INFORMATION SECTION
#------------------------------------------------------------------------------
 TCDS 1365
~CURVE INFORMATION
#MNEMO.UNIT         API CODE              CURVE DESCRIPTION
#------------------------------------------------------------------------------
 DEPTH.M                                 :   0     Depth
 TEMP.DegC                               :   1     Temperature
 COND.uS/cm                              :   2     Absolute Conductivity
 COND.uS/cm                              :   3     Conductivity@25DegC
 DELT.DegC                               :   4     Delta T
 DELC.uS/cm                              :   5     Delta C
#------------------------------------------------------------------------------
~A  DEPTH     TEMP      COND      COND      DELT      DELC      
# ...
   123.24     12.29   2379.95   3190.83      0.00     -0.41 
   123.25     12.29   2387.23   3201.00     -0.01      8.15 
   123.26     12.29   2379.95   3190.83     -0.00      0.41 
   123.27     12.29   2381.77   3193.27      0.00      2.44 
   123.28     12.29   2387.23   3201.00     -0.01     10.59 
   123.29     12.28   2379.95   3191.65     -0.02      1.65 
   123.30     12.28   2387.23   3201.41     -0.02      9.39 
   123.31     12.29   2387.23   3201.00     -0.02     11.41 
   123.32     12.30   2381.77   3192.85      0.00      2.03 
   123.33     12.31   2379.95   3189.59      0.03     -2.48 
   123.34     12.29   2387.23   3200.58      0.02      8.11 
   123.35     12.29   2387.23   3200.58      0.02      5.25 
   123.36     12.29   2379.95   3191.24      0.01     -0.83 
   123.37     12.28   2387.23   3201.41     -0.01     10.59 
   123.38     12.28   2379.95   3191.65     -0.00     -2.03 
   123.39     12.28   2387.23   3201.83     -0.01     10.59 
   123.40     12.28   2379.95   3191.65     -0.01      1.24 
   123.41     12.29   2387.23   3200.58      0.01      6.49 
   123.42     12.30   2387.23   3200.17      0.01      8.93 
   123.43     12.30   2379.95   3190.00      0.01     -3.68 
   123.44     12.30   2387.23   3199.76      0.01      8.52 
   123.45     12.30   2379.95   3190.41      0.00    -10.17 
   123.46     12.29   2387.23   3200.58      0.01     15.03 
   123.47     12.29   2379.95   3190.83      0.01    -10.59 
   123.48     12.29   2379.95   3191.24      0.00     -0.41 
   123.49     12.29   2388.14   3202.22      0.00      8.13 
   123.50     12.30   2379.95   3190.41      0.01     -0.83 
   123.51     12.28   2387.23   3201.41     -0.01      8.15 
   123.52     12.29   2387.23   3201.00      0.00      9.76 
   123.53     12.29   2379.95   3191.24     -0.00      0.41 
   123.54     12.28   2387.23   3201.83      0.00      7.32 
   123.55     12.28   2387.23   3201.41      0.01      8.94 
   123.56     12.29   2379.95   3191.24      0.00     -2.85 
   123.57     12.29   2387.23   3201.00      0.01      8.93 
   123.58     12.30   2379.95   3190.41      0.00     -9.76 
   123.59     12.29   2387.23   3200.58     -0.01      8.56 
   123.60     12.29   2388.14   3202.22     -0.00     11.39 
   123.61     12.28   2379.95   3192.07     -0.01      1.24 
   123.62     12.27   2387.23   3202.24     -0.01      8.15 
   123.63     12.28   2387.23   3201.83     -0.00     10.18 
   123.64     12.29   2379.95   3191.24      0.00     -2.44 
   123.65     12.30   2387.23   3199.76      0.01     -1.24 
   123.66     12.30   2388.14   3200.98      0.00     10.56 
   123.67     12.31   2379.95   3189.59      0.01     -3.68 
   123.68     12.31   2387.23   3199.34      0.01      8.52 
   123.69     12.29   2387.23   3200.58      0.00      9.76 
   123.70     12.30   2387.23   3200.17      0.01      6.08 
   123.71     12.30   2379.95   3190.41      0.01    -10.59 
   123.72     12.30   2387.23   3200.17      0.00      9.34 
   123.73     12.31   2388.14   3200.56      0.02      6.88 
   123.74     12.31   2379.95   3189.59      0.01     -1.24 
   123.75     12.30   2387.23   3199.76      0.01      6.49 
   123.76     12.30   2387.23   3200.17      0.01     -0.83 
   123.77     12.30   2387.23   3200.17      0.01      8.93 
   123.78     12.30   2379.95   3190.41      0.00     -0.41 
   123.79     12.29   2388.14   3201.80      0.01      7.71 
   123.80     12.29   2387.23   3201.00      0.00     -0.41 
   123.81     12.28   2379.95   3191.65     -0.00      0.41 
   123.82     12.27   2387.23   3202.24     -0.01      8.15 
   123.83     12.27   2387.23   3202.24     -0.01      0.83 
   123.84     12.27   2387.23   3202.24     -0.01     10.59 
   123.85     12.28   2379.95   3191.65     -0.00     -2.03 
   123.86     12.29   2388.14   3202.22      0.00     10.57 
   123.87     12.29   2387.23   3201.00      0.00     -0.41 
   123.88     12.28   2387.23   3201.41     -0.00     10.17 
   123.89     12.28   2379.95   3192.07      0.00     -2.44 
   123.90     12.29   2387.23   3201.00      0.00     -0.41 
   123.91     12.29   2387.23   3201.00     -0.00     10.17 
   123.92     12.30   2388.14   3200.98      0.00     10.56 
   123.93     12.29   2379.95   3190.83      0.00     -2.44 
   123.94     12.28   2387.23   3201.83     -0.03      2.49 
   123.95     12.28   2387.23   3201.83     -0.03     12.65 
   123.96     12.27   2387.23   3202.24     -0.03      9.80 
   123.97     12.28   2387.23   3201.41     -0.02      1.66 
   123.98     12.30   2381.77   3192.85     -0.00      2.85 
   123.99     12.30   2387.23   3200.17     -0.00      0.41 
   124.00     12.30   2387.23   3200.17     -0.01      8.14 
   124.01     12.30   2387.23   3200.17     -0.01     10.58 
   124.02     12.30   2387.23   3200.17      0.00     -0.41 
   124.03     12.30   2388.14   3201.39      0.01      9.74 
   124.04     12.30   2387.23   3199.76      0.02      8.10 
   124.05     12.30   2387.23   3200.17      0.01     -0.83 
   124.06     12.28   2379.95   3192.07     -0.02      1.65 
   124.07     12.28   2387.23   3201.83     -0.03      2.49 
   124.08     12.28   2387.23   3201.41     -0.03     12.24 
   124.09     12.29   2387.23   3200.58     -0.02      1.66 
   124.10     12.31   2387.23   3199.34      0.00      9.76 
   124.11     12.31   2388.14   3200.15      0.01      7.71 
   124.12     12.30   2387.23   3199.76      0.01     -1.24 
   124.13     12.29   2387.23   3201.00      0.01      8.52 
   124.14     12.28   2387.23   3201.83      0.00     -0.41 
   124.15     12.27   2387.23   3202.24      0.00      9.76 
   124.16     12.27   2387.23   3202.24      0.00      0.00 
   124.17     12.28   2387.23   3201.83      0.00      9.76 
   124.18     12.28   2387.23   3201.41      0.00      0.00 
   124.19     12.30   2387.23   3200.17      0.00      9.34 
   124.20     12.31   2387.23   3199.34      0.01     -2.05 
   124.21     12.31   2387.23   3198.93      0.01      8.52 
   124.22     12.32   2381.77   3191.20      0.02     -9.38 
   124.23     12.30   2387.23   3199.76      0.01      8.93 
   124.24     12.29   2387.23   3200.58      0.00     -0.41 
   124.25     12.29   2387.23   3201.00     -0.00     10.17 
   124.26     12.28   2387.23   3201.41     -0.01      8.15 
   124.27     12.28   2387.23   3201.83     -0.01      0.83 
   124.28     12.28   2387.23   3201.83     -0.00     10.18 
   124.29     12.28   2387.23   3201.83     -0.00      0.41 
   124.30     12.28   2387.23   3201.41     -0.00      0.41 
   124.31     12.29   2387.23   3200.58     -0.00      7.73 
   124.32     12.29   2395.42   3211.56     -0.01     21.98 
   124.33     12.30   2387.23   3200.17      0.00     -0.41 
   124.34     12.29   2387.23   3200.58      0.00      0.00 
   124.35     12.29   2387.23   3201.00      0.00      9.76 
   124.36     12.29   2387.23   3200.58      0.01     -0.83 
   124.37     12.29   2388.14   3202.22      0.00     10.57 
   124.38     12.28   2387.23   3201.41      0.00     -0.41 
   124.39     12.28   2387.23   3201.41      0.00      9.76 
   124.40     12.28   2387.23   3201.41     -0.01      0.83 
   124.41     12.28   2387.23   3201.41     -0.01      1.24 
   124.42     12.30   2387.23   3200.17     -0.00     10.17 
   124.43     12.31   2387.23   3199.34      0.00     -0.41 
   124.44     12.31   2387.23   3199.34      0.01      8.93 
   124.45     12.30   2388.14   3200.98      0.01      0.39 
   124.46     12.29   2387.23   3200.58      0.00      9.76 
   124.47     12.28   2387.23   3201.83     -0.01     10.59 
   124.48     12.28   2387.23   3201.83     -0.01     -0.39 
   124.49     12.28   2387.23   3201.41     -0.01     11.00 
   124.50     12.28   2388.14   3202.63      0.00      1.22 
   124.51     12.29   2387.23   3201.00      0.00      0.00 
   124.52     12.29   2395.42   3211.56      0.00     20.33 
   124.53     12.29   2387.23   3201.00      0.01     -0.83 
   124.54     12.30   2387.23   3199.76      0.02     -1.66 
   124.55     12.31   2387.23   3199.34      0.02      8.10 
