#Written by Robertson Geologging WinLogger V1.5/410
~VERSION INFORMATION
#------------------------------------------------------------------------------
 VERS. 2.0 : CWLS LOG ASCII STANDARD - VERSION 2.0
 WRAP. NO  : ONE LINE PER DEPTH STEP
~WELL INFORMATION
#MNEM.UNIT         DATA                                DESCRIPTION OF MNEMONIC
#------------------------------------------------------------------------------
 STRT.M          6.2700                            :   START DEPTH
 STOP.M        256.6400                            :   STOP DEPTH
 STEP.M          0.0100                            :   STEP VALUE
 NULL.        -999.2500                            :   NULL VALUE
 COMP.    IWS                                      :   COMPANY NAME
 WELL.    MAINSFORTH                               :   WELL NAME
 FLD.     DURHAM                                   :   FIELD NAME
 LOC.     N/A                                      :   LOCATION
 PROV.    N/A                                      :   PROVINCE
 SRVC.    N/A                                      :   SERVICE COMPANY NAME
 DATE.    16 Dec 09                                :   DATE
 UWI.     N/A                                      :   UNIQUE WELL IDENTIFIER
~PARAMETER INFORMATION
#MNEMO.UNIT         VALUE                 DESCRIPTION OF MNEMONIC
#------------------------------------------------------------------------------
~OTHER INFORMATION SECTION
#------------------------------------------------------------------------------
 TCDS 1365
~CURVE INFORMATION
#MNEMO.UNIT         API CODE              CURVE DESCRIPTION
#------------------------------------------------------------------------------
 DEPTH.M                                 :   0     Depth
 TEMP.DegC                               :   1     Temperature
 COND.uS/cm                              :   2     Conductivity@25DegC
 COND.uS/cm                              :   3     Absolute Conductivity
 DELT.DegC                               :   4     Delta T
 DELC.uS/cm                              :   5     Delta C
#------------------------------------------------------------------------------
~A  DEPTH          TEMP          COND          COND          DELT          DELC
# ...
    72.27         11.00       2130.57       1533.82         -0.00         -0.30
    72.28         11.00       2130.60       1533.82         -0.01         -0.22
    72.29         10.99       2132.40       1535.08         -0.01         -2.50
    72.30         10.99       2132.42       1535.08         -0.01          1.63
    72.31         10.99       2130.65       1533.82         -0.01         -0.14
    72.32         10.99       2130.65       1533.82         -0.01         -4.19
    72.33         10.99       2134.70       1536.76         -0.01          2.21
    72.34         11.00       2130.57       1533.82         -0.01         -0.17
    72.35         11.00       2130.52       1533.82         -0.01         -2.02
    72.36         11.00       2132.82       1535.50         -0.00         -2.17
    72.37         11.00       2132.77       1535.50         -0.00          4.68
    72.38         11.00       2130.37       1533.82          0.00         -1.90
    72.39         11.00       2130.31       1533.82          0.00         -1.95
    72.40         11.00       2130.21       1533.82          0.00          2.07
    72.41         11.00       2132.51       1535.50          0.00          0.32
    72.42         11.00       2134.21       1536.76          0.00          2.04
    72.43         11.00       2130.03       1533.82          0.01          1.92
    72.44         11.01       2129.95       1533.82          0.01         -2.26
    72.45         11.01       2133.92       1536.76          0.01         -0.12
    72.46         11.01       2129.77       1533.82          0.01          1.53
    72.47         11.01       2129.69       1533.82          0.02         -0.35
    72.48         11.01       2129.64       1533.82          0.02         -4.61
    72.49         11.01       2133.64       1536.76          0.02          3.42
    72.50         11.01       2129.51       1533.82          0.02         -0.79
    72.51         11.01       2132.45       1535.92          0.02         -1.98
    72.52         11.01       2130.17       1534.24          0.02         -0.13
    72.53         11.01       2130.33       1534.24          0.02          1.80
    72.54         11.01       2134.56       1537.17          0.02          2.01
    72.55         11.00       2130.61       1534.24          0.01         -1.92
    72.56         11.00       2130.72       1534.24          0.01          2.29
    72.57         11.00       2134.82       1537.17          0.01          2.29
    72.58         11.00       2132.49       1535.50          0.01         -0.01
    72.59         11.00       2132.44       1535.50          0.01          4.06
    72.60         11.00       2130.72       1534.24          0.01         -1.68
    72.61         11.00       2134.84       1537.17          0.01          2.50
    72.62         11.00       2127.93       1532.14          0.00         -0.28
    72.63         11.00       2132.09       1535.08          0.00         -0.18
    72.64         11.00       2132.04       1535.08          0.00         -1.95
    72.65         11.00       2127.96       1532.14          0.00         -4.21
    72.66         11.00       2132.01       1535.08          0.00         -0.16
    72.67         11.00       2131.98       1535.08          0.00         -0.21
    72.68         11.00       2127.96       1532.14          0.00         -4.21
    72.69         11.00       2132.06       1535.08          0.00         -0.08
    72.70         11.00       2132.11       1535.08         -0.00          0.08
    72.71         11.00       2132.19       1535.08         -0.00          0.28
    72.72         11.00       2128.19       1532.14         -0.01         -3.56
    72.73         11.00       2132.32       1535.08         -0.01         -1.68
    72.74         10.99       2132.37       1535.08         -0.01          2.42
    72.75         10.99       2128.35       1532.14         -0.01         -1.61
    72.76         10.99       2132.40       1535.08         -0.01          0.62
    72.77         11.00       2132.35       1535.08         -0.01          4.65
    72.78         11.00       2128.24       1532.14         -0.01         -3.43
    72.79         11.00       2132.24       1535.08         -0.01          0.67
    72.80         11.00       2132.22       1535.08         -0.01          4.85
    72.81         11.00       2130.47       1533.82         -0.01         -0.89
    72.82         11.00       2132.22       1535.08         -0.01          2.60
    72.83         11.00       2132.27       1535.08         -0.01          2.57
    72.84         11.00       2132.32       1535.08         -0.01          4.90
    72.85         11.00       2132.32       1535.08         -0.01          0.83
    72.86         11.00       2132.32       1535.08         -0.01          0.80
    72.87         11.00       2132.35       1535.08         -0.01          4.88
    72.88         10.99       2132.45       1535.08         -0.01         -2.03
    72.89         10.99       2134.88       1536.76         -0.02          4.43
    72.90         10.99       2130.96       1533.82         -0.02          0.40
    72.91         10.99       2131.04       1533.82         -0.02         -3.70
    72.92         10.99       2132.76       1535.08         -0.01         -0.36
    72.93         10.99       2128.55       1532.14         -0.01         -2.32
    72.94         10.99       2132.42       1535.08         -0.01          1.55
    72.95         11.00       2130.47       1533.82         -0.00         -4.50
    72.96         11.00       2130.31       1533.82          0.00         -2.96
    72.97         11.00       2134.34       1536.76          0.00          1.04
    72.98         11.00       2126.13       1530.89          0.00         -7.17
    72.99         11.00       2126.08       1530.89          0.00         -4.23
    73.00         11.00       2127.75       1532.14          0.00         -4.81
    73.01         11.01       2127.67       1532.14          0.00         -3.04
    73.02         11.00       2127.70       1532.14         -0.00         -1.14
    73.03         11.00       2127.83       1532.14         -0.00         -2.65
    73.04         11.00       2128.04       1532.14         -0.01         -6.47
    73.05         11.00       2126.50       1530.89         -0.01         -6.32
    73.06         10.99       2128.37       1532.14         -0.01         -0.47
    73.07         10.99       2128.42       1532.14         -0.01         -2.21
    73.08         10.99       2124.32       1529.21         -0.01         -6.37
    73.09         10.99       2132.45       1535.08         -0.01          1.73
    73.10         10.99       2130.62       1533.82         -0.01         -0.14
    73.11         11.00       2130.60       1533.82         -0.01         -1.99
    73.12         11.00       2130.57       1533.82         -0.00         -2.10
    73.13         11.00       2130.52       1533.82         -0.00         -4.02
    73.14         11.00       2130.47       1533.82          0.00         -0.13
    73.15         11.00       2132.72       1535.50          0.00          2.04
    73.16         11.00       2134.39       1536.76          0.01          1.97
    73.17         11.00       2130.26       1533.82          0.01         -4.39
    73.18         11.00       2130.21       1533.82          0.00         -0.21
    73.19         11.00       2132.49       1535.50          0.00          2.12
    73.20         11.00       2132.46       1535.50          0.00         -1.95
    73.21         11.00       2130.11       1533.82          0.00         -0.26
    73.22         11.00       2130.11       1533.82          0.01         -0.34
    73.23         11.00       2134.18       1536.76          0.01          1.97
    73.24         11.00       2132.38       1535.50          0.01          4.22
    73.25         11.01       2132.31       1535.50          0.01          0.04
    73.26         11.01       2129.93       1533.82          0.01         -0.65
