#Written by Robertson Geologging WinLogger V1.5/410
~VERSION INFORMATION
#------------------------------------------------------------------------------
 VERS. 2.0 : CWLS LOG ASCII STANDARD - VERSION 2.0
 WRAP. NO  : ONE LINE PER DEPTH STEP
~WELL INFORMATION
#MNEM.UNIT         DATA                                DESCRIPTION OF MNEMONIC
#------------------------------------------------------------------------------
 STRT.M          6.2700                            :   START DEPTH
 STOP.M        256.6400                            :   STOP DEPTH
 STEP.M          0.0100                            :   STEP VALUE
 NULL.        -999.2500                            :   NULL VALUE
 COMP.    IWS                                      :   COMPANY NAME
 WELL.    MAINSFORTH                               :   WELL NAME
 FLD.     DURHAM                                   :   FIELD NAME
 LOC.     N/A                                      :   LOCATION
 PROV.    N/A                                      :   PROVINCE
 SRVC.    N/A                                      :   SERVICE COMPANY NAME
 DATE.    16 Dec 09                                :   DATE
 UWI.     N/A                                      :   UNIQUE WELL IDENTIFIER
~PARAMETER INFORMATION
#MNEMO.UNIT         VALUE                 DESCRIPTION OF MNEMONIC
#------------------------------------------------------------------------------
~OTHER INFORMATION SECTION
#------------------------------------------------------------------------------
 TCDS 1365
~CURVE INFORMATION
#MNEMO.UNIT         API CODE              CURVE DESCRIPTION
#------------------------------------------------------------------------------
 DEPTH.M                                 :   0     Depth
 TEMP.DegC                               :   1     Temperature
 COND.uS/cm                              :   2     Conductivity@25DegC
 COND.uS/cm                              :   3     Absolute Conductivity
 DELT.DegC                               :   4     Delta T
 DELC.uS/cm                              :   5     Delta C
#------------------------------------------------------------------------------
~A  DEPTH          TEMP          COND          COND          DELT          DELC
# ...
   238.27         14.12       4659.74       3646.22          0.00          0.92
   238.28         14.13       4655.82       3643.27          0.00         -2.69
   238.29         14.13       4654.59       3642.43          0.00         -3.76
   238.30         14.13       4658.20       3645.38          0.00          0.00
   238.31         14.13       4659.07       3646.22         -0.00          1.18
   238.32         14.13       4655.10       3643.27          0.00         -1.13
   238.33         14.13       4657.84       3645.38         -0.00          0.64
   238.34         14.13       4658.10       3645.38         -0.00          1.11
   238.35         14.13       4658.25       3645.38         -0.01         -1.42
   238.36         14.13       4655.72       3643.27         -0.01         -1.32
   238.37         14.13       4658.62       3645.38         -0.01          1.58
   238.38         14.12       4658.72       3645.38         -0.01          2.60
   238.39         14.12       4658.77       3645.38         -0.01         -1.53
   238.40         14.12       4658.77       3645.38         -0.00          0.95
   238.41         14.12       4658.83       3645.38         -0.00          1.82
   238.42         14.12       4658.77       3645.38          0.00          1.51
   238.43         14.12       4658.83       3645.38          0.00         -0.10
   238.44         14.12       4658.83       3645.38          0.00         -0.05
   238.45         14.13       4658.62       3645.38          0.00          1.02
   238.46         14.13       4658.57       3645.38         -0.00          0.10
   238.47         14.13       4658.36       3645.38         -0.00          0.16
   238.48         14.13       4658.15       3645.38         -0.00          0.05
   238.49         14.13       4657.99       3645.38          0.00         -0.05
   238.50         14.13       4657.78       3645.38         -0.00          3.82
   238.51         14.13       4657.84       3645.38         -0.00          0.21
   238.52         14.13       4657.78       3645.38         -0.00         -0.76
   238.53         14.13       4657.73       3645.38         -0.00          0.47
   238.54         14.13       4660.37       3647.48         -0.00          3.16
   238.55         14.13       4657.47       3645.38         -0.00          0.42
   238.56         14.14       4657.32       3645.38         -0.00         -0.92
   238.57         14.14       4656.09       3644.53          0.00         -1.23
   238.58         14.14       4656.14       3644.53          0.00         -1.34
   238.59         14.14       4657.32       3645.38          0.00         -0.21
   238.60         14.14       4656.35       3644.53         -0.00          1.66
   238.61         14.13       4660.32       3647.48         -0.00          1.87
   238.62         14.13       4657.68       3645.38         -0.00          0.31
   238.63         14.13       4657.73       3645.38         -0.00          0.31
   238.64         14.13       4656.66       3644.53         -0.00          1.72
   238.65         14.13       4657.68       3645.38          0.00         -1.23
   238.66         14.13       4657.58       3645.38          0.00          2.27
   238.67         14.13       4656.40       3644.53          0.01          1.96
   238.68         14.13       4657.47       3645.38          0.01          1.91
   238.69         14.13       4657.47       3645.38          0.01         -1.91
   238.70         14.13       4657.52       3645.38          0.01         -1.04
   238.71         14.13       4657.63       3645.38          0.01         -1.14
   238.72         14.13       4657.58       3645.38          0.01         -1.30
   238.73         14.13       4657.47       3645.38          0.01         -1.25
   238.74         14.14       4656.35       3644.53          0.01         -2.17
   238.75         14.13       4657.52       3645.38          0.01          0.94
   238.76         14.13       4653.97       3642.43          0.00         -2.31
   238.77         14.13       4658.04       3645.38         -0.00         -1.84
   238.78         14.13       4658.36       3645.38         -0.01         -1.27
   238.79         14.13       4658.41       3645.38         -0.01          2.76
   238.80         14.13       4658.41       3645.38         -0.01          3.94
   238.81         14.13       4658.31       3645.38         -0.01          2.91
   238.82         14.13       4658.20       3645.38         -0.01         -0.95
   238.83         14.13       4658.36       3645.38         -0.01          0.17
   238.84         14.13       4658.46       3645.38         -0.01          2.91
   238.85         14.13       4658.62       3645.38         -0.01          3.07
   238.86         14.12       4658.67       3645.38         -0.01         -1.23
   238.87         14.13       4658.51       3645.38         -0.01          2.38
   238.88         14.13       4657.28       3644.53         -0.01          1.04
   238.89         14.13       4658.15       3645.38         -0.01          1.70
   238.90         14.13       4658.10       3645.38         -0.00         -2.38
   238.91         14.13       4660.73       3647.48         -0.00          2.79
   238.92         14.13       4656.97       3644.53          0.00         -0.05
   238.93         14.13       4656.92       3644.53          0.00         -0.16
   238.94         14.13       4656.76       3644.53          0.00          2.43
   238.95         14.13       4659.50       3646.64          0.00          1.30
   238.96         14.13       4656.76       3644.53          0.00         -0.52
   238.97         14.13       4656.81       3644.53          0.01         -1.70
   238.98         14.13       4659.55       3646.64          0.01          0.88
   238.99         14.13       4660.63       3647.48          0.01          1.96
   239.00         14.13       4659.71       3646.64          0.00          0.12
   239.01         14.13       4656.00       3643.69          0.00          0.38
   239.02         14.13       4657.13       3644.53         -0.00         -2.05
   239.03         14.13       4660.84       3647.48         -0.00          4.51
   239.04         14.13       4658.10       3645.38         -0.00          2.95
   239.05         14.13       4656.92       3644.53         -0.00         -1.99
   239.06         14.13       4657.78       3645.38          0.00         -1.18
   239.07         14.13       4657.78       3645.38          0.00          1.51
   239.08         14.13       4657.68       3645.38          0.00          2.48
   239.09         14.13       4657.52       3645.38          0.00         -1.44
   239.10         14.13       4657.52       3645.38          0.00          2.17
   239.11         14.14       4654.68       3643.27          0.01          0.24
   239.12         14.14       4657.32       3645.38          0.01         -1.04
   239.13         14.13       4657.47       3645.38          0.01         -1.20
   239.14         14.13       4657.63       3645.38          0.01         -1.25
   239.15         14.13       4657.68       3645.38          0.01         -1.40
   239.16         14.13       4658.86       3646.22          0.01         -0.33
   239.17         14.13       4657.89       3645.38          0.01         -1.40
   239.18         14.13       4657.73       3645.38          0.01         -1.72
   239.19         14.13       4657.58       3645.38          0.02         -2.08
   239.20         14.14       4658.50       3646.22          0.02         -1.37
   239.21         14.14       4654.47       3643.27          0.02         -5.34
   239.22         14.14       4658.18       3646.22          0.02         -2.55
   239.23         14.14       4658.08       3646.22          0.02         -2.55
   239.24         14.14       4657.87       3646.22          0.02         -1.37
   239.25         14.14       4654.00       3643.27          0.02         -4.87
   239.26         14.14       4657.77       3646.22          0.02         -1.98
