#Written by Robertson Geologging WinLogger V1.0/406
~VERSION INFORMATION
#------------------------------------------------------------------------------
 VERS. 2.0 : CWLS LOG ASCII STANDARD - VERSION 2.0
 WRAP. NO  : ONE LINE PER DEPTH STEP
~WELL INFORMATION
#MNEM.UNIT         DATA                                DESCRIPTION OF MNEMONIC
#------------------------------------------------------------------------------
 STRT.M          7.6600                            :   START DEPTH
 STOP.M        258.0000                            :   STOP DEPTH
 STEP.M          0.0100                            :   STEP VALUE
 NULL.        -999.2500                            :   NULL VALUE
 COMP.    I.W.S.                                   :   COMPANY NAME
 WELL.    Mainsforth                               :   WELL NAME
 FLD.     Mainsforth                               :   FIELD NAME
 LOC.     N/A                                      :   LOCATION
 PROV.    N/A                                      :   PROVINCE
 SRVC.    N/A                                      :   SERVICE COMPANY NAME
 DATE.    21 Jul 09                                :   DATE
 UWI.     N/A                                      :   UNIQUE WELL IDENTIFIER
~PARAMETER INFORMATION
#MNEMO.UNIT         VALUE                 DESCRIPTION OF MNEMONIC
#------------------------------------------------------------------------------
~OTHER INFORMATION SECTION
#------------------------------------------------------------------------------
 TCGS 1365
~CURVE INFORMATION
#MNEMO.UNIT         API CODE              CURVE DESCRIPTION
#------------------------------------------------------------------------------
 DEPTH.M                                 :   0     Depth
 TEMP.DegC                               :   1     Temperature
 CN25.uS/cm                              :   2     Conductivity@25DegC
 DELT.DegC                               :   3     Delta T
 DELC.uS/cm                              :   4     Delta C
 NGAM.CPS                                :   5     Natural Gamma
 COND.uS/cm                              :   6     Conductivity
#------------------------------------------------------------------------------
~A  DEPTH     TEMP      CN25      DELT      DELC      NGAM      COND      
# ...
   190.72     12.49   3590.48      0.00      0.00      7.00   2687.88 
   190.73     12.49   3595.81     -0.00      5.33      0.00   2691.53 
   190.74     12.48   3591.41     -0.02      1.86      7.00   2687.88 
   190.75     12.49   3590.94     -0.01      0.93      0.00   2687.88 
   190.76     12.49   3590.94     -0.01      0.93      0.00   2687.88 
   190.77     12.50   3590.01      0.00     -4.87      0.00   2687.88 
   190.78     12.51   3593.94      0.01      3.47      0.00   2691.53 
   190.79     12.50   3589.54      0.02     -1.86      0.00   2687.88 
   190.80     12.50   3589.54      0.02     -2.33      0.00   2687.88 
   190.81     12.49   3590.48      0.01      7.12      0.00   2687.88 
   190.82     12.48   3591.41      0.00     -0.47      0.00   2687.88 
   190.83     12.49   3590.94      0.01     -0.93      0.00   2687.88 
   190.84     12.49   3599.46      0.00     -0.47      0.00   2694.27 
   190.85     12.49   3590.48      0.01     -0.93      0.00   2687.88 
   190.86     12.50   3585.90      0.00     -4.11      0.00   2685.14 
   190.87     12.49   3590.48     -0.01      0.93      0.00   2687.88 
   190.88     12.49   3590.94     -0.01      4.58      0.00   2687.88 
   190.89     12.48   3591.41     -0.01      0.93      0.00   2687.88 
   190.90     12.47   3592.34     -0.00      0.47      0.00   2687.88 
   190.91     12.47   3600.86     -0.00      0.47      0.00   2694.27 
   190.92     12.47   3592.34     -0.01      0.93      0.00   2687.88 
   190.93     12.47   3592.81     -0.01      5.05      0.00   2687.88 
   190.94     12.47   3592.34     -0.02      1.87      0.00   2687.88 
   190.95     12.47   3592.81     -0.01      1.40      0.00   2687.88 
   190.96     12.47   3592.81     -0.01      1.40      7.00   2687.88 
   190.97     12.48   3591.41     -0.00     -8.05      0.00   2687.88 
   190.98     12.47   3592.34     -0.01      5.05      0.00   2687.88 
   190.99     12.48   3591.41     -0.00      0.47      0.00   2687.88 
   191.00     12.50   3590.01      0.02     -1.87      0.00   2687.88 
   191.01     12.50   3598.53      0.02      6.18      7.00   2694.27 
   191.02     12.51   3589.08      0.03     -3.26      0.00   2687.88 
   191.03     12.51   3585.43      0.02    -14.03      0.00   2685.14 
   191.04     12.51   3589.08      0.02      1.79      0.00   2687.88 
   191.05     12.49   3590.48      0.00     -0.47      0.00   2687.88 
   191.06     12.48   3599.93      0.00      8.05      0.00   2694.27 
   191.07     12.48   3591.41      0.00     -0.47      0.00   2687.88 
   191.08     12.48   3591.41     -0.00      0.47      0.00   2687.88 
   191.09     12.49   3590.48      0.00      0.00      0.00   2687.88 
   191.10     12.50   3589.54      0.00     -4.87      0.00   2687.88 
   191.11     12.50   3586.36     -0.00     -3.18      0.00   2685.14 
   191.12     12.49   3598.99      0.00      8.05      0.00   2694.27 
   191.13     12.49   3590.94      0.00      0.00      0.00   2687.88 
   191.14     12.49   3590.94      0.00     -0.47      0.00   2687.88 
   191.15     12.50   3590.01      0.01     -0.93      0.00   2687.88 
   191.16     12.50   3586.36      0.00     -8.52      0.00   2685.14 
   191.17     12.50   3590.01      0.00     -0.47      0.00   2687.88 
   191.18     12.50   3598.53      0.00      8.52      0.00   2694.27 
   191.19     12.49   3590.94     -0.00      0.47      0.00   2687.88 
   191.20     12.49   3587.29     -0.01     -2.72      0.00   2685.14 
   191.21     12.49   3590.94     -0.01      1.40      0.00   2687.88 
   191.22     12.48   3591.88     -0.03     -2.07      0.00   2687.88 
   191.23     12.48   3599.93     -0.02     10.38      0.00   2694.27 
   191.24     12.49   3590.48      0.00     -0.47      0.00   2687.88 
   191.25     12.49   3586.83      0.01     -4.58      0.00   2685.14 
   191.26     12.50   3590.01      0.01     -1.40      0.00   2687.88 
   191.27     12.49   3590.48      0.01     -0.93      0.00   2687.88 
   191.28     12.49   3599.46      0.00      0.00      0.00   2694.27 
   191.29     12.48   3591.41     -0.01      4.58      0.00   2687.88 
   191.30     12.48   3591.41     -0.01      1.40      0.00   2687.88 
   191.31     12.49   3590.94      0.00      0.00      0.00   2687.88 
   191.32     12.48   3587.76     -0.00     -3.18      0.00   2685.14 
   191.33     12.48   3591.41      0.00      0.00      0.00   2687.88 
   191.34     12.47   3601.33     -0.01      9.92      0.00   2694.27 
   191.35     12.46   3593.74     -0.04     -4.78      0.00   2687.88 
   191.36     12.47   3592.81     -0.03      2.80      0.00   2687.88 
   191.37     12.48   3583.36     -0.02     -6.65      7.00   2681.50 
   191.38     12.49   3590.94     -0.01      0.93      7.00   2687.88 
   191.39     12.49   3595.34     -0.00      5.33      0.00   2691.53 
   191.40     12.49   3590.94     -0.01      0.93      0.00   2687.88 
   191.41     12.48   3591.41     -0.01      1.40      0.00   2687.88 
   191.42     12.47   3592.34     -0.03      2.80      7.00   2687.88 
   191.43     12.47   3592.81     -0.03      3.26      0.00   2687.88 
   191.44     12.47   3592.34     -0.03      2.80      0.00   2687.88 
   191.45     12.49   3590.94     -0.01     -7.12      0.00   2687.88 
   191.46     12.49   3595.34     -0.00      5.33      0.00   2691.53 
   191.47     12.49   3590.48      0.00     -0.47      0.00   2687.88 
   191.48     12.48   3591.41      0.00      0.00      0.00   2687.88 
   191.49     12.47   3592.34     -0.01      0.93      7.00   2687.88 
   191.50     12.47   3592.34     -0.01      0.93      7.00   2687.88 
   191.51     12.47   3592.34     -0.01      0.93      0.00   2687.88 
   191.52     12.47   3592.81     -0.01      1.40      0.00   2687.88 
   191.53     12.48   3591.88     -0.00      0.47      0.00   2687.88 
   191.54     12.48   3591.41      0.00     -0.47      0.00   2687.88 
   191.55     12.48   3599.93      0.00      8.52      0.00   2694.27 
   191.56     12.49   3590.48      0.00     -8.98      0.00   2687.88 
   191.57     12.50   3590.01      0.01     -0.93      0.00   2687.88 
   191.58     12.49   3590.48     -0.00      0.47      0.00   2687.88 
   191.59     12.50   3590.01      0.00      0.00      0.00   2687.88 
   191.60     12.49   3590.48      0.00      0.00      0.00   2687.88 
   191.61     12.49   3590.94     -0.02      1.86      0.00   2687.88 
   191.62     12.49   3590.48     -0.01      1.40      0.00   2687.88 
   191.63     12.49   3590.48     -0.02      1.86      0.00   2687.88 
   191.64     12.50   3598.53     -0.01      9.91      0.00   2694.27 
   191.65     12.49   3590.48     -0.02      1.86      0.00   2687.88 
   191.66     12.48   3591.41     -0.02     -2.53      0.00   2687.88 
   191.67     12.48   3591.41     -0.01      0.93      0.00   2687.88 
   191.68     12.48   3591.41     -0.01      0.93      0.00   2687.88 
   191.69     12.48   3591.41     -0.00      0.47      0.00   2687.88 
   191.70     12.49   3595.81      0.00      4.40      0.00   2691.53 
   191.71     12.49   3590.48      0.00      0.00      0.00   2687.88 
   191.72     12.50   3590.01      0.01     -5.80      0.00   2687.88 
   191.73     12.49   3590.48      0.01     -0.93      0.00   2687.88 
   191.74     12.49   3590.94      0.00      0.00      0.00   2687.88 
   191.75     12.49   3590.48      0.00     -0.47      0.00   2687.88 
   191.76     12.48   3591.41     -0.01      1.40      0.00   2687.88 
   191.77     12.49   3590.48     -0.01     -3.47      0.00   2687.88 
   191.78     12.50   3589.54      0.00      0.00      0.00   2687.88 
   191.79     12.50   3598.53     -0.00      8.98      7.00   2694.27 
   191.80     12.49   3586.83      0.00     -3.65      0.00   2685.14 
   191.81     12.48   3591.41      0.00      0.00      0.00   2687.88 
   191.82     12.48   3591.88     -0.01      0.93      0.00   2687.88 
   191.83     12.48   3591.88     -0.01     -7.58      0.00   2687.88 
   191.84     12.48   3591.41     -0.01      0.93      7.00   2687.88 
