#Written by Robertson Geologging WinLogger V1.0/406
~VERSION INFORMATION
#------------------------------------------------------------------------------
 VERS. 2.0 : CWLS LOG ASCII STANDARD - VERSION 2.0
 WRAP. NO  : ONE LINE PER DEPTH STEP
~WELL INFORMATION
#MNEM.UNIT         DATA                                DESCRIPTION OF MNEMONIC
#------------------------------------------------------------------------------
 STRT.M          7.0800                            :   START DEPTH
 STOP.M        258.0000                            :   STOP DEPTH
 STEP.M          0.0100                            :   STEP VALUE
 NULL.        -999.2500                            :   NULL VALUE
 COMP.    Coal Authority                           :   COMPANY NAME
 WELL.    Mainsforth Shaft                         :   WELL NAME
 FLD.     Mainsforth                               :   FIELD NAME
 LOC.     N/A                                      :   LOCATION
 PROV.    N/A                                      :   PROVINCE
 SRVC.    N/A                                      :   SERVICE COMPANY NAME
 DATE.    20 May 08                                :   DATE
 UWI.     N/A                                      :   UNIQUE WELL IDENTIFIER
~PARAMETER INFORMATION
#MNEMO.UNIT         VALUE                 DESCRIPTION OF MNEMONIC
#------------------------------------------------------------------------------
~OTHER INFORMATION SECTION
#------------------------------------------------------------------------------
 TCDS 1365
~CURVE INFORMATION
#MNEMO.UNIT         API CODE              CURVE DESCRIPTION
#------------------------------------------------------------------------------
 DEPTH.M                                 :   0     Depth
 TEMP.DegC                               :   1     Temperature
 COND.uS/cm                              :   2     Absolute Conductivity
 COND.uS/cm                              :   3     Conductivity@25DegC
 DELT.DegC                               :   4     Delta T
 DELC.uS/cm                              :   5     Delta C
#------------------------------------------------------------------------------
~A  DEPTH     TEMP      COND      COND      DELT      DELC      
# ...
   206.40     12.67   2486.45   3299.88     -0.01     10.51 
   206.41     12.68   2478.25   3288.58     -0.00      0.42 
   206.42     12.69   2486.45   3298.19      0.02     -2.11 
   206.43     12.69   2478.25   3287.31      0.02     -2.11 
   206.44     12.69   2479.16   3288.94      0.02     -0.90 
   206.45     12.69   2486.45   3298.61      0.03     -2.96 
   206.46     12.68   2478.25   3288.16      0.02     -2.11 
   206.47     12.68   2486.45   3299.03      0.02      8.77 
   206.48     12.67   2478.25   3289.00      0.01    -11.72 
   206.49     12.67   2486.45   3299.88      0.00      9.67 
   206.50     12.67   2478.25   3289.84     -0.01      1.26 
   206.51     12.67   2486.45   3300.72     -0.02      1.69 
   206.52     12.68   2478.25   3288.58     -0.00      0.42 
   206.53     12.69   2479.16   3288.94      0.01      0.37 
   206.54     12.70   2486.45   3297.76      0.02     -2.11 
   206.55     12.69   2478.25   3287.31      0.02     -1.68 
   206.56     12.68   2486.45   3299.45      0.00     10.45 
   206.57     12.67   2478.25   3289.42      0.00    -10.88 
   206.58     12.67   2486.45   3300.72     -0.00     11.30 
   206.59     12.66   2478.25   3290.26     -0.00      0.42 
   206.60     12.67   2486.45   3300.72      0.00     -0.42 
   206.61     12.66   2478.25   3290.26     -0.01      0.84 
   206.62     12.67   2486.45   3300.72      0.00     10.88 
   206.63     12.67   2478.25   3289.00      0.01    -11.72 
   206.64     12.67   2486.45   3300.30      0.01     10.04 
   206.65     12.67   2478.25   3289.00      0.02    -12.99 
   206.66     12.67   2486.45   3299.88      0.02      9.19 
   206.67     12.67   2479.16   3290.21      0.01     -0.06 
   206.68     12.68   2478.25   3288.58      0.02    -12.99 
   206.69     12.68   2486.45   3299.45      0.02      8.77 
   206.70     12.68   2478.25   3288.58      0.02     -1.69 
   206.71     12.67   2486.45   3300.30      0.00     -0.42 
   206.72     12.66   2478.25   3290.68     -0.02      2.11 
   206.73     12.66   2486.45   3301.57     -0.04      3.38 
   206.74     12.66   2478.25   3290.68     -0.03      2.95 
   206.75     12.66   2486.45   3301.14     -0.02     12.99 
   206.76     12.67   2478.25   3289.84     -0.02     -9.19 
   206.77     12.67   2486.45   3300.72     -0.01     11.72 
   206.78     12.67   2478.25   3289.42      0.00    -10.88 
   206.79     12.67   2486.45   3300.72     -0.01     12.14 
   206.80     12.67   2478.25   3289.84     -0.01      0.84 
   206.81     12.66   2486.45   3301.14     -0.01      0.85 
   206.82     12.66   2478.25   3290.26     -0.02      1.69 
   206.83     12.67   2486.45   3300.72      0.00      0.00 
   206.84     12.66   2478.25   3290.26     -0.00      0.42 
   206.85     12.66   2486.45   3301.14     -0.00     11.30 
   206.86     12.66   2478.25   3290.26     -0.00    -10.46 
   206.87     12.66   2478.25   3290.26     -0.00      0.42 
   206.88     12.66   2478.25   3290.26      0.00    -11.30 
   206.89     12.66   2486.45   3301.57     -0.00     11.30 
   206.90     12.66   2478.25   3290.68     -0.00      0.42 
   206.91     12.66   2486.45   3301.14     -0.00      0.42 
   206.92     12.67   2478.25   3289.84     -0.01      0.84 
   206.93     12.67   2486.45   3300.30     -0.00      0.42 
   206.94     12.67   2478.25   3289.84      0.00      0.00 
   206.95     12.67   2486.45   3300.30      0.02      9.19 
   206.96     12.67   2478.25   3289.84      0.01    -12.15 
   206.97     12.66   2486.45   3301.14      0.00     10.46 
   206.98     12.66   2478.25   3290.26      0.00    -10.88 
   206.99     12.66   2486.45   3301.14     -0.01     11.72 
   207.00     12.66   2478.25   3290.26     -0.01     -0.37 
   207.01     12.65   2486.45   3301.99     -0.02      1.69 
   207.02     12.66   2478.25   3290.26     -0.01      0.84 
   207.03     12.66   2486.45   3301.14      0.00      0.00 
   207.04     12.66   2478.25   3290.26      0.00     -0.42 
   207.05     12.68   2486.45   3299.45      0.02     -2.11 
   207.06     12.67   2479.16   3290.21      0.02     -0.48 
   207.07     12.67   2486.45   3299.88      0.01     10.03 
   207.08     12.67   2478.25   3289.00      0.00    -10.88 
   207.09     12.67   2486.45   3300.72     -0.01     12.14 
   207.10     12.67   2478.25   3289.84     -0.01     -9.61 
   207.11     12.67   2486.45   3300.72     -0.00     11.30 
   207.12     12.66   2478.25   3290.68     -0.02     -9.19 
   207.13     12.67   2486.45   3300.72     -0.00     11.30 
   207.14     12.66   2479.16   3291.47     -0.02     -7.98 
   207.15     12.66   2486.45   3301.57     -0.02     12.99 
   207.16     12.66   2478.25   3290.68     -0.03      2.53 
   207.17     12.65   2486.45   3301.99     -0.03      2.96 
   207.18     12.66   2478.25   3290.68     -0.02      1.69 
   207.19     12.67   2486.45   3300.30     -0.01      0.85 
   207.20     12.67   2478.25   3289.42     -0.00      0.42 
   207.21     12.67   2486.45   3299.88      0.00      0.00 
   207.22     12.68   2478.25   3288.58      0.00      0.00 
   207.23     12.67   2486.45   3299.88     -0.00      0.42 
   207.24     12.67   2478.25   3289.00     -0.01      0.06 
   207.25     12.68   2486.45   3299.45     -0.01     11.72 
   207.26     12.67   2478.25   3289.42     -0.01    -10.03 
   207.27     12.67   2486.45   3299.88      0.00     10.88 
   207.28     12.67   2478.25   3289.00      0.01    -12.15 
   207.29     12.68   2486.45   3299.45      0.01      9.61 
   207.30     12.68   2478.25   3288.58      0.01    -11.72 
   207.31     12.68   2486.45   3299.45      0.00     10.45 
   207.32     12.67   2478.25   3289.00     -0.01     -0.37 
   207.33     12.66   2486.45   3301.14     -0.01      1.27 
   207.34     12.66   2478.25   3290.68     -0.01      1.26 
   207.35     12.66   2486.45   3301.57     -0.01      0.85 
   207.36     12.66   2478.25   3290.26      0.00     -0.42 
   207.37     12.67   2486.45   3300.72      0.01     -0.85 
   207.38     12.66   2478.25   3290.26      0.00      0.00 
   207.39     12.67   2486.45   3300.72     -0.01      0.85 
   207.40     12.66   2486.45   3301.14     -0.02     12.57 
   207.41     12.66   2478.25   3290.68     -0.04     -7.50 
   207.42     12.67   2486.45   3300.30     -0.02     12.98 
   207.43     12.67   2478.25   3289.42     -0.02      0.48 
   207.44     12.67   2486.45   3299.88     -0.01      1.27 
   207.45     12.68   2479.16   3289.79     -0.00      1.63 
   207.46     12.67   2486.45   3299.88     -0.01      0.85 
   207.47     12.67   2478.25   3289.00      0.00      0.00 
   207.48     12.68   2486.45   3299.45      0.00     -0.42 
   207.49     12.67   2478.25   3289.00      0.01     -0.84 
   207.50     12.68   2486.45   3299.45      0.01     -1.27 
   207.51     12.67   2486.45   3299.88     -0.00     11.30 
   207.52     12.67   2478.25   3289.42     -0.02      0.48 
   207.53     12.67   2486.45   3299.88     -0.02      2.11 
   207.54     12.67   2478.25   3289.00     -0.02      1.68 
   207.55     12.67   2486.45   3299.88     -0.00      0.42 
   207.56     12.68   2478.25   3288.58      0.01     -0.84 
   207.57     12.67   2486.45   3300.30      0.00     -0.42 
   207.58     12.67   2478.25   3289.84      0.00     -0.42 
   207.59     12.66   2486.45   3301.14     -0.00      0.42 
   207.60     12.66   2478.25   3290.26      0.00      0.00 
   207.61     12.67   2486.45   3300.72      0.00      0.00 
   207.62     12.67   2486.45   3300.72     -0.01     11.72 
   207.63     12.67   2478.25   3289.00      0.00    -11.30 
   207.64     12.68   2486.45   3299.45      0.00     10.45 
   207.65     12.68   2478.25   3288.58      0.00    -11.30 
   207.66     12.68   2486.45   3299.45      0.00      9.25 
   207.67     12.67   2478.25   3289.00     -0.00      0.42 
   207.68     12.67   2486.45   3300.30     -0.01      0.85 
   207.69     12.67   2478.25   3289.42     -0.01      0.84 
   207.70     12.67   2486.45   3300.72     -0.00      0.42 
   207.71     12.67   2486.45   3300.72      0.01     10.04 
