#Written by Robertson Geologging WinLogger V1.0/406
~VERSION INFORMATION
#------------------------------------------------------------------------------
 VERS. 2.0 : CWLS LOG ASCII STANDARD - VERSION 2.0
 WRAP. NO  : ONE LINE PER DEPTH STEP
~WELL INFORMATION
#MNEM.UNIT         DATA                                DESCRIPTION OF MNEMONIC
#------------------------------------------------------------------------------
 STRT.M          7.0800                            :   START DEPTH
 STOP.M        258.0000                            :   STOP DEPTH
 STEP.M          0.0100                            :   STEP VALUE
 NULL.        -999.2500                            :   NULL VALUE
 COMP.    Coal Authority                           :   COMPANY NAME
 WELL.    Mainsforth Shaft                         :   WELL NAME
 FLD.     Mainsforth                               :   FIELD NAME
 LOC.     N/A                                      :   LOCATION
 PROV.    N/A                                      :   PROVINCE
 SRVC.    N/A                                      :   SERVICE COMPANY NAME
 DATE.    20 May 08                                :   DATE
 UWI.     N/A                                      :   UNIQUE WELL IDENTIFIER
~PARAMETER INFORMATION
#MNEMO.UNIT         VALUE                 DESCRIPTION OF MNEMONIC
#------------------------------------------------------------------------------
~OTHER INFORMATION SECTION
#------------------------------------------------------------------------------
 TCDS 1365
~CURVE INFORMATION
#MNEMO.UNIT         API CODE              CURVE DESCRIPTION
#------------------------------------------------------------------------------
 DEPTH.M                                 :   0     Depth
 TEMP.DegC                               :   1     Temperature
 COND.uS/cm                              :   2     Absolute Conductivity
 COND.uS/cm                              :   3     Conductivity@25DegC
 DELT.DegC                               :   4     Delta T
 DELC.uS/cm                              :   5     Delta C
#------------------------------------------------------------------------------
~A  DEPTH     TEMP      COND      COND      DELT      DELC      
# ...
   140.40     12.33   2409.98   3227.74      0.02    -12.65 
   140.41     12.34   2418.17   3237.88      0.02      9.30 
   140.42     12.34   2409.98   3226.91      0.02     -8.18 
   140.43     12.34   2418.17   3237.88      0.01     -1.26 
   140.44     12.34   2409.98   3226.91      0.02     -1.67 
   140.45     12.33   2418.17   3238.71      0.01      9.72 
   140.46     12.33   2409.98   3228.16      0.01    -11.81 
   140.47     12.33   2418.17   3239.13      0.01     10.14 
   140.48     12.33   2414.53   3234.26      0.01     -1.26 
   140.49     12.33   2409.98   3228.16      0.01     -0.84 
   140.50     12.31   2418.17   3240.39     -0.00      0.42 
   140.51     12.31   2418.17   3240.39     -0.00     11.39 
   140.52     12.32   2409.98   3229.00      0.00    -10.97 
   140.53     12.33   2418.17   3239.13      0.01      4.04 
   140.54     12.34   2414.53   3233.00      0.03      3.17 
   140.55     12.34   2409.98   3226.91      0.03     -2.50 
   140.56     12.34   2418.17   3238.30      0.03     -2.51 
   140.57     12.33   2409.98   3228.16      0.02     -1.67 
   140.58     12.33   2418.17   3238.71      0.01      9.72 
   140.59     12.33   2414.53   3233.84      0.01     -0.84 
   140.60     12.33   2409.98   3227.74      0.00      0.00 
   140.61     12.33   2418.17   3238.71      0.00     -0.42 
   140.62     12.32   2409.98   3228.58      0.00      0.00 
   140.63     12.32   2418.17   3239.97      0.00      0.00 
   140.64     12.32   2409.98   3228.58      0.00     -0.42 
   140.65     12.33   2418.17   3239.13      0.00     10.97 
   140.66     12.33   2409.98   3228.16     -0.01    -10.13 
   140.67     12.33   2414.53   3234.26     -0.01      0.84 
   140.68     12.33   2418.17   3239.13     -0.01     11.81 
   140.69     12.32   2418.17   3239.55      0.00      0.00 
   140.70     12.32   2409.98   3228.58      0.02     -1.67 
   140.71     12.32   2418.17   3239.55      0.02     -1.68 
   140.72     12.33   2409.98   3228.16      0.02     -2.09 
   140.73     12.33   2418.17   3238.71      0.01     -0.84 
   140.74     12.34   2414.53   3233.42      0.00      6.09 
   140.75     12.34   2409.98   3226.91     -0.00    -10.55 
   140.76     12.33   2418.17   3239.13     -0.02     12.64 
   140.77     12.33   2409.98   3227.74     -0.01     -5.26 
   140.78     12.33   2418.17   3239.13     -0.02      1.67 
   140.79     12.32   2409.98   3229.00     -0.02      2.09 
   140.80     12.32   2418.17   3239.55     -0.01     11.81 
   140.81     12.32   2418.17   3239.55      0.00      0.00 
   140.82     12.32   2409.98   3228.58      0.01     -1.25 
   140.83     12.34   2414.53   3233.42      0.03     -7.39 
   140.84     12.33   2418.17   3238.71      0.01      9.72 
   140.85     12.33   2409.98   3228.16      0.00    -11.39 
   140.86     12.32   2418.17   3239.55     -0.01     12.23 
   140.87     12.32   2409.98   3229.00     -0.02     -9.30 
   140.88     12.32   2418.17   3239.55     -0.00     11.39 
   140.89     12.33   2418.17   3239.13      0.00     -0.42 
   140.90     12.34   2409.98   3227.33      0.02     -1.67 
   140.91     12.33   2418.17   3238.71      0.02     -1.68 
   140.92     12.33   2414.53   3233.84      0.02      4.42 
   140.93     12.33   2409.98   3228.16      0.01    -11.81 
   140.94     12.33   2418.17   3239.13      0.01     10.14 
   140.95     12.32   2409.98   3228.58      0.00    -10.97 
   140.96     12.32   2418.17   3239.97      0.00     10.56 
   140.97     12.32   2418.17   3239.55      0.02      3.20 
   140.98     12.33   2409.98   3227.74      0.03    -13.48 
   140.99     12.34   2414.53   3233.00      0.04      2.75 
   141.00     12.34   2418.17   3237.88      0.04     -3.35 
   141.01     12.34   2409.98   3226.91      0.03     -2.92 
   141.02     12.34   2418.17   3238.30      0.03     -2.93 
   141.03     12.33   2409.98   3227.74      0.02     -1.67 
   141.04     12.33   2418.17   3238.71      0.01     -1.26 
   141.05     12.33   2418.17   3238.71      0.01     10.14 
   141.06     12.33   2409.98   3228.16     -0.00    -10.55 
   141.07     12.33   2418.17   3239.13     -0.00     11.39 
   141.08     12.33   2409.98   3228.16     -0.01     -4.84 
   141.09     12.33   2418.17   3238.71     -0.00      0.42 
   141.10     12.34   2414.53   3233.00      0.00      5.68 
   141.11     12.34   2418.17   3238.30      0.00     -0.42 
   141.12     12.33   2409.98   3227.74      0.01     -0.83 
   141.13     12.33   2418.17   3239.13      0.01     -0.84 
   141.14     12.32   2409.98   3228.58      0.00      0.00 
   141.15     12.32   2418.17   3239.55     -0.01      0.84 
   141.16     12.32   2409.98   3228.58     -0.00     -5.68 
   141.17     12.32   2418.17   3239.55     -0.01     11.81 
   141.18     12.33   2418.17   3238.71      0.01     -0.84 
   141.19     12.34   2414.53   3233.42      0.02      4.01 
   141.20     12.33   2409.98   3227.74      0.01    -11.81 
   141.21     12.32   2418.17   3239.97     -0.00      5.30 
   141.22     12.30   2409.98   3230.25     -0.02      1.67 
   141.23     12.30   2418.17   3241.65     -0.02      2.10 
   141.24     12.30   2418.17   3241.23     -0.01     11.81 
   141.25     12.32   2409.98   3229.00      0.00    -10.97 
   141.26     12.32   2418.17   3239.97     -0.01     11.81 
   141.27     12.32   2409.98   3229.00     -0.01     -4.84 
   141.28     12.33   2418.17   3239.13     -0.01      0.84 
   141.29     12.32   2418.17   3239.55     -0.00     11.39 
   141.30     12.34   2414.53   3233.42      0.02     -6.97 
   141.31     12.35   2409.98   3226.49      0.03     -2.50 
   141.32     12.33   2418.17   3238.71      0.01     -0.84 
   141.33     12.33   2418.17   3239.13      0.01     10.14 
   141.34     12.33   2409.98   3228.16      0.00    -11.39 
   141.35     12.32   2418.17   3239.97     -0.00     11.39 
   141.36     12.33   2409.98   3227.74      0.01    -12.23 
   141.37     12.34   2414.53   3233.42      0.01      5.26 
   141.38     12.34   2418.17   3237.88      0.01     -0.84 
   141.39     12.35   2418.17   3237.46      0.01      9.71 
   141.40     12.34   2409.98   3227.33     -0.00    -10.55 
   141.41     12.34   2418.17   3238.30     -0.00     11.39 
   141.42     12.33   2414.53   3234.26     -0.01     -3.62 
   141.43     12.32   2409.98   3229.00     -0.02      2.09 
   141.44     12.31   2418.17   3240.39     -0.02      1.68 
   141.45     12.31   2418.17   3240.39     -0.01     12.23 
   141.46     12.32   2409.98   3228.58     -0.00    -10.55 
   141.47     12.33   2414.53   3234.26      0.00      0.00 
   141.48     12.33   2418.17   3239.13      0.00     10.97 
   141.49     12.33   2418.17   3239.13      0.01     -1.26 
   141.50     12.32   2409.98   3228.58      0.01    -11.81 
   141.51     12.32   2418.17   3239.55      0.00     10.56 
   141.52     12.33   2409.98   3228.16      0.00    -10.97 
   141.53     12.33   2418.17   3238.71     -0.01      5.71 
   141.54     12.34   2418.17   3237.88      0.00     10.97 
   141.55     12.35   2409.98   3226.49      0.01    -11.80 
   141.56     12.34   2414.53   3233.00      0.01      4.84 
   141.57     12.34   2418.17   3237.88      0.01     -0.84 
   141.58     12.34   2418.17   3237.88      0.01      4.04 
   141.59     12.35   2402.70   3216.75      0.01    -11.00 
   141.60     12.34   2418.17   3237.88      0.01     -0.84 
   141.61     12.33   2409.98   3228.16      0.00     -0.42 
   141.62     12.32   2418.17   3239.55      0.00     -0.42 
   141.63     12.32   2418.17   3239.55      0.00     10.97 
   141.64     12.33   2409.98   3228.16      0.00    -10.97 
   141.65     12.34   2418.17   3238.30      0.01     10.13 
   141.66     12.33   2418.17   3239.13      0.00      4.88 
   141.67     12.31   2409.98   3229.41     -0.01     -9.72 
   141.68     12.30   2418.17   3241.23     -0.02      1.68 
   141.69     12.31   2409.98   3229.83     -0.01      1.25 
   141.70     12.31   2418.17   3240.81     -0.01      1.26 
   141.71     12.32   2418.17   3239.97     -0.01     11.81 
