#Written by Robertson Geologging WinLogger V1.0/406
~VERSION INFORMATION
#------------------------------------------------------------------------------
 VERS. 2.0 : CWLS LOG ASCII STANDARD - VERSION 2.0
 WRAP. NO  : ONE LINE PER DEPTH STEP
~WELL INFORMATION
#MNEM.UNIT         DATA                                DESCRIPTION OF MNEMONIC
#------------------------------------------------------------------------------
 STRT.M          7.6600                            :   START DEPTH
 STOP.M        258.0000                            :   STOP DEPTH
 STEP.M          0.0100                            :   STEP VALUE
 NULL.        -999.2500                            :   NULL VALUE
 COMP.    I.W.S.                                   :   COMPANY NAME
 WELL.    Mainsforth                               :   WELL NAME
 FLD.     Mainsforth                               :   FIELD NAME
 LOC.     N/A                                      :   LOCATION
 PROV.    N/A                                      :   PROVINCE
 SRVC.    N/A                                      :   SERVICE COMPANY NAME
 DATE.    21 Jul 09                                :   DATE
 UWI.     N/A                                      :   UNIQUE WELL IDENTIFIER
~PARAMETER INFORMATION
#MNEMO.UNIT         VALUE                 DESCRIPTION OF MNEMONIC
#------------------------------------------------------------------------------
~OTHER INFORMATION SECTION
#------------------------------------------------------------------------------
 TCGS 1365
~CURVE INFORMATION
#MNEMO.UNIT         API CODE              CURVE DESCRIPTION
#------------------------------------------------------------------------------
 DEPTH.M                                 :   0     Depth
 TEMP.DegC                               :   1     Temperature
 CN25.uS/cm                              :   2     Conductivity@25DegC
 DELT.DegC                               :   3     Delta T
 DELC.uS/cm                              :   4     Delta C
 NGAM.CPS                                :   5     Natural Gamma
 COND.uS/cm                              :   6     Conductivity
#------------------------------------------------------------------------------
~A  DEPTH     TEMP      CN25      DELT      DELC      NGAM      COND      
# ...
    74.33     11.16   2171.86     -0.01      0.59      0.00   1565.74 
    74.34     11.16   2163.12      0.00     -6.25      0.00   1559.41 
    74.35     11.17   2171.28      0.02     -1.17      0.00   1565.74 
    74.36     11.18   2168.48      0.02      4.78      0.00   1563.93 
    74.37     11.18   2170.98      0.01      1.62      0.00   1565.74 
    74.38     11.18   2161.95      0.01     -9.33      0.00   1559.41 
    74.39     11.18   2170.98      0.01     -0.59      0.00   1565.74 
    74.40     11.17   2168.78      0.00     -0.29      0.00   1563.93 
    74.41     11.16   2171.86      0.00      8.74      0.00   1565.74 
    74.42     11.15   2163.70      0.00     -9.04      0.00   1559.41 
    74.43     11.16   2172.16     -0.00      2.79      0.00   1565.74 
    74.44     11.16   2169.66      0.00     -2.79      0.00   1563.93 
    74.45     11.17   2171.57      0.01      1.62      0.00   1565.74 
    74.46     11.17   2162.53      0.01     -0.58      0.00   1559.41 
    74.47     11.16   2171.86      0.00      0.00      0.00   1565.74 
    74.48     11.16   2169.66     -0.01      0.88      0.00   1563.93 
    74.49     11.15   2163.70     -0.02     -7.57      7.00   1559.41 
    74.50     11.15   2172.74     -0.02      3.67      0.00   1565.74 
    74.51     11.16   2171.86      0.00      8.74      0.00   1565.74 
    74.52     11.17   2169.07      0.01     -3.09      0.00   1563.93 
    74.53     11.16   2163.12      0.00     -6.25      0.00   1559.41 
    74.54     11.16   2171.86      0.00      0.00      0.00   1565.74 
    74.55     11.16   2169.36      0.00      0.00      0.00   1563.93 
    74.56     11.16   2171.86     -0.00      9.04      0.00   1565.74 
    74.57     11.17   2162.83      0.00     -8.74      0.00   1559.41 
    74.58     11.17   2168.78      0.00     -0.29      0.00   1563.93 
    74.59     11.17   2171.57      0.00     -0.29      0.00   1565.74 
    74.60     11.16   2171.86      0.00      8.45      0.00   1565.74 
    74.61     11.16   2169.36      0.01     -0.59      0.00   1563.93 
    74.62     11.15   2163.70      0.00     -0.29      0.00   1559.41 
    74.63     11.15   2172.74     -0.01      3.09      0.00   1565.74 
    74.64     11.15   2169.95     -0.00      6.54      0.00   1563.93 
    74.65     11.15   2172.74     -0.01      0.59      0.00   1565.74 
    74.66     11.15   2163.70     -0.01     -5.66      0.00   1559.41 
    74.67     11.16   2169.36     -0.00     -2.20      0.00   1563.93 
    74.68     11.16   2171.86      0.00      8.45      7.00   1565.74 
    74.69     11.17   2171.57      0.00      2.20      0.00   1565.74 
    74.70     11.17   2162.83      0.00     -9.04      0.00   1559.41 
    74.71     11.17   2169.07      0.01     -3.09      0.00   1563.93 
    74.72     11.16   2172.16     -0.02      9.91      0.00   1565.74 
    74.73     11.16   2169.36     -0.01      0.88      0.00   1563.93 
    74.74     11.16   2171.86     -0.01      0.59      0.00   1565.74 
    74.75     11.17   2162.83      0.00     -8.74      0.00   1559.41 
    74.76     11.18   2168.48      0.02      5.07      0.00   1563.93 
    74.77     11.17   2171.57      0.00      2.20      0.00   1565.74 
    74.78     11.17   2171.57     -0.01      0.59      0.00   1565.74 
    74.79     11.16   2169.36     -0.02     -1.33      0.00   1563.93 
    74.80     11.16   2163.41     -0.02      1.17      0.00   1559.41 
    74.81     11.16   2171.86     -0.01      0.59      7.00   1565.74 
    74.82     11.16   2172.16     -0.01      3.09      0.00   1565.74 
    74.83     11.16   2169.66     -0.00     -2.21      0.00   1563.93 
    74.84     11.15   2163.70     -0.00      0.29      0.00   1559.41 
    74.85     11.16   2172.16     -0.01      3.09      0.00   1565.74 
    74.86     11.16   2169.36      0.00     -2.79      0.00   1563.93 
    74.87     11.16   2171.86      0.00     -0.29      0.00   1565.74 
    74.88     11.17   2162.83      0.00     -6.24      0.00   1559.41 
    74.89     11.17   2171.57      0.01      8.16      7.00   1565.74 
    74.90     11.17   2168.78      0.01     -3.08      0.00   1563.93 
    74.91     11.17   2171.57      0.00      2.50      0.00   1565.74 
    74.92     11.17   2162.83      0.00     -9.04      0.00   1559.41 
    74.93     11.17   2169.07      0.00      6.24      0.00   1563.93 
    74.94     11.15   2172.45     -0.01      3.38      0.00   1565.74 
    74.95     11.15   2164.00     -0.01     -8.16      0.00   1559.41 
    74.96     11.16   2172.16     -0.01      0.88      0.00   1565.74 
    74.97     11.17   2169.07     -0.01      0.59      0.00   1563.93 
    74.98     11.17   2171.57     -0.00      9.04      0.00   1565.74 
    74.99     11.17   2162.53     -0.02     -5.07      7.00   1559.41 
    75.00     11.16   2171.86     -0.02      1.47      0.00   1565.74 
    75.01     11.16   2169.66     -0.01     -1.62      0.00   1563.93 
    75.02     11.16   2172.16     -0.01      3.38      0.00   1565.74 
    75.03     11.15   2164.00     -0.01      0.88      0.00   1559.41 
    75.04     11.15   2172.45     -0.00      0.29      0.00   1565.74 
    75.05     11.15   2170.24     -0.02      1.17      0.00   1563.93 
    75.06     11.16   2171.86     -0.01      9.62      0.00   1565.74 
    75.07     11.17   2162.53      0.00     -8.74      0.00   1559.41 
    75.08     11.17   2168.78     -0.00      0.29      0.00   1563.93 
    75.09     11.17   2171.28      0.00      0.00      0.00   1565.74 
    75.10     11.17   2171.57      0.01      8.16      0.00   1565.74 
    75.11     11.17   2162.83      0.01     -9.33      0.00   1559.41 
    75.12     11.17   2169.07      0.01     -0.59      0.00   1563.93 
    75.13     11.16   2171.86      0.00     -0.29      0.00   1565.74 
    75.14     11.16   2169.36      0.00      6.25      0.00   1563.93 
    75.15     11.16   2171.86      0.00      0.00      0.00   1565.74 
    75.16     11.16   2163.41     -0.00     -5.95      0.00   1559.41 
    75.17     11.17   2171.57      0.00      0.00      0.00   1565.74 
    75.18     11.16   2169.66     -0.01      6.83      0.00   1563.93 
    75.19     11.15   2172.45     -0.01      0.59      0.00   1565.74 
    75.20     11.16   2163.12      0.00     -9.04      0.00   1559.41 
    75.21     11.16   2169.36      0.00     -0.29      0.00   1563.93 
    75.22     11.17   2171.57      0.01      8.16      0.00   1565.74 
    75.23     11.17   2168.78      0.00     -2.79      0.00   1563.93 
    75.24     11.16   2171.86      0.00      0.00      0.00   1565.74 
    75.25     11.16   2163.41     -0.00      0.29      0.00   1559.41 
    75.26     11.16   2169.36     -0.00      0.29      0.00   1563.93 
    75.27     11.15   2172.45     -0.01      0.88      0.00   1565.74 
    75.28     11.15   2169.95     -0.01     -1.62      0.00   1563.93 
    75.29     11.16   2171.86     -0.00      9.04      0.00   1565.74 
    75.30     11.15   2163.70      0.00     -8.75      0.00   1559.41 
    75.31     11.17   2169.07      0.01     -0.88      0.00   1563.93 
    75.32     11.16   2171.86      0.00      0.00      0.00   1565.74 
    75.33     11.15   2172.45     -0.01      9.33      0.00   1565.74 
    75.34     11.15   2169.95     -0.02     -1.33      0.00   1563.93 
    75.35     11.15   2164.00     -0.03     -4.49      0.00   1559.41 
    75.36     11.15   2172.74     -0.03      1.76      7.00   1565.74 
    75.37     11.15   2172.74     -0.03     10.79      0.00   1565.74 
    75.38     11.16   2169.66     -0.02     -1.33      0.00   1563.93 
    75.39     11.16   2163.12     -0.01     -5.66      0.00   1559.41 
    75.40     11.17   2171.28      0.01     -0.59      0.00   1565.74 
    75.41     11.17   2171.28      0.02      7.57      0.00   1565.74 
    75.42     11.17   2168.78      0.01     -3.38      0.00   1563.93 
    75.43     11.17   2162.83      0.01     -6.83      0.00   1559.41 
    75.44     11.16   2171.86     -0.00      0.29      0.00   1565.74 
    75.45     11.17   2168.78      0.00      6.24      0.00   1563.93 
