#Written by Robertson Geologging WinLogger V1.0/406
~VERSION INFORMATION
#------------------------------------------------------------------------------
 VERS. 2.0 : CWLS LOG ASCII STANDARD - VERSION 2.0
 WRAP. NO  : ONE LINE PER DEPTH STEP
~WELL INFORMATION
#MNEM.UNIT         DATA                                DESCRIPTION OF MNEMONIC
#------------------------------------------------------------------------------
 STRT.M          7.6600                            :   START DEPTH
 STOP.M        258.0000                            :   STOP DEPTH
 STEP.M          0.0100                            :   STEP VALUE
 NULL.        -999.2500                            :   NULL VALUE
 COMP.    I.W.S.                                   :   COMPANY NAME
 WELL.    Mainsforth                               :   WELL NAME
 FLD.     Mainsforth                               :   FIELD NAME
 LOC.     N/A                                      :   LOCATION
 PROV.    N/A                                      :   PROVINCE
 SRVC.    N/A                                      :   SERVICE COMPANY NAME
 DATE.    21 Jul 09                                :   DATE
 UWI.     N/A                                      :   UNIQUE WELL IDENTIFIER
~PARAMETER INFORMATION
#MNEMO.UNIT         VALUE                 DESCRIPTION OF MNEMONIC
#------------------------------------------------------------------------------
~OTHER INFORMATION SECTION
#------------------------------------------------------------------------------
 TCGS 1365
~CURVE INFORMATION
#MNEMO.UNIT         API CODE              CURVE DESCRIPTION
#------------------------------------------------------------------------------
 DEPTH.M                                 :   0     Depth
 TEMP.DegC                               :   1     Temperature
 CN25.uS/cm                              :   2     Conductivity@25DegC
 DELT.DegC                               :   3     Delta T
 DELC.uS/cm                              :   4     Delta C
 NGAM.CPS                                :   5     Natural Gamma
 COND.uS/cm                              :   6     Conductivity
#------------------------------------------------------------------------------
~A  DEPTH     TEMP      CN25      DELT      DELC      NGAM      COND      
     7.66     11.28   1447.97      0.00      0.00      0.00   1045.57 
     7.67     11.27   1469.44      0.00      0.00      0.00   1060.86 
     7.68     11.26   1479.76      0.00      0.00     16.00   1068.06 
     7.69     11.26   1489.89      0.00      0.00      0.00   1075.26 
     7.70     11.23   1512.21      0.00      0.00     25.00   1090.55 
     7.71     11.22   1527.32      0.00      0.00     10.00   1101.35 
     7.72     11.22   1543.68      0.00      0.00     25.00   1113.05 
     7.73     11.21   1552.59      0.00      0.00      0.00   1119.35 
     7.74     11.20   1565.66      0.00      0.00      0.00   1128.35 
     7.75     11.19   1575.82      0.00      0.00      0.00   1135.55 
     7.76     11.19   1590.96      0.00      0.00      0.00   1146.36 
     7.77     11.18   1597.39      0.00      0.00      0.00   1150.86 
     7.78     11.18   1597.39      0.00      0.00      0.00   1150.86 
     7.79     11.18   1616.05      0.00      0.00     10.00   1164.36 
     7.80     11.16   1629.38      0.00      0.00      8.00   1173.37 
     7.81     11.16   1629.60      0.00      0.00      0.00   1173.37 
     7.82     11.15   1629.82      0.00      0.00      8.00   1173.37 
     7.83     11.14   1640.23      0.00      0.00     33.00   1180.57 
     7.84     11.14   1655.63      0.00      0.00      0.00   1191.38 
     7.85     11.12   1651.32      0.00      0.00     16.00   1187.78 
     7.86     11.11   1662.99      0.00      0.00      0.00   1195.88 
     7.87     11.11   1663.21      0.00      0.00      0.00   1195.88 
     7.88     11.12   1672.74      0.00      0.00      8.00   1203.09 
     7.89     11.11   1681.92      0.00      0.00      0.00   1209.39 
     7.90     11.11   1672.96      0.00      0.00      0.00   1203.09 
     7.91     11.10   1694.63      0.00      0.00      8.00   1218.40 
     7.92     11.09   1695.09      0.00      0.00      8.00   1218.40 
     7.93     11.09   1695.32      0.00      0.00      0.00   1218.40 
     7.94     11.09   1695.32      0.00      0.00      0.00   1218.40 
     7.95     11.08   1704.52      0.00      0.00      0.00   1224.71 
     7.96     11.07   1706.00      0.00      0.00      0.00   1225.61 
     7.97     11.07   1713.72      0.00      0.00      0.00   1231.01 
     7.98     11.05   1716.92      0.00      0.00      0.00   1232.81 
     7.99     11.04   1723.64      0.00      0.00      0.00   1237.32 
     8.00     11.05   1717.16      0.00      0.00      0.00   1232.81 
     8.01     11.04   1732.39      0.00      0.00      0.00   1243.63 
     8.02     11.05   1738.40      0.00      0.00      0.00   1248.13 
     8.03     11.05   1732.15      0.00      0.00      0.00   1243.63 
     8.04     11.04   1738.64      0.00      0.00      0.00   1248.13 
     8.05     11.04   1750.12      0.00      0.00      0.00   1256.24 
     8.06     11.02   1749.83      0.00      0.00      0.00   1255.34 
     8.07     11.01   1751.31      0.00      0.00      0.00   1256.24 
     8.08     11.00   1750.78      0.00      0.00      0.00   1255.34 
     8.09     11.00   1762.28      0.00      0.00      0.00   1263.45 
     8.10     11.00   1762.28      0.00      0.00      0.00   1263.45 
     8.11     10.99   1762.52      0.00      0.00      0.00   1263.45 
     8.12     10.99   1771.53      0.00      0.00      0.00   1269.76 
     8.13     10.99   1772.78      0.00      0.00      0.00   1270.66 
     8.14     10.98   1772.01      0.00      0.00      0.00   1269.76 
     8.15     10.99   1772.78      0.00      0.00      0.00   1270.66 
     8.16     10.98   1780.54      0.00      0.00      0.00   1276.07 
     8.17     10.98   1783.04      0.00      0.00      0.00   1277.87 
     8.18     10.99   1780.29      0.00      0.00      0.00   1276.07 
     8.19     10.98   1780.78      0.00      0.00      7.00   1276.07 
     8.20     10.97   1794.80      0.00      0.00      0.00   1285.98 
     8.21     10.97   1781.02      0.00      0.00      0.00   1276.07 
     8.22     10.97   1795.05      0.00      0.00      0.00   1285.98 
     8.23     10.97   1783.53      0.00      0.00      0.00   1277.87 
     8.24     10.98   1798.32      0.00      0.00      0.00   1288.69 
     8.25     10.96   1795.53      0.00      0.00      0.00   1285.98 
     8.26     10.95   1791.01      0.00      0.00      0.00   1282.38 
     8.27     10.93   1797.00      0.00      0.00      0.00   1285.98 
     8.28     10.91   1807.78      0.00      0.00      0.00   1293.19 
     8.29     10.92   1792.47      0.00      0.00      0.00   1282.38 
     8.30     10.93   1806.79      0.00      0.00      0.00   1293.19 
     8.31     10.93   1800.52      0.00      0.00      0.00   1288.69 
     8.32     10.93   1806.79      0.00      0.00      0.00   1293.19 
     8.33     10.93   1800.52      0.00      0.00      0.00   1288.69 
     8.34     10.92   1807.29      0.00      0.00      0.00   1293.19 
     8.35     10.92   1807.29      0.00      0.00      0.00   1293.19 
     8.36     10.91   1810.53      0.00      0.00      0.00   1294.99 
     8.37     10.90   1808.52      0.00      0.00      0.00   1293.19 
     8.38     10.89   1808.76      0.00      0.00      0.00   1293.19 
     8.39     10.88   1811.77      0.00      0.00      0.00   1294.99 
     8.40     10.89   1819.06      0.00      0.00      0.00   1300.40 
     8.41     10.89   1811.52     -0.59    699.17      0.00   1294.99 
     8.42     10.88   1819.55     -0.60    707.20      0.00   1300.40 
     8.43     10.88   1819.55     -0.59    706.90      0.00   1300.40 
     8.44     10.88   1809.50     -0.59    698.08      0.00   1293.19 
     8.45     10.87   1821.31     -0.59    708.50      0.00   1301.30 
     8.46     10.86   1820.30     -0.59    708.42      8.00   1300.40 
     8.47     10.86   1820.55     -0.59    697.59      0.00   1300.40 
     8.48     10.85   1822.30     -0.60    710.27      7.00   1301.30 
     8.49     10.85   1821.05     -0.60    697.93      8.00   1300.40 
     8.50     10.86   1820.55     -0.58    687.43      0.00   1300.40 
     8.51     10.86   1831.86     -0.57    698.44      0.00   1308.52 
     8.52     10.86   1820.80     -0.56    665.80      0.00   1300.40 
     8.53     10.85   1821.05     -0.55    665.42      0.00   1300.40 
     8.54     10.85   1832.36     -0.54    645.58      0.00   1308.52 
     8.55     10.86   1832.11     -0.51    634.81      0.00   1308.52 
     8.56     10.86   1820.80     -0.49    591.95      0.00   1300.40 
     8.57     10.85   1832.36     -0.50    582.51      8.00   1308.52 
     8.58     10.85   1832.61     -0.49    551.34      0.00   1308.52 
     8.59     10.84   1833.11     -0.48    531.53      0.00   1308.52 
     8.60     10.84   1833.11     -0.48    500.41      0.00   1308.52 
     8.61     10.84   1833.11     -0.46    478.64      0.00   1308.52 
     8.62     10.83   1833.61     -0.45    447.61      0.00   1308.52 
     8.63     10.84   1833.11     -0.44    426.05      0.00   1308.52 
     8.64     10.83   1833.36     -0.44    416.00      0.00   1308.52 
     8.65     10.84   1832.86     -0.44    384.89      0.00   1308.52 
     8.66     10.84   1842.92     -0.43    373.48      0.00   1315.73 
     8.67     10.83   1833.61     -0.43    353.85      0.00   1308.52 
     8.68     10.83   1842.42     -0.43    352.53      0.00   1314.83 
     8.69     10.81   1834.36     -0.42    322.15      0.00   1308.52 
     8.70     10.81   1843.18     -0.41    315.85      0.00   1314.83 
     8.71     10.82   1834.11     -0.40    290.43      0.00   1308.52 
     8.72     10.81   1844.43     -0.40    291.84      0.00   1315.73 
     8.73     10.82   1842.92     -0.38    277.27      0.00   1314.83 
     8.74     10.82   1844.18     -0.38    268.37      0.00   1315.73 
     8.75     10.82   1834.11     -0.37    243.16      0.00   1308.52 
     8.76     10.82   1842.67     -0.36    245.28      0.00   1314.83 
     8.77     10.83   1843.43     -0.35    246.04      0.00   1315.73 
     8.78     10.83   1842.17     -0.35    226.12      0.00   1314.83 
