#Written by Robertson Geologging WinLogger V1.5/410
~VERSION INFORMATION
#------------------------------------------------------------------------------
 VERS. 2.0 : CWLS LOG ASCII STANDARD - VERSION 2.0
 WRAP. NO  : ONE LINE PER DEPTH STEP
~WELL INFORMATION
#MNEM.UNIT         DATA                                DESCRIPTION OF MNEMONIC
#------------------------------------------------------------------------------
 STRT.M          6.2700                            :   START DEPTH
 STOP.M        256.6400                            :   STOP DEPTH
 STEP.M          0.0100                            :   STEP VALUE
 NULL.        -999.2500                            :   NULL VALUE
 COMP.    IWS                                      :   COMPANY NAME
 WELL.    MAINSFORTH                               :   WELL NAME
 FLD.     DURHAM                                   :   FIELD NAME
 LOC.     N/A                                      :   LOCATION
 PROV.    N/A                                      :   PROVINCE
 SRVC.    N/A                                      :   SERVICE COMPANY NAME
 DATE.    16 Dec 09                                :   DATE
 UWI.     N/A                                      :   UNIQUE WELL IDENTIFIER
~PARAMETER INFORMATION
#MNEMO.UNIT         VALUE                 DESCRIPTION OF MNEMONIC
#------------------------------------------------------------------------------
~OTHER INFORMATION SECTION
#------------------------------------------------------------------------------
 TCDS 1365
~CURVE INFORMATION
#MNEMO.UNIT         API CODE              CURVE DESCRIPTION
#------------------------------------------------------------------------------
 DEPTH.M                                 :   0     Depth
 TEMP.DegC                               :   1     Temperature
 COND.uS/cm                              :   2     Conductivity@25DegC
 COND.uS/cm                              :   3     Absolute Conductivity
 DELT.DegC                               :   4     Delta T
 DELC.uS/cm                              :   5     Delta C
#------------------------------------------------------------------------------
~A  DEPTH          TEMP          COND          COND          DELT          DELC
# ...
   172.27         12.11       3437.15       2551.05          0.01         -2.35
   172.28         12.11       3442.24       2554.83          0.01         -2.35
   172.29         12.11       3442.16       2554.83          0.01         -2.47
   172.30         12.11       3436.99       2551.05          0.01         -3.07
   172.31         12.11       3442.00       2554.83          0.01         -2.59
   172.32         12.11       3436.83       2551.05          0.01         -3.15
   172.33         12.11       3441.84       2554.83          0.01         -2.67
   172.34         12.11       3441.88       2554.83          0.01         -2.71
   172.35         12.11       3437.35       2551.47          0.01         -2.71
   172.36         12.11       3442.49       2555.25          0.01         -2.23
   172.37         12.11       3438.08       2551.89          0.01         -1.58
   172.38         12.11       3443.34       2555.67          0.01         -1.30
   172.39         12.11       3443.46       2555.67          0.01         -1.09
   172.40         12.11       3438.97       2552.31          0.00         -0.93
   172.41         12.11       3444.06       2556.09          0.00         -0.24
   172.42         12.11       3439.54       2552.73          0.00          0.40
   172.43         12.11       3444.67       2556.51          0.00          1.09
   172.44         12.11       3440.30       2553.15         -0.00          1.94
   172.45         12.11       3440.34       2553.15         -0.00          2.10
   172.46         12.11       3444.87       2556.51         -0.01          2.22
   172.47         12.11       3440.26       2553.15         -0.01          2.91
   172.48         12.11       3444.67       2556.51         -0.01          2.43
   172.49         12.11       3440.06       2553.15         -0.01          2.35
   172.50         12.11       3440.06       2553.15         -0.01          2.35
   172.51         12.11       3444.59       2556.51         -0.01          2.31
   172.52         12.11       3439.58       2552.73         -0.01          2.18
   172.53         12.11       3444.18       2556.09         -0.00          1.58
   172.54         12.11       3439.13       2552.31         -0.00          1.46
   172.55         12.11       3443.66       2555.67         -0.00          0.73
   172.56         12.11       3443.66       2555.67         -0.00          0.73
   172.57         12.11       3438.69       2551.89         -0.00          0.81
   172.58         12.11       3443.26       2555.25         -0.00          0.20
   172.59         12.10       3438.20       2551.47         -0.00         -0.44
   172.60         12.10       3442.73       2554.83         -0.00         -0.53
   172.61         12.11       3442.61       2554.83          0.00         -0.73
   172.62         12.11       3437.52       2551.05          0.00         -1.29
   172.63         12.11       3442.61       2554.83         -0.00         -1.09
   172.64         12.11       3437.47       2551.05         -0.00         -1.05
   172.65         12.11       3442.49       2554.83         -0.00         -1.09
   172.66         12.11       3442.41       2554.83          0.00         -1.17
   172.67         12.11       3437.27       2551.05          0.00         -1.37
   172.68         12.11       3442.28       2554.83          0.00         -1.50
   172.69         12.11       3437.19       2551.05          0.00         -1.46
   172.70         12.11       3442.37       2554.83          0.00         -0.77
   172.71         12.11       3442.45       2554.83          0.00         -0.69
   172.72         12.11       3437.43       2551.05          0.00         -0.69
   172.73         12.11       3442.65       2554.83          0.00         -0.12
   172.74         12.11       3438.16       2551.47          0.00          0.28
   172.75         12.10       3443.38       2555.25          0.00          0.36
   172.76         12.10       3443.58       2555.25         -0.00          0.61
   172.77         12.10       3439.25       2551.89         -0.00          1.38
   172.78         12.10       3444.55       2555.67         -0.01          1.66
   172.79         12.10       3439.58       2551.89         -0.01          1.17
   172.80         12.09       3444.80       2555.67         -0.01          1.17
   172.81         12.09       3444.80       2555.67         -0.01          1.13
   172.82         12.10       3439.66       2551.89         -0.01          1.13
   172.83         12.10       3444.67       2555.67         -0.01          1.09
   172.84         12.10       3439.38       2551.89         -0.00          0.28
   172.85         12.10       3443.66       2555.25          0.00         -0.61
   172.86         12.10       3443.38       2555.25          0.00         -1.01
   172.87         12.11       3438.57       2551.89          0.01         -1.38
   172.88         12.11       3442.89       2555.25          0.01         -2.06
   172.89         12.11       3438.20       2551.89          0.01         -1.54
   172.90         12.11       3443.21       2555.67          0.01         -0.89
   172.91         12.11       3443.25       2555.67          0.01         -0.69
   172.92         12.11       3438.73       2552.31          0.01         -0.04
   172.93         12.11       3443.94       2556.09          0.01          0.08
   172.94         12.11       3438.93       2552.31          0.00          0.28
   172.95         12.11       3444.02       2556.09          0.00          1.01
   172.96         12.11       3444.10       2556.09         -0.00          1.33
   172.97         12.11       3439.58       2552.73         -0.00          2.14
   172.98         12.11       3444.14       2556.09         -0.01          2.27
   172.99         12.11       3439.05       2552.31         -0.01          1.74
   173.00         12.11       3443.62       2555.67         -0.01          1.17
   173.01         12.11       3443.62       2555.67         -0.01          1.09
   173.02         12.11       3435.01       2549.37         -0.00         -3.03
   173.03         12.11       3439.46       2552.73         -0.00         -3.76
   173.04         12.11       3434.69       2549.37          0.00         -3.56
   173.05         12.11       3439.70       2553.15          0.00         -3.80
   173.06         12.11       3439.70       2553.15          0.01          0.61
   173.07         12.11       3435.25       2549.79          0.01         -3.96
   173.08         12.11       3440.02       2553.15          0.00         -4.41
   173.09         12.11       3435.05       2549.37          0.00         -4.89
   173.10         12.11       3440.22       2553.15          0.00         -4.33
   173.11         12.11       3440.22       2553.15          0.00         -4.37
   173.12         12.11       3435.13       2549.37          0.00         -4.97
   173.13         12.11       3443.70       2555.67          0.00         -0.97
   173.14         12.11       3439.25       2552.31          0.00         -0.32
   173.15         12.10       3443.90       2555.67          0.00         -0.61
   173.16         12.10       3443.94       2555.67         -0.00          4.69
   173.17         12.10       3438.93       2551.89         -0.00         -4.77
   173.18         12.10       3443.46       2555.25         -0.00         -0.24
   173.19         12.10       3438.28       2551.47         -0.00         -0.36
   173.20         12.10       3443.42       2555.25         -0.00          0.20
   173.21         12.10       3443.50       2555.25         -0.00          5.42
   173.22         12.10       3438.36       2551.47         -0.00          0.36
   173.23         12.10       3443.46       2555.25         -0.01          1.05
   173.24         12.10       3438.81       2551.89         -0.00          1.54
   173.25         12.11       3443.26       2555.25         -0.00          0.97
   173.26         12.11       3443.26       2555.25         -0.00          6.11
