#Written by Robertson Geologging WinLogger V1.5/410
~VERSION INFORMATION
#------------------------------------------------------------------------------
 VERS. 2.0 : CWLS LOG ASCII STANDARD - VERSION 2.0
 WRAP. NO  : ONE LINE PER DEPTH STEP
~WELL INFORMATION
#MNEM.UNIT         DATA                                DESCRIPTION OF MNEMONIC
#------------------------------------------------------------------------------
 STRT.M          6.2700                            :   START DEPTH
 STOP.M        256.6400                            :   STOP DEPTH
 STEP.M          0.0100                            :   STEP VALUE
 NULL.        -999.2500                            :   NULL VALUE
 COMP.    IWS                                      :   COMPANY NAME
 WELL.    MAINSFORTH                               :   WELL NAME
 FLD.     DURHAM                                   :   FIELD NAME
 LOC.     N/A                                      :   LOCATION
 PROV.    N/A                                      :   PROVINCE
 SRVC.    N/A                                      :   SERVICE COMPANY NAME
 DATE.    16 Dec 09                                :   DATE
 UWI.     N/A                                      :   UNIQUE WELL IDENTIFIER
~PARAMETER INFORMATION
#MNEMO.UNIT         VALUE                 DESCRIPTION OF MNEMONIC
#------------------------------------------------------------------------------
~OTHER INFORMATION SECTION
#------------------------------------------------------------------------------
 TCDS 1365
~CURVE INFORMATION
#MNEMO.UNIT         API CODE              CURVE DESCRIPTION
#------------------------------------------------------------------------------
 DEPTH.M                                 :   0     Depth
 TEMP.DegC                               :   1     Temperature
 COND.uS/cm                              :   2     Conductivity@25DegC
 COND.uS/cm                              :   3     Absolute Conductivity
 DELT.DegC                               :   4     Delta T
 DELC.uS/cm                              :   5     Delta C
#------------------------------------------------------------------------------
~A  DEPTH          TEMP          COND          COND          DELT          DELC
# ...
   155.27         12.10       3441.60       2553.99         -0.00          0.20
   155.28         12.10       3441.68       2553.99         -0.00          0.28
   155.29         12.10       3441.60       2553.99         -0.00          0.20
   155.30         12.11       3441.56       2553.99         -0.00          0.61
   155.31         12.10       3441.60       2553.99         -0.00          0.73
   155.32         12.11       3441.56       2553.99         -0.00          0.20
   155.33         12.10       3441.60       2553.99         -0.00          0.32
   155.34         12.11       3441.56       2553.99         -0.00          0.97
   155.35         12.10       3441.60       2553.99         -0.00          0.97
   155.36         12.10       3437.15       2550.63         -0.01         -4.04
   155.37         12.10       3441.76       2553.99         -0.01          0.57
   155.38         12.10       3437.31       2550.63         -0.01          0.73
   155.39         12.10       3441.76       2553.99         -0.01          0.69
   155.40         12.10       3437.19       2550.63         -0.01          0.65
   155.41         12.10       3441.11       2553.57         -0.01          0.16
   155.42         12.10       3441.07       2553.57         -0.01          4.77
   155.43         12.10       3441.60       2553.99         -0.01          1.42
   155.44         12.11       3441.48       2553.99         -0.01          5.86
   155.45         12.11       3440.87       2553.57         -0.01          0.61
   155.46         12.11       3440.79       2553.57         -0.00          4.37
   155.47         12.11       3441.27       2553.99         -0.00          0.77
   155.48         12.11       3441.27       2553.99         -0.00          5.17
   155.49         12.11       3441.36       2553.99         -0.00          0.69
   155.50         12.11       3441.56       2553.99         -0.00          0.89
   155.51         12.10       3442.33       2554.41         -0.01          1.74
   155.52         12.10       3442.49       2554.41         -0.01          1.86
   155.53         12.10       3437.92       2551.05         -0.01         -3.39
   155.54         12.10       3441.80       2553.99         -0.00          0.32
   155.55         12.10       3437.19       2550.63         -0.00         -4.45
   155.56         12.11       3441.52       2553.99          0.00         -0.08
   155.57         12.11       3436.99       2550.63          0.00         -4.04
   155.58         12.11       3440.99       2553.57          0.00         -0.08
   155.59         12.11       3436.46       2550.21          0.00         -4.69
   155.60         12.11       3440.91       2553.57          0.01         -0.49
   155.61         12.11       3436.18       2550.21          0.01         -0.81
   155.62         12.11       3439.94       2553.15          0.01         -1.70
   155.63         12.11       3439.78       2553.15          0.01          2.67
   155.64         12.11       3439.74       2553.15          0.01         -1.30
   155.65         12.11       3439.82       2553.15          0.01          3.35
   155.66         12.11       3439.94       2553.15          0.01         -1.05
   155.67         12.11       3440.06       2553.15          0.01          2.95
   155.68         12.11       3440.06       2553.15          0.01         -1.50
   155.69         12.11       3439.94       2553.15          0.01         -1.50
   155.70         12.11       3439.82       2553.15          0.01         -1.54
   155.71         12.11       3439.78       2553.15          0.01         -1.38
   155.72         12.11       3440.30       2553.57          0.01         -0.81
   155.73         12.11       3440.26       2553.57          0.01         -0.81
   155.74         12.11       3435.74       2550.21          0.01         -5.86
   155.75         12.11       3440.30       2553.57          0.01         -1.25
   155.76         12.11       3435.78       2550.21          0.01         -5.66
   155.77         12.11       3440.30       2553.57          0.00         -0.97
   155.78         12.11       3435.78       2550.21          0.00         -4.77
   155.79         12.11       3440.34       2553.57          0.00         -0.20
   155.80         12.11       3440.47       2553.57          0.00          4.32
   155.81         12.11       3440.59       2553.57          0.00         -0.20
   155.82         12.11       3440.67       2553.57          0.00          4.20
   155.83         12.11       3440.14       2553.15          0.00         -1.01
   155.84         12.11       3440.18       2553.15          0.01          2.91
   155.85         12.11       3440.14       2553.15          0.01         -1.17
   155.86         12.11       3439.98       2553.15          0.01          3.15
   155.87         12.11       3439.86       2553.15          0.01         -1.58
   155.88         12.11       3439.70       2553.15          0.01          2.63
   155.89         12.11       3439.62       2553.15          0.02          1.82
   155.90         12.11       3439.58       2553.15          0.02          1.74
   155.91         12.11       3435.01       2549.79          0.02         -2.75
   155.92         12.11       3439.53       2553.15          0.02          1.94
   155.93         12.11       3435.05       2549.79          0.01         -2.35
   155.94         12.11       3439.66       2553.15          0.01          2.46
   155.95         12.11       3435.17       2549.79          0.01         -1.42
   155.96         12.11       3439.78       2553.15          0.01          3.15
   155.97         12.11       3439.94       2553.15          0.01          3.23
   155.98         12.11       3440.06       2553.15          0.01          3.31
   155.99         12.11       3440.22       2553.15          0.00          3.60
   156.00         12.11       3440.22       2553.15          0.00         -0.12
   156.01         12.11       3440.22       2553.15         -0.00          4.53
   156.02         12.11       3440.83       2553.57         -0.00          0.73
   156.03         12.11       3440.83       2553.57         -0.00          5.34
   156.04         12.11       3440.87       2553.57         -0.00          0.81
   156.05         12.11       3440.87       2553.57         -0.00          0.85
   156.06         12.11       3440.87       2553.57         -0.00          0.89
   156.07         12.11       3440.87       2553.57         -0.00          0.89
   156.08         12.11       3436.30       2550.21         -0.00         -3.60
   156.09         12.11       3440.83       2553.57         -0.00          0.97
   156.10         12.11       3436.42       2550.21         -0.01         -3.44
   156.11         12.10       3441.24       2553.57         -0.01          1.34
   156.12         12.10       3437.43       2550.63         -0.01         -2.59
   156.13         12.10       3441.44       2553.57         -0.01          1.21
   156.14         12.10       3436.79       2550.21         -0.00         -3.64
   156.15         12.10       3441.11       2553.57          0.00          0.57
   156.16         12.10       3441.11       2553.57          0.00          5.05
   156.17         12.10       3441.24       2553.57          0.00          0.57
   156.18         12.10       3441.40       2553.57         -0.00          4.73
   156.19         12.10       3442.13       2553.99         -0.00          0.89
   156.20         12.10       3442.08       2553.99         -0.00          5.30
   156.21         12.10       3441.88       2553.99          0.00          0.48
   156.22         12.10       3441.60       2553.99          0.01          3.96
   156.23         12.11       3440.79       2553.57          0.01         -1.30
   156.24         12.11       3440.67       2553.57          0.01         -1.30
   156.25         12.11       3440.75       2553.57          0.01         -1.05
   156.26         12.11       3440.87       2553.57          0.00         -0.73
