#Written by Robertson Geologging WinLogger V1.0/406
~VERSION INFORMATION
#------------------------------------------------------------------------------
 VERS. 2.0 : CWLS LOG ASCII STANDARD - VERSION 2.0
 WRAP. NO  : ONE LINE PER DEPTH STEP
~WELL INFORMATION
#MNEM.UNIT         DATA                                DESCRIPTION OF MNEMONIC
#------------------------------------------------------------------------------
 STRT.M          7.6600                            :   START DEPTH
 STOP.M        258.0000                            :   STOP DEPTH
 STEP.M          0.0100                            :   STEP VALUE
 NULL.        -999.2500                            :   NULL VALUE
 COMP.    I.W.S.                                   :   COMPANY NAME
 WELL.    Mainsforth                               :   WELL NAME
 FLD.     Mainsforth                               :   FIELD NAME
 LOC.     N/A                                      :   LOCATION
 PROV.    N/A                                      :   PROVINCE
 SRVC.    N/A                                      :   SERVICE COMPANY NAME
 DATE.    21 Jul 09                                :   DATE
 UWI.     N/A                                      :   UNIQUE WELL IDENTIFIER
~PARAMETER INFORMATION
#MNEMO.UNIT         VALUE                 DESCRIPTION OF MNEMONIC
#------------------------------------------------------------------------------
~OTHER INFORMATION SECTION
#------------------------------------------------------------------------------
 TCGS 1365
~CURVE INFORMATION
#MNEMO.UNIT         API CODE              CURVE DESCRIPTION
#------------------------------------------------------------------------------
 DEPTH.M                                 :   0     Depth
 TEMP.DegC                               :   1     Temperature
 CN25.uS/cm                              :   2     Conductivity@25DegC
 DELT.DegC                               :   3     Delta T
 DELC.uS/cm                              :   4     Delta C
 NGAM.CPS                                :   5     Natural Gamma
 COND.uS/cm                              :   6     Conductivity
#------------------------------------------------------------------------------
~A  DEPTH     TEMP      CN25      DELT      DELC      NGAM      COND      
# ...
   224.62     14.14   4691.41      0.00      9.99      0.00   3668.93 
   224.63     14.14   4680.25      0.01     -3.51      0.00   3660.65 
   224.64     14.14   4691.41      0.01      7.06      0.00   3668.93 
   224.65     14.13   4683.77      0.00      1.77      0.00   3662.49 
   224.66     14.12   4691.98      0.00     14.70      0.00   3668.01 
   224.67     14.11   4686.68     -0.00      0.58      0.00   3662.49 
   224.68     14.11   4693.73     -0.00      9.99      0.00   3668.01 
   224.69     14.10   4687.26     -0.01      1.75      0.00   3662.49 
   224.70     14.11   4686.68     -0.01      3.52      0.00   3662.49 
   224.71     14.12   4691.98      0.00      7.05      8.00   3668.01 
   224.72     14.12   4685.51     -0.01      9.97      0.00   3662.49 
   224.73     14.13   4692.58     -0.00     11.16      7.00   3668.93 
   224.74     14.13   4690.82      0.00      7.05      0.00   3668.01 
   224.75     14.12   4685.51     -0.01      4.10      0.00   3662.49 
   224.76     14.13   4691.40      0.00      6.47      0.00   3668.01 
   224.77     14.13   4684.35      0.01      0.60      0.00   3662.49 
   224.78     14.12   4693.16      0.01      6.48      0.00   3668.93 
   224.79     14.13   4683.77      0.02      0.02      7.00   3662.49 
   224.80     14.13   4690.82      0.02      4.72      0.00   3668.01 
   224.81     14.11   4686.10     -0.01      3.52      0.00   3662.49 
   224.82     14.12   4693.16     -0.01      9.39      0.00   3668.93 
   224.83     14.14   4680.83      0.00     -0.58      0.00   3660.65 
   224.84     14.14   4691.41     -0.00      8.81      0.00   3668.93 
   224.85     14.15   4673.80      0.00     -6.45      7.00   3656.05 
   224.86     14.15   4689.07      0.00      6.47      0.00   3668.01 
   224.87     14.13   4691.99      0.00      8.23      0.00   3668.93 
   224.88     14.13   4682.00      0.00      0.00      0.00   3660.65 
   224.89     14.13   4692.58      0.01      7.06      0.00   3668.93 
   224.90     14.12   4691.98      0.02      7.07      0.00   3668.01 
   224.91     14.13   4683.77      0.02     -2.91      0.00   3662.49 
   224.92     14.13   4690.82      0.03      3.56      0.00   3668.01 
   224.93     14.13   4683.77      0.02      0.02      0.00   3662.49 
   224.94     14.14   4691.41      0.02      5.90      0.00   3668.93 
   224.95     14.13   4691.40      0.01     -1.17      0.00   3668.01 
   224.96     14.14   4683.18      0.01     -1.75      0.00   3662.49 
   224.97     14.13   4691.40      0.01      5.89      0.00   3668.01 
   224.98     14.13   4692.58      0.00      7.64      0.00   3668.93 
   224.99     14.13   4682.00      0.00     -0.58      0.00   3660.65 
   225.00     14.12   4693.74      0.00      8.23      0.00   3668.93 
   225.01     14.13   4690.82      0.01      5.30      0.00   3668.01 
   225.02     14.12   4685.51     -0.00      2.93      0.00   3662.49 
   225.03     14.13   4691.40      0.00      6.47      0.00   3668.01 
   225.04     14.13   4692.58     -0.00      8.81      0.00   3668.93 
   225.05     14.12   4683.16     -0.01      1.16      0.00   3660.65 
   225.06     14.12   4693.16      0.00      8.23      0.00   3668.93 
   225.07     14.12   4692.57     -0.01     -0.01      0.00   3668.01 
   225.08     14.13   4684.35      0.01      1.19      0.00   3662.49 
   225.09     14.13   4690.82      0.01      5.89      0.00   3668.01 
   225.10     14.13   4691.99      0.00      7.64      7.00   3668.93 
   225.11     14.15   4682.02      0.02      0.02      0.00   3662.49 
   225.12     14.14   4689.65      0.00      6.47      0.00   3668.01 
   225.13     14.14   4691.41      0.00      0.00      0.00   3668.93 
   225.14     14.15   4682.02      0.01      1.19      0.00   3662.49 
   225.15     14.14   4690.23      0.00      7.05      0.00   3668.01 
   225.16     14.13   4691.99      0.00      7.64      0.00   3668.93 
   225.17     14.14   4683.18      0.00     -7.63      0.00   3662.49 
   225.18     14.14   4690.23      0.00      6.47      0.00   3668.01 
   225.19     14.13   4691.99      0.00      8.23      0.00   3668.93 
   225.20     14.13   4683.77      0.00      2.35      0.00   3662.49 
   225.21     14.13   4690.82      0.00      7.05      0.00   3668.01 
   225.22     14.12   4693.16     -0.01      1.75      0.00   3668.93 
   225.23     14.11   4686.10     -0.03      5.84      0.00   3662.49 
   225.24     14.12   4692.57     -0.02      9.96      0.00   3668.01 
   225.25     14.12   4693.74     -0.02     11.14      0.00   3668.93 
   225.26     14.13   4691.99     -0.01      2.34      0.00   3668.93 
   225.27     14.14   4680.83      0.00     -2.93      0.00   3660.65 
   225.28     14.12   4693.16     -0.02     12.91      0.00   3668.93 
   225.29     14.13   4692.58     -0.00      0.58      0.00   3668.93 
   225.30     14.12   4691.98      0.00      7.05      0.00   3668.01 
   225.31     14.12   4684.93     -0.01      3.51      0.00   3662.49 
   225.32     14.14   4690.23      0.00      6.47      0.00   3668.01 
   225.33     14.13   4692.58     -0.01      1.17      0.00   3668.93 
   225.34     14.13   4684.35     -0.01      3.51      0.00   3662.49 
   225.35     14.14   4690.23      0.00      6.47      0.00   3668.01 
   225.36     14.14   4691.41      0.01      0.01      0.00   3668.93 
   225.37     14.15   4690.24      0.02      5.90      0.00   3668.93 
   225.38     14.15   4688.49      0.02     -2.91      0.00   3668.01 
   225.39     14.14   4682.60      0.01     -1.16      0.00   3662.49 
   225.40     14.14   4689.65      0.00      6.47      0.00   3668.01 
   225.41     14.14   4691.41      0.00      1.18      0.00   3668.93 
   225.42     14.13   4692.58     -0.00      8.81      0.00   3668.93 
   225.43     14.14   4689.65      0.01     -1.17      0.00   3668.01 
   225.44     14.13   4683.77      0.00     -0.58      0.00   3662.49 
   225.45     14.13   4691.99      0.00      7.64      0.00   3668.93 
   225.46     14.14   4689.65      0.01     -1.17      0.00   3668.01 
   225.47     14.13   4692.58      0.00      8.23      0.00   3668.93 
   225.48     14.13   4683.77      0.00     -7.63      0.00   3662.49 
   225.49     14.14   4689.65      0.01      5.89      0.00   3668.01 
   225.50     14.14   4690.83      0.00      9.99      0.00   3668.93 
   225.51     14.15   4689.07      0.01     -2.34      0.00   3668.01 
   225.52     14.14   4690.83      0.00     10.57      0.00   3668.93 
   225.53     14.14   4691.41      0.00      0.00      0.00   3668.93 
   225.54     14.15   4689.07      0.00      8.82      0.00   3668.01 
   225.55     14.14   4690.83      0.00     -0.58      0.00   3668.93 
   225.56     14.15   4689.07      0.01      7.65      0.00   3668.01 
   225.57     14.15   4682.02      0.01     -9.97      0.00   3662.49 
   225.58     14.15   4690.24      0.02      8.25      0.00   3668.93 
   225.59     14.14   4689.65      0.01     -2.92      0.00   3668.01 
   225.60     14.14   4691.41      0.00     10.58      0.00   3668.93 
   225.61     14.13   4690.82     -0.00     -0.59      0.00   3668.01 
   225.62     14.13   4692.58     -0.01     12.32      0.00   3668.93 
   225.63     14.13   4690.82     -0.00     -0.59      0.00   3668.01 
   225.64     14.13   4692.58     -0.00      8.81      7.00   3668.93 
   225.65     14.13   4691.99      0.01      0.01      0.00   3668.93 
   225.66     14.12   4691.98      0.01      5.30      0.00   3668.01 
   225.67     14.13   4684.35      0.02     -9.39      0.00   3662.49 
   225.68     14.14   4690.23      0.03      2.97      0.00   3668.01 
   225.69     14.13   4691.99      0.02      5.31      0.00   3668.93 
   225.70     14.14   4690.23      0.01     -1.75      0.00   3668.01 
   225.71     14.14   4691.41      0.02      5.90      0.00   3668.93 
   225.72     14.13   4692.58      0.00      0.00      0.00   3668.93 
   225.73     14.14   4689.65      0.01     -1.17      0.00   3668.01 
   225.74     14.15   4690.24      0.03      4.73      0.00   3668.93 
