#Written by Robertson Geologging WinLogger V1.5/410
~VERSION INFORMATION
#------------------------------------------------------------------------------
 VERS. 2.0 : CWLS LOG ASCII STANDARD - VERSION 2.0
 WRAP. NO  : ONE LINE PER DEPTH STEP
~WELL INFORMATION
#MNEM.UNIT         DATA                                DESCRIPTION OF MNEMONIC
#------------------------------------------------------------------------------
 STRT.M          6.2700                            :   START DEPTH
 STOP.M        256.6400                            :   STOP DEPTH
 STEP.M          0.0100                            :   STEP VALUE
 NULL.        -999.2500                            :   NULL VALUE
 COMP.    IWS                                      :   COMPANY NAME
 WELL.    MAINSFORTH                               :   WELL NAME
 FLD.     DURHAM                                   :   FIELD NAME
 LOC.     N/A                                      :   LOCATION
 PROV.    N/A                                      :   PROVINCE
 SRVC.    N/A                                      :   SERVICE COMPANY NAME
 DATE.    16 Dec 09                                :   DATE
 UWI.     N/A                                      :   UNIQUE WELL IDENTIFIER
~PARAMETER INFORMATION
#MNEMO.UNIT         VALUE                 DESCRIPTION OF MNEMONIC
#------------------------------------------------------------------------------
~OTHER INFORMATION SECTION
#------------------------------------------------------------------------------
 TCDS 1365
~CURVE INFORMATION
#MNEMO.UNIT         API CODE              CURVE DESCRIPTION
#------------------------------------------------------------------------------
 DEPTH.M                                 :   0     Depth
 TEMP.DegC                               :   1     Temperature
 COND.uS/cm                              :   2     Conductivity@25DegC
 COND.uS/cm                              :   3     Absolute Conductivity
 DELT.DegC                               :   4     Delta T
 DELC.uS/cm                              :   5     Delta C
#------------------------------------------------------------------------------
~A  DEPTH          TEMP          COND          COND          DELT          DELC
     6.27          0.00          0.00          0.00          0.00          0.00
     6.28          0.00          0.00          0.00          0.00          0.00
     6.29          0.00          0.00          0.00          0.00          0.00
     6.30          0.00          0.00          0.00          0.00          0.00
     6.31          0.00          0.00          0.00          0.00          0.00
     6.32          0.00          0.00          0.00          0.00          0.00
     6.33          0.00          0.00          0.00          0.00          0.00
     6.34          0.00          0.00          0.00          0.00          0.00
     6.35          0.00          0.00          0.00          0.00          0.00
     6.36          0.00          0.00          0.00          0.00          0.00
     6.37          0.00          0.00          0.00          0.00          0.00
     6.38          0.00          0.00          0.00          0.00          0.00
     6.39          0.00          0.00          0.00          0.00          0.00
     6.40          0.00          0.00          0.00          0.00          0.00
     6.41          0.00          0.00          0.00          0.00          0.00
     6.42          0.00          0.00          0.00          0.00          0.00
     6.43          0.00          0.00          0.00          0.00          0.00
     6.44          0.00          0.00          0.00          0.00          0.00
     6.45          0.00          0.00          0.00          0.00          0.00
     6.46          0.00          0.00          0.00          0.00          0.00
     6.47          0.00          0.00          0.00          0.00          0.00
     6.48          0.00          0.00          0.00          0.00          0.00
     6.49          0.00          0.00          0.00          0.00          0.00
     6.50          0.00          0.00          0.00          0.00          0.00
     6.51          0.00          0.00          0.00          0.00          0.00
     6.52          0.00          0.00          0.00          0.00          0.00
     6.53          0.00          0.00          0.00          0.00          0.00
     6.54          0.00          0.00          0.00          0.00          0.00
     6.55          0.00          0.00          0.00          0.00          0.00
     6.56          0.00          0.00          0.00          0.00          0.00
     6.57          0.00          0.00          0.00          0.00          0.00
     6.58          0.00          0.00          0.00          0.00          0.00
     6.59          0.00          0.00          0.00          0.00          0.00
     6.60          0.00          0.00          0.00          0.00          0.00
     6.61          0.00          0.00          0.00          0.00          0.00
     6.62          0.00          0.00          0.00          0.00          0.00
     6.63          0.00          0.00          0.00          0.00          0.00
     6.64          0.00          0.00          0.00          0.00          0.00
     6.65          0.00          0.00          0.00          0.00          0.00
     6.66          0.00          0.00          0.00          0.00          0.00
     6.67          0.00          0.00          0.00          0.00          0.00
     6.68          0.00          0.00          0.00          0.00          0.00
     6.69          0.00          0.00          0.00          0.00          0.00
     6.70          0.00          0.00          0.00          0.00          0.00
     6.71          0.00          0.00          0.00          0.00          0.00
     6.72          0.00          0.00          0.00          0.00          0.00
     6.73          0.00          0.00          0.00          0.00          0.00
     6.74          0.00          0.00          0.00          0.00          0.00
     6.75          0.00          0.00          0.00          0.00          0.00
     6.76          0.00          0.00          0.00          0.00          0.00
     6.77          0.00          0.00          0.00          0.00          0.00
     6.78          0.00          0.00          0.00          0.00          0.00
     6.79          0.00          0.00          0.00          0.00          0.00
     6.80          0.00          0.00          0.00          0.00          0.00
     6.81          0.00          0.00          0.00          0.00          0.00
     6.82          0.00          0.00          0.00          0.00          0.00
     6.83          0.00          0.00          0.00          0.00          0.00
     6.84          0.00          0.00          0.00          0.00          0.00
     6.85          0.00          0.00          0.00          0.00          0.00
     6.86          0.00          0.00          0.00          0.00          0.00
     6.87          0.00          0.00          0.00          0.00          0.00
     6.88          0.00          0.00          0.00          0.00          0.00
     6.89          0.00          0.00          0.00          0.00          0.00
     6.90          0.00          0.00          0.00          0.00          0.00
     6.91          0.00          0.00          0.00          0.00          0.00
     6.92          0.00          0.00          0.00          0.00          0.00
     6.93          0.00          0.00          0.00          0.00          0.00
     6.94          0.00          0.00          0.00          0.00          0.00
     6.95          0.00          0.00          0.00          0.00          0.00
     6.96          0.00          0.00          0.00          0.00          0.00
     6.97          0.00          0.00          0.00          0.00          0.00
     6.98          0.00          0.00          0.00          0.00          0.00
     6.99          0.00          0.00          0.00          0.00          0.00
     7.00          0.00          0.00          0.00          0.00          0.00
     7.01          0.00          0.00          0.00          0.00          0.00
     7.02          0.00          0.00          0.00          0.00          0.00
     7.03          0.00          0.00          0.00          0.00          0.00
     7.04          0.00          0.00          0.00          0.00          0.00
     7.05          0.00          0.00          0.00          0.00          0.00
     7.06          0.00          0.00          0.00          0.00          0.00
     7.07          0.00          0.00          0.00          0.00          0.00
     7.08          0.00          0.00          0.00          0.00          0.00
     7.09          0.00          0.00          0.00          0.00          0.00
     7.10          0.00          0.00          0.00          0.00          0.00
     7.11          0.00          0.00          0.00          0.00          0.00
     7.12          0.00          0.00          0.00          0.00          0.00
     7.13          0.00          0.00          0.00          0.00          0.00
     7.14          0.00          0.00          0.00          0.00          0.00
     7.15          0.00          0.00          0.00          0.00          0.00
     7.16          0.00          0.00          0.00          0.00          0.00
     7.17          0.00          0.00          0.00          0.00          0.00
     7.18          0.00          0.00          0.00          0.00          0.00
     7.19          0.00          0.00          0.00          0.00          0.00
     7.20          0.00          0.00          0.00          0.00          0.00
     7.21          0.00          0.00          0.00          0.00          0.00
     7.22          0.00          0.00          0.00          0.00          0.00
     7.23          0.00          0.00          0.00          0.00          0.00
     7.24          0.00          0.00          0.00          0.00          0.00
     7.25          0.00          0.00          0.00          0.00          0.00
     7.26          0.00          0.00          0.00          0.00          0.00
