#Written by Robertson Geologging WinLogger V1.0/406
~VERSION INFORMATION
#------------------------------------------------------------------------------
 VERS. 2.0 : CWLS LOG ASCII STANDARD - VERSION 2.0
 WRAP. NO  : ONE LINE PER DEPTH STEP
~WELL INFORMATION
#MNEM.UNIT         DATA                                DESCRIPTION OF MNEMONIC
#------------------------------------------------------------------------------
 STRT.M          7.6600                            :   START DEPTH
 STOP.M        258.0000                            :   STOP DEPTH
 STEP.M          0.0100                            :   STEP VALUE
 NULL.        -999.2500                            :   NULL VALUE
 COMP.    I.W.S.                                   :   COMPANY NAME
 WELL.    Mainsforth                               :   WELL NAME
 FLD.     Mainsforth                               :   FIELD NAME
 LOC.     N/A                                      :   LOCATION
 PROV.    N/A                                      :   PROVINCE
 SRVC.    N/A                                      :   SERVICE COMPANY NAME
 DATE.    21 Jul 09                                :   DATE
 UWI.     N/A                                      :   UNIQUE WELL IDENTIFIER
~PARAMETER INFORMATION
#MNEMO.UNIT         VALUE                 DESCRIPTION OF MNEMONIC
#------------------------------------------------------------------------------
~OTHER INFORMATION SECTION
#------------------------------------------------------------------------------
 TCGS 1365
~CURVE INFORMATION
#MNEMO.UNIT         API CODE              CURVE DESCRIPTION
#------------------------------------------------------------------------------
 DEPTH.M                                 :   0     Depth
 TEMP.DegC                               :   1     Temperature
 CN25.uS/cm                              :   2     Conductivity@25DegC
 DELT.DegC                               :   3     Delta T
 DELC.uS/cm                              :   4     Delta C
 NGAM.CPS                                :   5     Natural Gamma
 COND.uS/cm                              :   6     Conductivity
#------------------------------------------------------------------------------
~A  DEPTH     TEMP      CN25      DELT      DELC      NGAM      COND      
# ...
   157.95     12.11   3399.23      0.01     -0.89      0.00   2518.33 
   157.96     12.12   3398.79      0.02     -2.23      0.00   2518.33 
   157.97     12.11   3399.23      0.02     -1.78      0.00   2518.33 
   157.98     12.12   3398.79      0.01     -1.34      0.00   2518.33 
   157.99     12.12   3398.34      0.01     -1.34      7.00   2518.33 
   158.00     12.12   3398.79      0.00      2.45      0.00   2518.33 
   158.01     12.12   3398.79     -0.00      0.45      0.00   2518.33 
   158.02     12.12   3398.79     -0.00      0.45      0.00   2518.33 
   158.03     12.11   3399.23     -0.01      0.89      0.00   2518.33 
   158.04     12.11   3399.68     -0.00      9.04      0.00   2518.33 
   158.05     12.11   3391.09      0.00    -15.96      0.00   2511.95 
   158.06     12.10   3400.13     -0.00      0.45      0.00   2518.33 
   158.07     12.10   3400.13     -0.00      0.45      0.00   2518.33 
   158.08     12.10   3400.13     -0.00      9.04      0.00   2518.33 
   158.09     12.09   3401.02     -0.01      1.34      0.00   2518.33 
   158.10     12.09   3401.02     -0.01      0.89      0.00   2518.33 
   158.11     12.10   3400.13     -0.00      0.45      0.00   2518.33 
   158.12     12.10   3398.12     -0.02      1.78      0.00   2516.51 
   158.13     12.11   3399.23     -0.01      0.89      0.00   2518.33 
   158.14     12.11   3399.23     -0.01      1.34      0.00   2518.33 
   158.15     12.10   3400.13     -0.02      1.78      0.00   2518.33 
   158.16     12.10   3400.13     -0.01      1.34      0.00   2518.33 
   158.17     12.10   3400.57     -0.01      0.89      0.00   2518.33 
   158.18     12.10   3400.57     -0.00      0.45      0.00   2518.33 
   158.19     12.10   3400.57      0.00      0.00      0.00   2518.33 
   158.20     12.10   3400.57     -0.01      0.89      0.00   2518.33 
   158.21     12.10   3397.67     -0.01      0.89      0.00   2516.51 
   158.22     12.11   3399.23     -0.01      0.89      0.00   2518.33 
   158.23     12.12   3398.34     -0.01      0.89      0.00   2518.33 
   158.24     12.12   3397.90      0.00      0.00      7.00   2518.33 
   158.25     12.12   3389.75     -0.00     -8.14      0.00   2511.95 
   158.26     12.11   3399.23     -0.00      0.45      0.00   2518.33 
   158.27     12.11   3399.23      0.00      8.59      0.00   2518.33 
   158.28     12.11   3396.78      0.00     -2.45      0.00   2516.51 
   158.29     12.11   3399.23      0.00     -0.45      0.00   2518.33 
   158.30     12.12   3398.34      0.02     -1.78      0.00   2518.33 
   158.31     12.12   3398.79      0.01     -1.34      0.00   2518.33 
   158.32     12.12   3398.79      0.02     -1.78      0.00   2518.33 
   158.33     12.12   3398.34      0.02     -1.78      0.00   2518.33 
   158.34     12.12   3398.79      0.01     -1.34      0.00   2518.33 
   158.35     12.12   3395.44      0.01     -1.34      0.00   2516.51 
   158.36     12.12   3398.34      0.00     -0.45      0.00   2518.33 
   158.37     12.12   3398.79      0.00     -0.45      0.00   2518.33 
   158.38     12.12   3398.79     -0.00      0.45      0.00   2518.33 
   158.39     12.10   3400.13     -0.01      1.34      0.00   2518.33 
   158.40     12.11   3399.23     -0.00      0.45      0.00   2518.33 
   158.41     12.12   3396.33     -0.00     -2.01      0.00   2516.51 
   158.42     12.12   3398.34      0.00      2.45      0.00   2518.33 
   158.43     12.12   3397.90      0.00      0.00      0.00   2518.33 
   158.44     12.11   3399.23     -0.01      0.89      0.00   2518.33 
   158.45     12.10   3400.13     -0.01      0.89      7.00   2518.33 
   158.46     12.10   3400.13     -0.00      9.04      0.00   2518.33 
   158.47     12.10   3400.13     -0.01     -6.47      0.00   2518.33 
   158.48     12.11   3391.09     -0.01     -7.70      0.00   2511.95 
   158.49     12.11   3406.60     -0.00      7.81      0.00   2523.79 
   158.50     12.12   3398.79     -0.00      9.03      0.00   2518.33 
   158.51     12.12   3398.34      0.00     -7.81      0.00   2518.33 
   158.52     12.12   3389.31      0.01     -9.48      0.00   2511.95 
   158.53     12.12   3398.34      0.00      8.59      0.00   2518.33 
   158.54     12.12   3398.79     -0.01      0.89      0.00   2518.33 
   158.55     12.11   3399.68     -0.01     -6.02      0.00   2518.33 
   158.56     12.10   3400.57     -0.01      0.89      0.00   2518.33 
   158.57     12.10   3400.57     -0.01      9.48      0.00   2518.33 
   158.58     12.10   3400.13      0.00      0.00      0.00   2518.33 
   158.59     12.11   3399.68      0.00     -7.37      0.00   2518.33 
   158.60     12.10   3397.67     -0.01      7.47      0.00   2516.51 
   158.61     12.11   3399.68     -0.01      0.89      7.00   2518.33 
   158.62     12.10   3400.13     -0.01      1.34      0.00   2518.33 
   158.63     12.10   3400.57     -0.01      0.89      0.00   2518.33 
   158.64     12.10   3400.57     -0.01      0.89      0.00   2518.33 
   158.65     12.10   3387.85     -0.00    -11.83      8.00   2509.22 
   158.66     12.11   3399.68     -0.00      0.45      0.00   2518.33 
   158.67     12.10   3400.13     -0.01      1.34      0.00   2518.33 
   158.68     12.11   3399.68     -0.00      0.45      0.00   2518.33 
   158.69     12.10   3400.57     -0.02      4.24      0.00   2518.33 
   158.70     12.10   3400.13     -0.01      1.34      0.00   2518.33 
   158.71     12.10   3400.13     -0.01      1.34      0.00   2518.33 
   158.72     12.11   3397.23     -0.02     -0.23      0.00   2516.51 
   158.73     12.11   3399.23     -0.01      1.34      0.00   2518.33 
   158.74     12.11   3399.23     -0.01      0.89      0.00   2518.33 
   158.75     12.12   3398.34      0.00      0.00      0.00   2518.33 
   158.76     12.12   3398.79      0.00      0.00      0.00   2518.33 
   158.77     12.12   3389.75      0.01     -0.89      7.00   2511.95 
   158.78     12.12   3405.70      0.01      6.47      0.00   2523.79 
   158.79     12.12   3398.79      0.01     -0.89      0.00   2518.33 
   158.80     12.12   3397.90      0.02     -1.78      0.00   2518.33 
   158.81     12.12   3389.75      0.02    -10.37      0.00   2511.95 
   158.82     12.12   3398.79      0.01     -0.89      0.00   2518.33 
   158.83     12.12   3398.79      0.01     -0.89      0.00   2518.33 
   158.84     12.11   3399.23      0.00      0.00      0.00   2518.33 
   158.85     12.11   3399.68     -0.00      0.45      0.00   2518.33 
   158.86     12.10   3400.13      0.00      0.00      7.00   2518.33 
   158.87     12.10   3400.13      0.00     -0.45      0.00   2518.33 
   158.88     12.10   3400.57      0.01     -0.89      0.00   2518.33 
   158.89     12.10   3400.13      0.00      8.15      0.00   2518.33 
   158.90     12.11   3399.68      0.00     -7.37      0.00   2518.33 
   158.91     12.11   3397.23     -0.00     -2.01      0.00   2516.51 
   158.92     12.12   3398.79     -0.00      9.03      0.00   2518.33 
   158.93     12.11   3399.23     -0.00      0.45      0.00   2518.33 
   158.94     12.12   3398.34      0.01     -0.89      0.00   2518.33 
   158.95     12.13   3397.45      0.01     -1.34      0.00   2518.33 
   158.96     12.13   3397.45      0.02     -1.78      0.00   2518.33 
   158.97     12.13   3397.01      0.02     -1.78      0.00   2518.33 
   158.98     12.13   3397.01      0.01     -1.34      0.00   2518.33 
   158.99     12.12   3389.31      0.01     -9.48      0.00   2511.95 
   159.00     12.13   3397.45      0.01     -1.34      0.00   2518.33 
   159.01     12.12   3397.90      0.01     -0.89      0.00   2518.33 
   159.02     12.12   3397.90      0.01     -1.34      0.00   2518.33 
   159.03     12.12   3398.34      0.01     -1.34      0.00   2518.33 
   159.04     12.12   3398.79      0.01      7.70      0.00   2518.33 
   159.05     12.11   3399.23      0.01     -0.89      0.00   2518.33 
   159.06     12.11   3399.68      0.00     -0.45      0.00   2518.33 
   159.07     12.11   3399.68      0.00     -0.45      0.00   2518.33 
