#Written by Robertson Geologging WinLogger V1.5/410
~VERSION INFORMATION
#------------------------------------------------------------------------------
 VERS. 2.0 : CWLS LOG ASCII STANDARD - VERSION 2.0
 WRAP. NO  : ONE LINE PER DEPTH STEP
~WELL INFORMATION
#MNEM.UNIT         DATA                                DESCRIPTION OF MNEMONIC
#------------------------------------------------------------------------------
 STRT.M          6.2700                            :   START DEPTH
 STOP.M        256.6400                            :   STOP DEPTH
 STEP.M          0.0100                            :   STEP VALUE
 NULL.        -999.2500                            :   NULL VALUE
 COMP.    IWS                                      :   COMPANY NAME
 WELL.    MAINSFORTH                               :   WELL NAME
 FLD.     DURHAM                                   :   FIELD NAME
 LOC.     N/A                                      :   LOCATION
 PROV.    N/A                                      :   PROVINCE
 SRVC.    N/A                                      :   SERVICE COMPANY NAME
 DATE.    16 Dec 09                                :   DATE
 UWI.     N/A                                      :   UNIQUE WELL IDENTIFIER
~PARAMETER INFORMATION
#MNEMO.UNIT         VALUE                 DESCRIPTION OF MNEMONIC
#------------------------------------------------------------------------------
~OTHER INFORMATION SECTION
#------------------------------------------------------------------------------
 TCDS 1365
~CURVE INFORMATION
#MNEMO.UNIT         API CODE              CURVE DESCRIPTION
#------------------------------------------------------------------------------
 DEPTH.M                                 :   0     Depth
 TEMP.DegC                               :   1     Temperature
 COND.uS/cm                              :   2     Conductivity@25DegC
 COND.uS/cm                              :   3     Absolute Conductivity
 DELT.DegC                               :   4     Delta T
 DELC.uS/cm                              :   5     Delta C
#------------------------------------------------------------------------------
~A  DEPTH          TEMP          COND          COND          DELT          DELC
# ...
    39.27         10.60       1872.67       1333.44          0.00          3.28
    39.28         10.60       1869.77       1331.34          0.00          0.38
    39.29         10.60       1865.68       1328.41          0.00         -3.69
    39.30         10.60       1869.80       1331.34          0.00          0.38
    39.31         10.60       1865.65       1328.41          0.00         -3.78
    39.32         10.60       1869.84       1331.34          0.01         -0.86
    39.33         10.60       1865.79       1328.41          0.01         -1.45
    39.34         10.60       1870.09       1331.34          0.00          1.15
    39.35         10.59       1866.13       1328.41         -0.00         -3.94
    39.36         10.59       1867.38       1329.25         -0.01         -0.79
    39.37         10.59       1867.45       1329.25         -0.01         -0.67
    39.38         10.59       1867.43       1329.25         -0.01         -0.79
    39.39         10.59       1867.38       1329.25         -0.01         -2.06
    39.40         10.59       1871.46       1332.18         -0.00          1.95
    39.41         10.59       1870.21       1331.34         -0.00          0.73
    39.42         10.59       1871.95       1332.60         -0.00          2.54
    39.43         10.60       1867.76       1329.67         -0.00         -0.43
    39.44         10.60       1871.84       1332.60         -0.00          1.93
    39.45         10.60       1867.60       1329.67         -0.00         -4.66
    39.46         10.60       1871.61       1332.60          0.00          3.44
    39.47         10.60       1870.41       1331.76          0.00          0.43
    39.48         10.60       1870.38       1331.76          0.00          0.45
    39.49         10.60       1870.36       1331.76          0.00          0.54
    39.50         10.60       1870.36       1331.76         -0.00          1.81
    39.51         10.60       1870.36       1331.76         -0.00          1.93
    39.52         10.60       1867.44       1329.67         -0.00         -0.95
    39.53         10.60       1869.84       1331.34         -0.00          1.41
    39.54         10.60       1869.93       1331.34         -0.01          3.85
    39.55         10.60       1870.00       1331.34         -0.01         -0.24
    39.56         10.60       1870.09       1331.34         -0.01          3.90
    39.57         10.59       1870.16       1331.34         -0.01         -0.18
    39.58         10.59       1867.22       1329.25         -0.01         -1.42
    39.59         10.59       1871.36       1332.18         -0.01          2.70
    39.60         10.59       1867.22       1329.25         -0.01         -1.49
    39.61         10.59       1871.32       1332.18         -0.00          2.58
    39.62         10.60       1867.17       1329.25         -0.00         -1.58
    39.63         10.60       1867.10       1329.25         -0.00         -1.67
    39.64         10.60       1867.04       1329.25         -0.00         -1.67
    39.65         10.60       1866.90       1329.25         -0.00         -4.10
    39.66         10.60       1866.78       1329.25         -0.00          0.05
    39.67         10.60       1866.69       1329.25         -0.00         -4.05
    39.68         10.61       1865.47       1328.41         -0.00         -1.09
    39.69         10.60       1869.61       1331.34         -0.00          3.15
    39.70         10.60       1865.49       1328.41         -0.00         -0.97
    39.71         10.60       1869.64       1331.34         -0.00          3.19
    39.72         10.60       1865.49       1328.41         -0.00         -0.97
    39.73         10.61       1869.52       1331.34         -0.00          2.99
    39.74         10.61       1872.42       1333.44          0.00          5.86
    39.75         10.61       1868.27       1330.50          0.00         -0.14
    39.76         10.61       1872.44       1333.44          0.00          5.14
    39.77         10.61       1868.39       1330.50          0.00          1.04
    39.78         10.61       1872.53       1333.44          0.00          5.14
    39.79         10.61       1869.57       1331.34          0.00          2.17
    39.80         10.61       1869.43       1331.34          0.01         -3.26
    39.81         10.61       1869.34       1331.34          0.01          0.76
    39.82         10.61       1868.07       1330.50          0.01         -0.50
    39.83         10.61       1869.79       1331.76          0.01          1.21
    39.84         10.61       1868.70       1330.92          0.01          0.15
    39.85         10.61       1865.78       1328.83          0.01         -2.77
    39.86         10.61       1869.90       1331.76          0.01          0.18
    39.87         10.61       1865.76       1328.83          0.01         -1.05
    39.88         10.61       1869.81       1331.76          0.01         -1.23
    39.89         10.61       1868.61       1330.92          0.01          1.62
    39.90         10.61       1868.61       1330.92          0.02         -2.57
    39.91         10.61       1868.63       1330.92          0.02          2.71
    39.92         10.61       1868.59       1330.92          0.02         -1.44
    39.93         10.61       1869.76       1331.76          0.02         -0.26
    39.94         10.61       1868.00       1330.50          0.02         -2.00
    39.95         10.61       1868.00       1330.50          0.02         -2.03
    39.96         10.61       1868.07       1330.50          0.01         -0.78
    39.97         10.61       1868.14       1330.50          0.01         -1.84
    39.98         10.61       1868.25       1330.50          0.01         -1.68
    39.99         10.61       1868.32       1330.50          0.01         -1.50
    40.00         10.61       1865.40       1328.41          0.00         -4.33
    40.01         10.61       1869.54       1331.34          0.00          1.02
    40.02         10.61       1865.45       1328.41          0.00         -3.03
    40.03         10.60       1868.48       1330.50          0.00         -0.02
    40.04         10.60       1868.55       1330.50         -0.00          0.02
    40.05         10.60       1868.60       1330.50         -0.00          1.22
    40.06         10.60       1869.77       1331.34          0.00         -1.77
    40.07         10.60       1869.77       1331.34          0.00          1.11
    40.08         10.60       1868.62       1330.50          0.00         -0.07
    40.09         10.60       1868.62       1330.50          0.00         -0.07
    40.10         10.60       1868.64       1330.50          0.00         -0.07
    40.11         10.60       1868.69       1330.50          0.00         -0.02
    40.12         10.60       1868.71       1330.50          0.00          0.00
    40.13         10.60       1868.76       1330.50         -0.00          0.05
    40.14         10.60       1869.98       1331.34         -0.00          1.29
    40.15         10.60       1868.87       1330.50         -0.00          0.21
    40.16         10.59       1868.96       1330.50         -0.01          0.30
    40.17         10.59       1869.03       1330.50         -0.01          0.41
    40.18         10.59       1869.08       1330.50         -0.01          0.46
    40.19         10.59       1870.23       1331.34         -0.01          1.57
    40.20         10.59       1870.19       1331.34         -0.01          1.52
    40.21         10.59       1870.16       1331.34         -0.01          1.50
    40.22         10.59       1870.14       1331.34         -0.01          1.54
    40.23         10.60       1870.09       1331.34         -0.01          0.41
    40.24         10.60       1873.01       1333.44         -0.01          0.39
    40.25         10.60       1868.85       1330.50         -0.01          0.37
    40.26         10.60       1869.98       1331.34         -0.00         -2.69
