#Written by Robertson Geologging WinLogger V1.5/410
~VERSION INFORMATION
#------------------------------------------------------------------------------
 VERS. 2.0 : CWLS LOG ASCII STANDARD - VERSION 2.0
 WRAP. NO  : ONE LINE PER DEPTH STEP
~WELL INFORMATION
#MNEM.UNIT         DATA                                DESCRIPTION OF MNEMONIC
#------------------------------------------------------------------------------
 STRT.M          0.0600                            :   START DEPTH
 STOP.M        195.0000                            :   STOP DEPTH
 STEP.M          0.0100                            :   STEP VALUE
 NULL.        -999.2500                            :   NULL VALUE
 COMP.    Coal Authority                           :   COMPANY NAME
 WELL.    Thrislington Shaft                       :   WELL NAME
 FLD.     N/A                                      :   FIELD NAME
 LOC.     N/A                                      :   LOCATION
 PROV.    N/A                                      :   PROVINCE
 SRVC.    N/A                                      :   SERVICE COMPANY NAME
 DATE.    15 Dec 08                                :   DATE
 UWI.     N/A                                      :   UNIQUE WELL IDENTIFIER
~PARAMETER INFORMATION
#MNEMO.UNIT         VALUE                 DESCRIPTION OF MNEMONIC
#------------------------------------------------------------------------------
~OTHER INFORMATION SECTION
#------------------------------------------------------------------------------
 TCDS 1365
 15,12,2008
~CURVE INFORMATION
#MNEMO.UNIT         API CODE              CURVE DESCRIPTION
#------------------------------------------------------------------------------
 DEPTH.M                                 :   0     Depth
 COND.uS/cm                              :   1     Conductivity@25DegC
 COND.uS/cm                              :   2     Absolute Conductivity
 TEMP.DegC                               :   3     Temperature
 DELT.DegC                               :   4     Delta T
 DELC.uS/cm                              :   5     Delta C
 NGAM.CPS                                :   6     Natural Gamma
#------------------------------------------------------------------------------
~A  DEPTH          COND          COND          TEMP          DELT          DELC          NGAM
# ...
    90.36       1394.17       1043.33         12.42          0.01          3.02          0.35
    90.37       1390.35       1040.48         12.42          0.01         -4.63          0.35
    90.38       1390.35       1040.48         12.42          0.01         -0.82          0.35
    90.39       1394.14       1043.33         12.42          0.01          2.44          0.35
    90.40       1389.76       1040.07         12.42          0.01         -1.94          0.35
    90.41       1390.80       1040.88         12.42          0.01         -0.89          0.35
    90.42       1390.76       1040.88         12.42          0.01         -0.90          0.35
    90.43       1390.75       1040.88         12.42          0.01         -0.92          0.35
    90.44       1395.15       1044.14         12.42          0.01          4.04          0.35
    90.45       1391.37       1041.29         12.42          0.01         -3.56          0.00
    90.46       1391.44       1041.29         12.42          0.01          0.30          0.00
    90.47       1391.49       1041.29         12.42          0.00          0.36          0.00
    90.48       1391.50       1041.29         12.42          0.00          0.36          0.00
    90.49       1395.38       1044.14         12.41          0.00          4.25          0.00
    90.50       1391.63       1041.29         12.41          0.00         -3.30          0.00
    90.51       1392.24       1041.70         12.41         -0.00          1.10          0.00
    90.52       1395.56       1044.14         12.41         -0.00          4.43          0.00
    90.53       1391.20       1040.88         12.41         -0.00         -3.76          0.00
    90.54       1391.20       1040.88         12.41         -0.00          0.59          0.00
    90.55       1391.22       1040.88         12.41         -0.00          0.07          0.00
    90.56       1391.30       1040.88         12.41         -0.00          0.13          0.00
    90.57       1395.18       1043.73         12.41         -0.01          4.04          0.00
    90.58       1391.38       1040.88         12.40         -0.01         -3.56          0.00
    90.59       1391.37       1040.88         12.41         -0.01          0.26          0.00
    90.60       1391.29       1040.88         12.41         -0.00          0.72          0.00
    90.61       1391.22       1040.88         12.41         -0.00          0.67          0.35
    90.62       1395.01       1043.73         12.41         -0.00          4.48          0.35
    90.63       1391.20       1040.88         12.41         -0.00         -3.20          0.35
    90.64       1391.76       1041.29         12.41         -0.00          1.20          0.35
    90.65       1395.57       1044.14         12.41         -0.00          4.47          0.35
    90.66       1391.15       1040.88         12.41         -0.00         -3.74          0.35
    90.67       1391.07       1040.88         12.41         -0.00          0.08          0.35
    90.68       1391.01       1040.88         12.41         -0.00         -3.73          0.35
    90.69       1391.02       1040.88         12.41         -0.00          0.16          0.35
    90.70       1394.90       1043.73         12.41         -0.01          4.10          0.71
    90.71       1391.14       1040.88         12.41         -0.01         -3.96          0.71
    90.72       1391.12       1040.88         12.41         -0.01         -0.17          0.71
    90.73       1391.04       1040.88         12.41         -0.01          0.31          0.71
    90.74       1390.98       1040.88         12.42         -0.01          0.29          0.71
    90.75       1390.94       1040.88         12.42         -0.01          0.23          0.71
    90.76       1390.99       1040.88         12.42         -0.01         -3.55          0.71
    90.77       1391.62       1041.29         12.41         -0.01          1.40          0.71
    90.78       1395.47       1044.14         12.41         -0.01          5.12          0.35
    90.79       1391.71       1041.29         12.41         -0.00          1.22          0.35
    90.80       1391.75       1041.29         12.41         -0.00          1.10          0.35
    90.81       1391.75       1041.29         12.41          0.00         -2.85          0.35
    90.82       1391.81       1041.29         12.41          0.00          0.97          0.35
    90.83       1395.69       1044.14         12.41          0.00          4.86          0.35
    90.84       1391.38       1040.88         12.40         -0.00         -3.74          0.35
    90.85       1391.43       1040.88         12.40         -0.00          0.16          0.35
    90.86       1395.27       1043.73         12.40         -0.01          0.23          0.35
    90.87       1391.46       1040.88         12.40         -0.01          0.76          0.00
    90.88       1391.45       1040.88         12.40         -0.00          0.16          0.00
    90.89       1391.45       1040.88         12.40         -0.00         -3.63          0.00
    90.90       1391.42       1040.88         12.40         -0.00          0.71          0.00
    90.91       1395.18       1043.73         12.41         -0.01          0.74          0.00
    90.92       1391.38       1040.88         12.40         -0.01          0.79          0.00
    90.93       1391.33       1040.88         12.41         -0.00          0.67          0.00
    90.94       1391.32       1040.88         12.41         -0.00         -3.20          0.00
    90.95       1391.88       1041.29         12.41         -0.00          1.65          0.00
    90.96       1395.70       1044.14         12.41          0.00          5.41          0.00
    90.97       1391.93       1041.29         12.40          0.00          1.63          0.00
    90.98       1391.91       1041.29         12.41         -0.00          1.10          0.00
    90.99       1395.72       1044.14         12.41         -0.00          1.10          0.00
    91.00       1391.35       1040.88         12.41         -0.00          0.58          0.00
    91.01       1395.14       1043.73         12.41         -0.00          3.87          0.00
    91.02       1391.32       1040.88         12.41         -0.00          0.03          0.00
    91.03       1390.74       1040.48         12.41         -0.00          0.05          0.00
    91.04       1394.55       1043.33         12.41         -0.00          0.11          0.00
    91.05       1390.74       1040.48         12.41         -0.00          0.13          0.00
    91.06       1394.58       1043.33         12.41         -0.01          4.01          0.00
    91.07       1390.76       1040.48         12.41         -0.01         -3.58          0.00
    91.08       1390.74       1040.48         12.41         -0.01          0.21          0.00
    91.09       1394.57       1043.33         12.41         -0.01          4.05          0.00
    91.10       1390.20       1040.07         12.41         -0.01         -0.27          0.00
    91.11       1390.74       1040.48         12.41         -0.01          0.84          0.00
    91.12       1390.77       1040.48         12.41         -0.01         -2.94          0.00
    91.13       1390.23       1040.07         12.41         -0.01          0.36          0.00
    91.14       1394.58       1043.33         12.41         -0.01          4.15          0.00
    91.15       1390.79       1040.48         12.41         -0.01          0.33          0.00
    91.16       1390.81       1040.48         12.41         -0.01          0.34          0.00
    91.17       1390.81       1040.48         12.41         -0.01         -4.03          0.00
    91.18       1390.84       1040.48         12.40         -0.01         -0.18          0.00
    91.19       1394.65       1043.33         12.40         -0.01          3.63          0.00
    91.20       1390.86       1040.48         12.40         -0.01         -4.04          0.00
    91.21       1390.87       1040.48         12.40         -0.01          0.26          0.00
