#Written by Robertson Geologging WinLogger V1.5/410
~VERSION INFORMATION
#------------------------------------------------------------------------------
 VERS. 2.0 : CWLS LOG ASCII STANDARD - VERSION 2.0
 WRAP. NO  : ONE LINE PER DEPTH STEP
~WELL INFORMATION
#MNEM.UNIT         DATA                                DESCRIPTION OF MNEMONIC
#------------------------------------------------------------------------------
 STRT.M          0.0600                            :   START DEPTH
 STOP.M        195.0000                            :   STOP DEPTH
 STEP.M          0.0100                            :   STEP VALUE
 NULL.        -999.2500                            :   NULL VALUE
 COMP.    Coal Authority                           :   COMPANY NAME
 WELL.    Thrislington Shaft                       :   WELL NAME
 FLD.     N/A                                      :   FIELD NAME
 LOC.     N/A                                      :   LOCATION
 PROV.    N/A                                      :   PROVINCE
 SRVC.    N/A                                      :   SERVICE COMPANY NAME
 DATE.    15 Dec 08                                :   DATE
 UWI.     N/A                                      :   UNIQUE WELL IDENTIFIER
~PARAMETER INFORMATION
#MNEMO.UNIT         VALUE                 DESCRIPTION OF MNEMONIC
#------------------------------------------------------------------------------
~OTHER INFORMATION SECTION
#------------------------------------------------------------------------------
 TCDS 1365
 15,12,2008
~CURVE INFORMATION
#MNEMO.UNIT         API CODE              CURVE DESCRIPTION
#------------------------------------------------------------------------------
 DEPTH.M                                 :   0     Depth
 COND.uS/cm                              :   1     Conductivity@25DegC
 COND.uS/cm                              :   2     Absolute Conductivity
 TEMP.DegC                               :   3     Temperature
 DELT.DegC                               :   4     Delta T
 DELC.uS/cm                              :   5     Delta C
 NGAM.CPS                                :   6     Natural Gamma
#------------------------------------------------------------------------------
~A  DEPTH          COND          COND          TEMP          DELT          DELC          NGAM
# ...
   155.72       1391.51       1041.70         12.43         -0.01          1.09          0.71
   155.73       1387.64       1038.85         12.43         -0.01         -2.82          0.71
   155.74       1387.56       1038.85         12.43         -0.01         -6.77          0.71
   155.75       1391.27       1041.70         12.44         -0.00          0.65          0.35
   155.76       1387.40       1038.85         12.44          0.00         -7.15          0.35
   155.77       1391.14       1041.70         12.44          0.01          0.24          0.00
   155.78       1387.25       1038.85         12.44          0.01         -3.76          0.35
   155.79       1390.41       1041.29         12.45          0.02         -4.49          0.35
   155.80       1394.10       1044.14         12.45          0.02          2.93          0.35
   155.81       1390.20       1041.29         12.45          0.03         -4.82          0.35
   155.82       1390.61       1041.70         12.45          0.03         -0.05          0.35
   155.83       1390.55       1041.70         12.46          0.03         -0.10          0.35
   155.84       1390.51       1041.70         12.46          0.03         -3.91          0.71
   155.85       1394.32       1044.55         12.46          0.03          3.75          0.71
   155.86       1389.99       1041.29         12.46          0.03         -4.34          0.71
   155.87       1390.02       1041.29         12.46          0.03         -0.43          0.71
   155.88       1390.07       1041.29         12.45          0.02         -0.30          0.71
   155.89       1390.15       1041.29         12.45          0.02         -3.95          0.71
   155.90       1394.02       1044.14         12.45          0.02          3.78          0.71
   155.91       1390.21       1041.29         12.45          0.01         -3.82          0.71
   155.92       1390.23       1041.29         12.45          0.01          0.05          0.71
   155.93       1393.51       1043.73         12.45          0.01          2.79          0.71
   155.94       1389.72       1040.88         12.45          0.01         -4.82          0.71
   155.95       1393.59       1043.73         12.45          0.01          2.82          0.35
   155.96       1389.32       1040.48         12.45          0.01         -5.32          0.35
   155.97       1393.75       1043.73         12.44          0.01          2.89          0.35
   155.98       1393.82       1043.73         12.44          0.01          2.94          0.35
   155.99       1390.06       1040.88         12.44          0.01         -4.64          0.35
   156.00       1393.87       1043.73         12.44          0.01          2.94          0.35
   156.01       1390.09       1040.88         12.44          0.01         -4.68          0.00
   156.02       1393.98       1043.73         12.44          0.01          2.99          0.00
   156.03       1394.02       1043.73         12.44          0.01          2.94          0.00
   156.04       1390.29       1040.88         12.43          0.01         -4.63          0.00
   156.05       1394.16       1043.73         12.43          0.01          3.02          0.00
   156.06       1390.44       1040.88         12.43          0.00         -4.53          0.00
   156.07       1394.89       1044.14         12.43          0.00          3.73          0.71
   156.08       1390.57       1040.88         12.43          0.00         -0.62          0.71
   156.09       1390.58       1040.88         12.43          0.00         -4.43          0.71
   156.10       1394.36       1043.73         12.43          0.00          3.68          0.71
   156.11       1390.49       1040.88         12.43          0.01         -4.02          0.71
   156.12       1394.21       1043.73         12.43          0.01          3.51          0.71
   156.13       1390.31       1040.88         12.43          0.01         -0.37          0.71
   156.14       1390.24       1040.88         12.44          0.01         -4.17          0.71
   156.15       1393.98       1043.73         12.44          0.01          3.46          0.71
   156.16       1390.14       1040.88         12.44          0.01         -4.08          0.71
   156.17       1393.90       1043.73         12.44          0.01          3.55          1.00
   156.18       1389.96       1040.88         12.44          0.01         -0.37          1.00
   156.19       1390.44       1041.29         12.44          0.01         -3.67          1.35
   156.20       1394.20       1044.14         12.45          0.01          3.88          1.35
   156.21       1390.38       1041.29         12.45          0.01         -4.30          1.35
   156.22       1394.23       1044.14         12.44          0.01          3.37          1.35
   156.23       1390.46       1041.29         12.44          0.01         -0.42          1.71
   156.24       1390.48       1041.29         12.44          0.01         -4.25          1.00
   156.25       1394.26       1044.14         12.44          0.01          3.27          1.00
   156.26       1390.43       1041.29         12.44          0.02         -4.49          1.00
   156.27       1394.17       1044.14         12.45          0.02          3.49          1.00
   156.28       1390.31       1041.29         12.45          0.03         -4.26          1.00
   156.29       1390.33       1041.29         12.45          0.03         -4.29          1.35
   156.30       1394.15       1044.14         12.45          0.03          3.32          1.35
   156.31       1390.87       1041.70         12.45          0.03         -3.75          1.35
   156.32       1390.81       1041.70         12.45          0.03          0.03          1.35
   156.33       1390.73       1041.70         12.45          0.03         -3.81          1.35
   156.34       1390.66       1041.70         12.45          0.03         -3.83          1.06
   156.35       1394.45       1044.55         12.45          0.03          3.86          1.06
   156.36       1390.68       1041.70         12.45          0.03         -3.65          0.71
   156.37       1390.69       1041.70         12.45          0.02          0.26          0.71
   156.38       1390.73       1041.70         12.45          0.02         -3.96          0.71
   156.39       1390.68       1041.70         12.45          0.02         -0.65          0.71
   156.40       1394.45       1044.55         12.45          0.02          3.23          0.35
   156.41       1390.59       1041.70         12.46          0.01         -4.34          0.35
   156.42       1390.02       1041.29         12.46          0.01         -1.06          0.35
   156.43       1393.89       1044.14         12.45          0.01          2.81          0.65
   156.44       1390.15       1041.29         12.45          0.01         -0.95          0.65
   156.45       1394.04       1044.14         12.45          0.01          2.94          0.65
   156.46       1390.31       1041.29         12.45          0.01         -4.64          0.29
   156.47       1394.18       1044.14         12.45          0.01          2.99          0.29
   156.48       1394.78       1044.55         12.44          0.01          3.54          0.29
   156.49       1390.49       1041.29         12.44          0.01         -0.79          0.29
   156.50       1394.40       1044.14         12.44          0.01          3.61          0.29
   156.51       1390.65       1041.29         12.44          0.00         -3.99          0.29
   156.52       1391.30       1041.70         12.44          0.00          0.45          0.29
   156.53       1395.18       1044.55         12.43          0.00          4.32          0.29
   156.54       1391.41       1041.70         12.43         -0.00         -3.23          0.29
   156.55       1395.23       1044.55         12.43         -0.00          4.43          0.29
   156.56       1391.43       1041.70         12.43         -0.00         -3.13          0.29
   156.57       1391.41       1041.70         12.43         -0.00          0.72          0.29
