#Written by Robertson Geologging WinLogger V1.5/410
~VERSION INFORMATION
#------------------------------------------------------------------------------
 VERS. 2.0 : CWLS LOG ASCII STANDARD - VERSION 2.0
 WRAP. NO  : ONE LINE PER DEPTH STEP
~WELL INFORMATION
#MNEM.UNIT         DATA                                DESCRIPTION OF MNEMONIC
#------------------------------------------------------------------------------
 STRT.M          0.0600                            :   START DEPTH
 STOP.M        195.0000                            :   STOP DEPTH
 STEP.M          0.0100                            :   STEP VALUE
 NULL.        -999.2500                            :   NULL VALUE
 COMP.    Coal Authority                           :   COMPANY NAME
 WELL.    Thrislington Shaft                       :   WELL NAME
 FLD.     N/A                                      :   FIELD NAME
 LOC.     N/A                                      :   LOCATION
 PROV.    N/A                                      :   PROVINCE
 SRVC.    N/A                                      :   SERVICE COMPANY NAME
 DATE.    15 Dec 08                                :   DATE
 UWI.     N/A                                      :   UNIQUE WELL IDENTIFIER
~PARAMETER INFORMATION
#MNEMO.UNIT         VALUE                 DESCRIPTION OF MNEMONIC
#------------------------------------------------------------------------------
~OTHER INFORMATION SECTION
#------------------------------------------------------------------------------
 TCDS 1365
 15,12,2008
~CURVE INFORMATION
#MNEMO.UNIT         API CODE              CURVE DESCRIPTION
#------------------------------------------------------------------------------
 DEPTH.M                                 :   0     Depth
 COND.uS/cm                              :   1     Conductivity@25DegC
 COND.uS/cm                              :   2     Absolute Conductivity
 TEMP.DegC                               :   3     Temperature
 DELT.DegC                               :   4     Delta T
 DELC.uS/cm                              :   5     Delta C
 NGAM.CPS                                :   6     Natural Gamma
#------------------------------------------------------------------------------
~A  DEPTH          COND          COND          TEMP          DELT          DELC          NGAM
# ...
   194.42       3738.31       2867.46         13.35          0.33        751.79          0.35
   194.43       3745.10       2872.80         13.35          0.33        751.99          0.35
   194.44       3751.93       2878.13         13.36          0.33        755.01          0.35
   194.45       3754.70       2880.36         13.36          0.33        752.22          0.35
   194.46       3765.55       2888.82         13.36          0.33        756.39          0.71
   194.47       3768.90       2891.49         13.36          0.33        752.37          1.00
   194.48       3774.53       2895.94         13.36          0.33        750.76          1.35
   194.49       3781.90       2901.73         13.36          0.33        750.34          1.35
   194.50       3785.84       2904.84         13.36          0.32        749.28          1.35
   194.51       3792.67       2910.19         13.37          0.32        745.46          1.35
   194.52       3792.50       2910.19         13.37          0.32        738.06          1.35
   194.53       3799.29       2915.54         13.37          0.32        737.58          1.00
   194.54       3803.14       2918.66         13.37          0.32        733.01          1.00
   194.55       3806.90       2921.78         13.37          0.32        729.53          1.35
   194.56       3816.52       2929.36         13.38          0.33        730.76          1.35
   194.57       3816.30       2929.36         13.38          0.32        722.24          1.71
   194.58       3823.55       2935.15         13.38          0.32        722.88          1.71
   194.59       3830.92       2940.95         13.38          0.32        723.09          1.71
   194.60       3834.28       2943.63         13.39          0.32        719.88          1.71
   194.61       3837.50       2946.31         13.39          0.32        717.68          1.71
   194.62       3840.73       2948.98         13.39          0.32        713.87          2.35
   194.63       3851.51       2957.47         13.39          0.32        718.16          2.35
   194.64       3860.47       2964.62         13.40          0.32        720.55          2.06
   194.65       3870.68       2972.66         13.40          0.32        724.77          1.71
   194.66       3880.84       2980.71         13.40          0.32        724.25          1.71
   194.67       3892.10       2989.66         13.41          0.32        732.33          2.06
   194.68       3904.46       2999.50         13.41          0.32        735.30          2.41
   194.69       3911.00       3004.86         13.42          0.32        734.73          2.41
   194.70       3925.17       3016.06         13.42          0.32        742.37          2.76
   194.71       3935.79       3024.56         13.42          0.32        745.84          3.12
   194.72       3951.10       3036.65         13.43          0.32        751.15          3.12
   194.73       3968.68       3050.54         13.43          0.32        762.12          3.12
   194.74       3979.17       3059.05         13.44          0.32        761.99          3.41
   194.75       3991.37       3068.93         13.44          0.33        764.18          3.41
   194.76       4005.29       3080.15         13.45          0.33        771.38          3.76
   194.77       4019.38       3091.38         13.46          0.33        779.54          3.76
   194.78       4030.02       3099.92         13.46          0.33        779.67          4.06
   194.79       4049.54       3115.21         13.46          0.33        792.54          4.12
   194.80       4067.91       3129.59         13.47          0.33        802.11          4.47
   194.81       4082.03       3140.85         13.47          0.33        809.69          4.82
   194.82       4102.58       3157.06         13.48          0.33        820.19          5.47
   194.83       4122.60       3172.83         13.48          0.33        834.35          5.47
   194.84       4140.35       3186.81         13.48          0.33        845.60          5.47
   194.85       4160.56       3202.59         13.49          0.33        859.35          5.47
   194.86       4178.00       3216.13         13.49          0.33        873.27          5.76
   194.87       4192.57       3227.41         13.49          0.32        877.46          6.12
   194.88       4211.21       3241.87         13.49          0.32        890.21          5.76
   194.89       4230.44       3256.79         13.49          0.31        902.32          5.41
   194.90       4241.46       3265.38         13.49          0.31        906.30          5.76
   194.91       4255.99       3276.69         13.49          0.31        915.98          5.12
   194.92       4270.60       3288.00         13.50          0.31        922.32          5.41
   194.93       4277.01       3292.98         13.50          0.30        921.69          5.41
   194.94       4288.09       3301.59         13.50          0.30        924.47          5.41
   194.95       4292.02       3304.76         13.50          0.30        917.86          5.12
   194.96       4295.30       3307.48         13.50          0.29        914.06          5.47
   194.97       4299.08       3310.65         13.50          0.29        906.58          5.41
   194.98       4302.85       3313.82         13.51          0.29        903.69          5.41
   194.99       4302.61       3313.82         13.51          0.29        895.01          4.76
   195.00       4302.46       3313.82         13.51          0.29        884.67          4.76
