#Written by Robertson Geologging WinLogger V1.0/406
~VERSION INFORMATION
#------------------------------------------------------------------------------
 VERS. 2.0 : CWLS LOG ASCII STANDARD - VERSION 2.0
 WRAP. NO  : ONE LINE PER DEPTH STEP
~WELL INFORMATION
#MNEM.UNIT         DATA                                DESCRIPTION OF MNEMONIC
#------------------------------------------------------------------------------
 STRT.M         42.0600                            :   START DEPTH
 STOP.M        195.0000                            :   STOP DEPTH
 STEP.M          0.0100                            :   STEP VALUE
 NULL.        -999.2500                            :   NULL VALUE
 COMP.    I.W.S.                                   :   COMPANY NAME
 WELL.    Thrislington                             :   WELL NAME
 FLD.     Thrislington                             :   FIELD NAME
 LOC.     N/A                                      :   LOCATION
 PROV.    N/A                                      :   PROVINCE
 SRVC.    N/A                                      :   SERVICE COMPANY NAME
 DATE.    21 Jul 09                                :   DATE
 UWI.     N/A                                      :   UNIQUE WELL IDENTIFIER
~PARAMETER INFORMATION
#MNEMO.UNIT         VALUE                 DESCRIPTION OF MNEMONIC
#------------------------------------------------------------------------------
~OTHER INFORMATION SECTION
#------------------------------------------------------------------------------
 TCGS 1365
~CURVE INFORMATION
#MNEMO.UNIT         API CODE              CURVE DESCRIPTION
#------------------------------------------------------------------------------
 DEPTH.M                                 :   0     Depth
 TEMP.DegC                               :   1     Temperature
 CN25.uS/cm                              :   2     Conductivity@25DegC
 DELT.DegC                               :   3     Delta T
 DELC.uS/cm                              :   4     Delta C
 NGAM.CPS                                :   5     Natural Gamma
 COND.uS/cm                              :   6     Conductivity
#------------------------------------------------------------------------------
~A  DEPTH     TEMP      CN25      DELT      DELC      NGAM      COND      
# ...
    92.91     12.24   1296.40     -0.00      0.17      0.00    961.05 
    92.92     12.24   1296.40     -0.00      8.62      0.00    961.05 
    92.93     12.25   1298.30      0.00     -0.17      0.00    962.85 
    92.94     12.25   1296.23      0.01     -0.34      0.00    961.05 
    92.95     12.24   1288.13     -0.01     -8.10      0.00    954.76 
    92.96     12.25   1298.64      0.00      9.48      0.00    962.85 
    92.97     12.23   1296.75     -0.00      0.17      0.00    961.05 
    92.98     12.24   1296.40      0.00     -2.41      0.00    961.05 
    92.99     12.25   1288.82      0.02     -8.10      0.00    955.66 
    93.00     12.24   1296.57      0.00      0.00      7.00    961.05 
    93.01     12.24   1296.40     -0.00      7.41      7.00    961.05 
    93.02     12.24   1298.81     -0.01      2.76      0.00    962.85 
    93.03     12.24   1296.40     -0.01      0.52      7.00    961.05 
    93.04     12.25   1296.23     -0.01      7.58      0.00    961.05 
    93.05     12.25   1288.82      0.00     -7.24      0.00    955.66 
    93.06     12.25   1296.06      0.00     -2.41      0.00    961.05 
    93.07     12.24   1296.40      0.00      0.00      0.00    961.05 
    93.08     12.25   1298.64      0.00      9.65      8.00    962.85 
    93.09     12.24   1296.57     -0.00      0.17      0.00    961.05 
    93.10     12.23   1288.30     -0.01    -10.52      0.00    954.76 
    93.11     12.24   1298.99     -0.00      2.59      8.00    962.85 
    93.12     12.24   1296.57      0.00      0.00      0.00    961.05 
    93.13     12.23   1296.75      0.00      7.24      0.00    961.05 
    93.14     12.25   1288.99      0.01     -7.58      0.00    955.66 
    93.15     12.25   1296.23      0.01     -2.76      0.00    961.05 
    93.16     12.25   1296.23      0.01     -0.52      0.00    961.05 
    93.17     12.25   1298.64      0.00     10.69      0.00    962.85 
    93.18     12.24   1296.57     -0.00     -2.24      0.00    961.05 
    93.19     12.24   1289.33     -0.01     -6.90      0.00    955.66 
    93.20     12.23   1296.75     -0.02     -1.73      0.00    961.05 
    93.21     12.24   1296.57      0.00      8.45      0.00    961.05 
    93.22     12.24   1298.99      0.00      0.00      0.00    962.85 
    93.23     12.23   1296.75      0.01     -0.34      0.00    961.05 
    93.24     12.23   1289.50      0.01     -7.59      8.00    955.66 
    93.25     12.23   1296.75     -0.00      7.41      0.00    961.05 
    93.26     12.24   1296.57      0.00     -0.17      0.00    961.05 
    93.27     12.24   1298.81     -0.00      0.17      0.00    962.85 
    93.28     12.25   1296.23      0.01     -0.34      0.00    961.05 
    93.29     12.25   1288.82      0.02     -8.10      0.00    955.66 
    93.30     12.25   1296.06      0.02      6.55      0.00    961.05 
    93.31     12.25   1298.30      0.03      1.21      0.00    962.85 
    93.32     12.25   1295.89      0.02     -3.27      0.00    961.05 
    93.33     12.25   1287.61      0.01     -0.51      0.00    954.76 
    93.34     12.25   1298.64      0.00     -0.17      0.00    962.85 
    93.35     12.25   1296.23     -0.00      0.17      7.00    961.05 
    93.36     12.25   1298.47      0.00      2.24      0.00    962.85 
    93.37     12.25   1287.78      0.01     -1.55      0.00    954.76 
    93.38     12.25   1298.30      0.02      1.72      0.00    962.85 
    93.39     12.25   1296.23      0.01     -0.34      0.00    961.05 
    93.40     12.24   1289.33     -0.00     -9.48      0.00    955.66 
    93.41     12.24   1296.57      0.00      0.00      7.00    961.05 
    93.42     12.23   1299.33     -0.00      2.59      8.00    962.85 
    93.43     12.23   1296.92     -0.01      7.59      0.00    961.05 
    93.44     12.23   1289.50     -0.00     -7.07      0.00    955.66 
    93.45     12.23   1296.75     -0.02     -1.73      0.00    961.05 
    93.46     12.23   1296.75     -0.01      8.79      0.00    961.05 
    93.47     12.23   1299.16     -0.01      2.76      8.00    962.85 
    93.48     12.23   1296.92     -0.01     -1.90      0.00    961.05 
    93.49     12.24   1289.33      0.00     -7.24      0.00    955.66 
    93.50     12.23   1296.92     -0.03      8.27      0.00    961.05 
    93.51     12.23   1299.33     -0.03      3.45      0.00    962.85 
    93.52     12.23   1296.75     -0.03     -1.38      0.00    961.05 
    93.53     12.23   1296.92     -0.03      1.03      0.00    961.05 
    93.54     12.24   1289.33     -0.01     -6.73      0.00    955.66 
    93.55     12.23   1296.75     -0.02      7.93      0.00    961.05 
    93.56     12.23   1296.92     -0.01      0.52      0.00    961.05 
    93.57     12.23   1299.33     -0.02      0.69      0.00    962.85 
    93.58     12.23   1288.47     -0.01     -8.11      0.00    954.76 
    93.59     12.23   1296.75     -0.01      7.58      0.00    961.05 
    93.60     12.25   1298.64      0.00      2.41      8.00    962.85 
    93.61     12.24   1296.40     -0.00      0.17      7.00    961.05 
    93.62     12.25   1296.23     -0.00      7.41      0.00    961.05 
    93.63     12.25   1288.82      0.01     -7.58      0.00    955.66 
    93.64     12.24   1296.57     -0.01     -2.07      0.00    961.05 
    93.65     12.24   1296.57     -0.01      0.34      7.00    961.05 
    93.66     12.23   1299.16     -0.01     10.00      0.00    962.85 
    93.67     12.22   1297.09     -0.02      0.69      0.00    961.05 
    93.68     12.22   1288.64     -0.01     -7.94      0.00    954.76 
    93.69     12.23   1296.92     -0.01     -1.90      0.00    961.05 
    93.70     12.23   1299.33     -0.02      3.10      8.00    962.85 
    93.71     12.23   1296.92     -0.01      7.76      0.00    961.05 
    93.72     12.23   1296.75     -0.00      0.17      0.00    961.05 
    93.73     12.24   1289.33     -0.00     -7.07      0.00    955.66 
    93.74     12.24   1296.57     -0.01     -1.90      0.00    961.05 
    93.75     12.25   1298.64      0.00     10.86      0.00    962.85 
    93.76     12.24   1296.40     -0.01      0.34      0.00    961.05 
    93.77     12.23   1296.92     -0.02     -1.73      0.00    961.05 
    93.78     12.24   1289.33      0.00     -7.24      0.00    955.66 
    93.79     12.23   1296.75     -0.01      0.52      7.00    961.05 
    93.80     12.24   1298.81     -0.00      9.82      0.00    962.85 
    93.81     12.25   1296.06      0.00     -0.17     14.00    961.05 
    93.82     12.25   1288.99      0.00     -7.24      0.00    955.66 
    93.83     12.25   1295.89      0.00     -2.58      0.00    961.05 
    93.84     12.25   1296.23      0.00      8.45      0.00    961.05 
    93.85     12.25   1298.64      0.00      2.24      0.00    962.85 
    93.86     12.24   1287.95     -0.00    -10.69      0.00    954.76 
    93.87     12.23   1299.16     -0.00      2.59      0.00    962.85 
    93.88     12.24   1296.40      0.00     -0.17      0.00    961.05 
    93.89     12.24   1296.57     -0.00      7.41      0.00    961.05 
    93.90     12.25   1288.82      0.01     -7.58      0.00    955.66 
    93.91     12.25   1295.89      0.01     -0.52      0.00    961.05 
    93.92     12.26   1298.13      0.00     -0.17      0.00    962.85 
    93.93     12.26   1295.54      0.02     -0.69      7.00    961.05 
    93.94     12.25   1288.82      0.01      0.69      0.00    955.66 
    93.95     12.25   1295.89      0.01     -2.76      0.00    961.05 
    93.96     12.24   1296.40      0.01     -0.34      7.00    961.05 
    93.97     12.24   1298.81      0.00      2.41      0.00    962.85 
    93.98     12.24   1296.40     -0.01      7.58      0.00    961.05 
    93.99     12.23   1296.75     -0.00      0.17      0.00    961.05 
    94.00     12.24   1289.33     -0.00     -7.07      0.00    955.66 
    94.01     12.24   1296.57     -0.00     -2.24      7.00    961.05 
    94.02     12.24   1296.57     -0.00      0.17      0.00    961.05 
    94.03     12.25   1298.64      0.00      2.41      0.00    962.85 
