#Written by Robertson Geologging WinLogger V1.0/406
~VERSION INFORMATION
#------------------------------------------------------------------------------
 VERS. 2.0 : CWLS LOG ASCII STANDARD - VERSION 2.0
 WRAP. NO  : ONE LINE PER DEPTH STEP
~WELL INFORMATION
#MNEM.UNIT         DATA                                DESCRIPTION OF MNEMONIC
#------------------------------------------------------------------------------
 STRT.M         42.0600                            :   START DEPTH
 STOP.M        195.0000                            :   STOP DEPTH
 STEP.M          0.0100                            :   STEP VALUE
 NULL.        -999.2500                            :   NULL VALUE
 COMP.    I.W.S.                                   :   COMPANY NAME
 WELL.    Thrislington                             :   WELL NAME
 FLD.     Thrislington                             :   FIELD NAME
 LOC.     N/A                                      :   LOCATION
 PROV.    N/A                                      :   PROVINCE
 SRVC.    N/A                                      :   SERVICE COMPANY NAME
 DATE.    21 Jul 09                                :   DATE
 UWI.     N/A                                      :   UNIQUE WELL IDENTIFIER
~PARAMETER INFORMATION
#MNEMO.UNIT         VALUE                 DESCRIPTION OF MNEMONIC
#------------------------------------------------------------------------------
~OTHER INFORMATION SECTION
#------------------------------------------------------------------------------
 TCGS 1365
~CURVE INFORMATION
#MNEMO.UNIT         API CODE              CURVE DESCRIPTION
#------------------------------------------------------------------------------
 DEPTH.M                                 :   0     Depth
 TEMP.DegC                               :   1     Temperature
 CN25.uS/cm                              :   2     Conductivity@25DegC
 DELT.DegC                               :   3     Delta T
 DELC.uS/cm                              :   4     Delta C
 NGAM.CPS                                :   5     Natural Gamma
 COND.uS/cm                              :   6     Conductivity
#------------------------------------------------------------------------------
~A  DEPTH     TEMP      CN25      DELT      DELC      NGAM      COND      
# ...
    52.23     11.91    845.02      0.00      5.96      0.00    619.12 
    52.24     11.91    847.57      0.00      2.43      0.00    620.91 
    52.25     11.90    854.97      0.00     15.78      0.00    626.29 
    52.26     11.91    847.57      0.00     12.03      7.00    620.91 
    52.27     11.91    845.14      0.00     -0.11      0.00    619.12 
    52.28     11.92    847.34      0.00      8.50      0.00    620.91 
    52.29     11.92    854.50      0.00      9.59      0.00    626.29 
    52.30     11.93    847.11      0.00     12.02      0.00    620.91 
    52.31     11.93    844.57      0.02      5.50      0.00    619.12 
    52.32     11.92    847.22      0.02      1.97      0.00    620.91 
    52.33     11.93    844.68      0.02      5.50      0.00    619.12 
    52.34     11.93    855.60      0.03     10.23      0.00    627.19 
    52.35     11.93    844.68      0.01      5.73      8.00    619.12 
    52.36     11.93    846.99      0.01      2.08      0.00    620.91 
    52.37     11.92    844.91      0.00      9.71      0.00    619.12 
    52.38     11.91    855.95     -0.00      8.61      0.00    627.19 
    52.39     11.91    845.14      0.00      9.71      0.00    619.12 
    52.40     11.90    845.25      0.00     -2.43      0.00    619.12 
    52.41     11.91    855.95      0.00     20.52      7.00    627.19 
    52.42     11.92    844.91      0.01     -2.66      0.00    619.12 
    52.43     11.92    844.91      0.00      0.00      0.00    619.12 
    52.44     11.91    855.95      0.01     16.77      0.00    627.19 
    52.45     11.92    844.91      0.01     -0.34     16.00    619.12 
    52.46     11.92    847.34      0.01     11.80      0.00    620.91 
    52.47     11.91    854.85      0.00      7.17      0.00    626.29 
    52.48     11.91    845.02     -0.00      6.18      0.00    619.12 
    52.49     11.90    847.68     -0.02      2.89      0.00    620.91 
    52.50     11.91    854.85     -0.00     15.90      0.00    626.29 
    52.51     11.90    847.68     -0.02      2.89      0.00    620.91 
    52.52     11.91    845.14     -0.01     -2.20      0.00    619.12 
    52.53     11.90    856.30     -0.02     11.50      0.00    627.19 
    52.54     11.90    845.37     -0.03      6.75      8.00    619.12 
    52.55     11.91    845.14     -0.01     -2.20      0.00    619.12 
    52.56     11.90    856.18     -0.01     20.98      7.00    627.19 
    52.57     11.92    844.91      0.00     -2.54      0.00    619.12 
    52.58     11.91    847.45      0.00      2.43      7.00    620.91 
    52.59     11.92    854.62     -0.00     15.89      0.00    626.29 
    52.60     11.91    847.45     -0.01      0.23      0.00    620.91 
    52.61     11.91    854.74     -0.01      9.94      0.00    626.29 
    52.62     11.93    844.68      0.00      0.00      0.00    619.12 
    52.63     11.91    847.45     -0.01      8.72      0.00    620.91 
    52.64     11.92    854.50      0.01      7.05      8.00    626.29 
    52.65     11.91    847.45     -0.01      2.66      0.00    620.91 
    52.66     11.91    854.74      0.00      7.28      0.00    626.29 
    52.67     11.92    847.22      0.01     11.91      0.00    620.91 
    52.68     11.91    847.57      0.00      0.00      0.00    620.91 
    52.69     11.90    854.97      0.00      7.29      0.00    626.29 
    52.70     11.90    847.80     -0.01      2.66      0.00    620.91 
    52.71     11.90    845.37     -0.02      0.46      0.00    619.12 
    52.72     11.90    856.18     -0.02     17.57      0.00    627.19 
    52.73     11.92    844.91      0.00     -2.43      0.00    619.12 
    52.74     11.91    847.57     -0.01      2.66      0.00    620.91 
    52.75     11.90    854.97     -0.00      7.40      0.00    626.29 
    52.76     11.91    847.57      0.01      2.20      7.00    620.91 
    52.77     11.91    856.07      0.00      8.38      0.00    627.19 
    52.78     11.91    845.02      0.00      0.00      0.00    619.12 
    52.79     11.92    847.34     -0.00      8.61      0.00    620.91 
    52.80     11.92    854.62     -0.00      7.40      0.00    626.29 
    52.81     11.91    847.57     -0.01      2.77      0.00    620.91 
    52.82     11.91    854.85     -0.00      9.83      0.00    626.29 
    52.83     11.90    847.68     -0.01      0.23      0.00    620.91 
    52.84     11.90    855.08     -0.01      7.52      0.00    626.29 
    52.85     11.89    848.03     -0.02      3.00      0.00    620.91 
    52.86     11.89    847.91     -0.02      0.57      0.00    620.91 
    52.87     11.90    855.08     -0.02     10.17      0.00    626.29 
    52.88     11.89    848.03     -0.03      0.80      0.00    620.91 
    52.89     11.90    855.08     -0.02     10.29      0.00    626.29 
    52.90     11.89    847.91     -0.02      0.57      0.00    620.91 
    52.91     11.91    854.85      0.00      9.71      0.00    626.29 
    52.92     11.91    839.07      0.01     -8.73      0.00    614.64 
    52.93     11.91    854.85      0.00      9.71      0.00    626.29 
    52.94     11.90    847.68      0.00     -0.11      0.00    620.91 
    52.95     11.90    854.97      0.00      9.71      0.00    626.29 
    52.96     11.91    847.57     -0.00      0.11      0.00    620.91 
    52.97     11.92    854.62      0.01      9.37      0.00    626.29 
    52.98     11.93    846.99      0.02      1.97      0.00    620.91 
    52.99     11.93    844.68      0.01     -2.77      0.00    619.12 
    53.00     11.92    855.72      0.00      8.38      0.00    627.19 
    53.01     11.91    847.45     -0.00      2.54      7.00    620.91 
    53.02     11.91    854.85     -0.00      9.83      0.00    626.29 
    53.03     11.90    847.68     -0.00      0.11      0.00    620.91 
    53.04     11.91    854.85      0.00      9.60      0.00    626.29 
    53.05     11.90    847.68      0.00     -0.11      0.00    620.91 
    53.06     11.90    854.97      0.00     -0.12      0.00    626.29 
    53.07     11.89    847.91     -0.00      0.11      0.00    620.91 
    53.08     11.90    854.97      0.01      9.37      0.00    626.29 
    53.09     11.91    847.57      0.01     -0.23      0.00    620.91 
    53.10     11.91    854.74      0.01      9.48      0.00    626.29 
    53.11     11.92    847.34      0.00      2.43      0.00    620.91 
    53.12     11.91    854.85     -0.01      7.63      0.00    626.29 
    53.13     11.90    847.80     -0.03     -6.48      0.00    620.91 
    53.14     11.90    855.08     -0.02      7.74      0.00    626.29 
    53.15     11.90    847.80     -0.01      0.34      7.00    620.91 
    53.16     11.90    854.97     -0.00      9.83      0.00    626.29 
    53.17     11.91    847.45      0.00      2.31      0.00    620.91 
    53.18     11.91    854.74     -0.00      7.40      0.00    626.29 
    53.19     11.91    847.45      0.00     -7.28      7.00    620.91 
    53.20     11.92    854.62     -0.00      9.82      0.00    626.29 
    53.21     11.91    847.45      0.00     -0.11      0.00    620.91 
    53.22     11.91    854.74      0.00      9.71      0.00    626.29 
    53.23     11.91    847.45      0.00     -0.11      0.00    620.91 
    53.24     11.90    855.08     -0.00      0.12      0.00    626.29 
    53.25     11.90    854.97     -0.00      7.40      0.00    626.29 
    53.26     11.89    847.91     -0.01      2.77      0.00    620.91 
    53.27     11.91    854.85     -0.01      7.51      8.00    626.29 
    53.28     11.91    847.45     -0.01     -7.05      0.00    620.91 
    53.29     11.91    854.74     -0.01      7.63      0.00    626.29 
    53.30     11.92    847.22     -0.01      2.66      0.00    620.91 
    53.31     11.91    854.74     -0.01      7.51      0.00    626.29 
    53.32     11.92    844.91     -0.01      0.23      0.00    619.12 
    53.33     11.90    856.18     -0.02      0.58      0.00    627.19 
    53.34     11.90    854.97     -0.02     10.29      8.00    626.29 
    53.35     11.90    845.25     -0.03     -1.74     16.00    619.12 
