#Written by Robertson Geologging WinLogger V1.0/406
~VERSION INFORMATION
#------------------------------------------------------------------------------
 VERS. 2.0 : CWLS LOG ASCII STANDARD - VERSION 2.0
 WRAP. NO  : ONE LINE PER DEPTH STEP
~WELL INFORMATION
#MNEM.UNIT         DATA                                DESCRIPTION OF MNEMONIC
#------------------------------------------------------------------------------
 STRT.M         42.0600                            :   START DEPTH
 STOP.M        195.0000                            :   STOP DEPTH
 STEP.M          0.0100                            :   STEP VALUE
 NULL.        -999.2500                            :   NULL VALUE
 COMP.    I.W.S.                                   :   COMPANY NAME
 WELL.    Thrislington                             :   WELL NAME
 FLD.     Thrislington                             :   FIELD NAME
 LOC.     N/A                                      :   LOCATION
 PROV.    N/A                                      :   PROVINCE
 SRVC.    N/A                                      :   SERVICE COMPANY NAME
 DATE.    21 Jul 09                                :   DATE
 UWI.     N/A                                      :   UNIQUE WELL IDENTIFIER
~PARAMETER INFORMATION
#MNEMO.UNIT         VALUE                 DESCRIPTION OF MNEMONIC
#------------------------------------------------------------------------------
~OTHER INFORMATION SECTION
#------------------------------------------------------------------------------
 TCGS 1365
~CURVE INFORMATION
#MNEMO.UNIT         API CODE              CURVE DESCRIPTION
#------------------------------------------------------------------------------
 DEPTH.M                                 :   0     Depth
 TEMP.DegC                               :   1     Temperature
 CN25.uS/cm                              :   2     Conductivity@25DegC
 DELT.DegC                               :   3     Delta T
 DELC.uS/cm                              :   4     Delta C
 NGAM.CPS                                :   5     Natural Gamma
 COND.uS/cm                              :   6     Conductivity
#------------------------------------------------------------------------------
~A  DEPTH     TEMP      CN25      DELT      DELC      NGAM      COND      
# ...
   173.14     12.25   1288.82      0.00     -9.82      0.00    955.66 
   173.15     12.25   1298.47      0.01      2.07      0.00    962.85 
   173.16     12.25   1298.64      0.00      0.00      8.00    962.85 
   173.17     12.25   1295.89      0.01     -0.52      0.00    961.05 
   173.18     12.25   1298.30      0.01      9.14      0.00    962.85 
   173.19     12.26   1298.13      0.01     -6.55      0.00    962.85 
   173.20     12.26   1288.48      0.01     -0.51      0.00    955.66 
   173.21     12.25   1304.33     -0.00      6.20      0.00    967.35 
   173.22     12.25   1288.65     -0.01     -6.89      0.00    955.66 
   173.23     12.25   1298.30     -0.01      0.52      0.00    962.85 
   173.24     12.25   1296.23     -0.02      0.69      0.00    961.05 
   173.25     12.24   1298.81     -0.01      0.52      8.00    962.85 
   173.26     12.24   1298.81     -0.01     10.17      0.00    962.85 
   173.27     12.24   1296.40     -0.00     -8.27      0.00    961.05 
   173.28     12.26   1298.13      0.01      9.14      8.00    962.85 
   173.29     12.26   1295.71      0.01     -0.34      0.00    961.05 
   173.30     12.26   1298.13      0.01     -0.52      0.00    962.85 
   173.31     12.26   1295.54      0.02     -3.10      0.00    961.05 
   173.32     12.26   1297.95      0.02      1.72      0.00    962.85 
   173.33     12.27   1288.14      0.01    -10.16      8.00    955.66 
   173.34     12.26   1295.54      0.02     -0.69      0.00    961.05 
   173.35     12.26   1298.13      0.01     -0.52      0.00    962.85 
   173.36     12.26   1298.13      0.02      8.97      0.00    962.85 
   173.37     12.25   1296.06      0.02     -0.69      0.00    961.05 
   173.38     12.26   1298.13      0.01     -0.52      0.00    962.85 
   173.39     12.26   1295.54      0.01     -0.52      0.00    961.05 
   173.40     12.26   1298.13      0.01     -0.52      0.00    962.85 
   173.41     12.27   1297.78      0.02      1.72      0.00    962.85 
   173.42     12.25   1296.06      0.00     -2.41      0.00    961.05 
   173.43     12.25   1298.47      0.00      0.00      0.00    962.85 
   173.44     12.25   1296.23     -0.01      0.34      0.00    961.05 
   173.45     12.23   1289.67     -0.03      1.20      0.00    955.66 
   173.46     12.24   1298.81     -0.01     -5.52      0.00    962.85 
   173.47     12.24   1296.57     -0.01      7.58      7.00    961.05 
   173.48     12.24   1298.81     -0.01      0.34      0.00    962.85 
   173.49     12.25   1296.06      0.00     -0.17      0.00    961.05 
   173.50     12.25   1298.30      0.00      0.00      0.00    962.85 
   173.51     12.26   1295.54      0.00     -0.17      0.00    961.05 
   173.52     12.25   1298.30     -0.01      0.34      0.00    962.85 
   173.53     12.25   1295.89     -0.01     -1.90      0.00    961.05 
   173.54     12.25   1298.30      0.00      2.41      0.00    962.85 
   173.55     12.25   1298.64     -0.00      9.82      0.00    962.85 
   173.56     12.25   1296.06      0.01     -0.34      0.00    961.05 
   173.57     12.26   1298.13      0.02     -0.69      0.00    962.85 
   173.58     12.25   1296.06      0.00     -2.59      0.00    961.05 
   173.59     12.25   1288.65      0.01     -7.75      0.00    955.66 
   173.60     12.25   1296.06     -0.00     -2.24      0.00    961.05 
   173.61     12.24   1298.81     -0.01      2.93      0.00    962.85 
   173.62     12.25   1298.47     -0.00      0.17      0.00    962.85 
   173.63     12.25   1295.89     -0.00     -2.24      0.00    961.05 
   173.64     12.26   1297.95      0.02      1.72      0.00    962.85 
   173.65     12.26   1295.54      0.02      6.55      0.00    961.05 
   173.66     12.26   1297.95      0.02     -0.69      0.00    962.85 
   173.67     12.25   1296.06      0.02     -0.69      0.00    961.05 
   173.68     12.25   1298.64      0.00     -0.17      0.00    962.85 
   173.69     12.24   1296.57     -0.00      0.17      0.00    961.05 
   173.70     12.24   1289.33      0.00     -9.66      0.00    955.66 
   173.71     12.24   1296.40     -0.01     -2.07      0.00    961.05 
   173.72     12.24   1298.99     -0.01      2.93      0.00    962.85 
   173.73     12.25   1298.64      0.00      0.00      0.00    962.85 
   173.74     12.25   1296.23     -0.01      7.75      7.00    961.05 
   173.75     12.24   1298.81     -0.01      2.93      0.00    962.85 
   173.76     12.25   1296.06      0.00     -2.59      0.00    961.05 
   173.77     12.25   1298.47     -0.01      0.34      8.00    962.85 
   173.78     12.25   1295.89      0.00     -0.17      7.00    961.05 
   173.79     12.26   1298.13      0.01     -0.34      0.00    962.85 
   173.80     12.25   1288.65     -0.00     -9.48      0.00    955.66 
   173.81     12.25   1296.23     -0.00      0.17      0.00    961.05 
   173.82     12.24   1298.81     -0.01     10.17      0.00    962.85 
   173.83     12.25   1298.64     -0.00      2.59      0.00    962.85 
   173.84     12.25   1296.23      0.00     -2.41      0.00    961.05 
   173.85     12.25   1298.64     -0.01      2.76      0.00    962.85 
   173.86     12.25   1298.47      0.00     -0.17      0.00    962.85 
   173.87     12.25   1295.89      0.00     -2.41      7.00    961.05 
   173.88     12.25   1298.30     -0.00      2.58      0.00    962.85 
   173.89     12.26   1288.48      0.00     -9.82      0.00    955.66 
   173.90     12.26   1304.16      0.00      8.27      0.00    967.35 
   173.91     12.25   1288.65      0.00     -9.65      0.00    955.66 
   173.92     12.26   1297.95      0.00      2.24      8.00    962.85 
   173.93     12.26   1295.71     -0.00      7.41      0.00    961.05 
   173.94     12.25   1298.30     -0.01      0.34      0.00    962.85 
   173.95     12.25   1298.47     -0.01      2.93      0.00    962.85 
   173.96     12.25   1296.06     -0.01     -2.07      7.00    961.05 
   173.97     12.26   1298.13      0.01      2.07      0.00    962.85 
   173.98     12.26   1288.48      0.01     -9.99      0.00    955.66 
   173.99     12.26   1295.71      0.00     -2.58      7.00    961.05 
   174.00     12.25   1298.47     -0.00      2.58      8.00    962.85 
   174.01     12.25   1298.64     -0.01      0.52      0.00    962.85 
   174.02     12.25   1296.23     -0.01      7.58      0.00    961.05 
   174.03     12.25   1298.47      0.00     -6.03      8.00    962.85 
   174.04     12.25   1296.06      0.00      7.24      0.00    961.05 
   174.05     12.24   1298.81     -0.00      2.59      0.00    962.85 
   174.06     12.24   1289.16     -0.01     -9.31      0.00    955.66 
   174.07     12.24   1296.40     -0.01     -1.90      0.00    961.05 
   174.08     12.25   1298.64     -0.01      0.34      0.00    962.85 
   174.09     12.25   1295.89     -0.01      0.34      7.00    961.05 
   174.10     12.25   1298.47     -0.01      0.52      0.00    962.85 
   174.11     12.25   1298.47     -0.02     10.33      0.00    962.85 
   174.12     12.25   1296.06     -0.01     -8.10      0.00    961.05 
   174.13     12.25   1288.65      0.00     -0.17      0.00    955.66 
   174.14     12.26   1303.98      0.01      5.51      0.00    967.35 
   174.15     12.25   1288.65      0.01     -9.99      0.00    955.66 
   174.16     12.25   1298.47     -0.00      2.58      0.00    962.85 
   174.17     12.25   1296.23     -0.01     -2.07      0.00    961.05 
   174.18     12.25   1298.47     -0.01      0.34      0.00    962.85 
   174.19     12.25   1296.23     -0.01      7.75      0.00    961.05 
   174.20     12.25   1298.47     -0.00     -5.86      0.00    962.85 
   174.21     12.26   1288.48      0.00     -0.17      0.00    955.66 
   174.22     12.26   1304.16      0.00      5.86      0.00    967.35 
   174.23     12.26   1288.31      0.02     -7.92      0.00    955.66 
   174.24     12.27   1297.78      0.03     -1.03      0.00    962.85 
   174.25     12.26   1297.95      0.02     -0.86      0.00    962.85 
   174.26     12.26   1295.54      0.02     -0.86      0.00    961.05 
