#Written by Robertson Geologging WinLogger V1.0/406
~VERSION INFORMATION
#------------------------------------------------------------------------------
 VERS. 2.0 : CWLS LOG ASCII STANDARD - VERSION 2.0
 WRAP. NO  : ONE LINE PER DEPTH STEP
~WELL INFORMATION
#MNEM.UNIT         DATA                                DESCRIPTION OF MNEMONIC
#------------------------------------------------------------------------------
 STRT.M         42.0600                            :   START DEPTH
 STOP.M        195.0000                            :   STOP DEPTH
 STEP.M          0.0100                            :   STEP VALUE
 NULL.        -999.2500                            :   NULL VALUE
 COMP.    I.W.S.                                   :   COMPANY NAME
 WELL.    Thrislington                             :   WELL NAME
 FLD.     Thrislington                             :   FIELD NAME
 LOC.     N/A                                      :   LOCATION
 PROV.    N/A                                      :   PROVINCE
 SRVC.    N/A                                      :   SERVICE COMPANY NAME
 DATE.    21 Jul 09                                :   DATE
 UWI.     N/A                                      :   UNIQUE WELL IDENTIFIER
~PARAMETER INFORMATION
#MNEMO.UNIT         VALUE                 DESCRIPTION OF MNEMONIC
#------------------------------------------------------------------------------
~OTHER INFORMATION SECTION
#------------------------------------------------------------------------------
 TCGS 1365
~CURVE INFORMATION
#MNEMO.UNIT         API CODE              CURVE DESCRIPTION
#------------------------------------------------------------------------------
 DEPTH.M                                 :   0     Depth
 TEMP.DegC                               :   1     Temperature
 CN25.uS/cm                              :   2     Conductivity@25DegC
 DELT.DegC                               :   3     Delta T
 DELC.uS/cm                              :   4     Delta C
 NGAM.CPS                                :   5     Natural Gamma
 COND.uS/cm                              :   6     Conductivity
#------------------------------------------------------------------------------
~A  DEPTH     TEMP      CN25      DELT      DELC      NGAM      COND      
# ...
   183.31     12.24   1298.81     -0.01      2.93      0.00    962.85 
   183.32     12.24   1296.57     -0.02      8.10      0.00    961.05 
   183.33     12.25   1298.47     -0.00     -5.86      0.00    962.85 
   183.34     12.25   1295.89      0.00      7.24      0.00    961.05 
   183.35     12.27   1297.78      0.01      2.07      0.00    962.85 
   183.36     12.27   1295.20      0.03     -1.20      0.00    961.05 
   183.37     12.25   1298.30      0.00     -0.17      0.00    962.85 
   183.38     12.26   1295.71      0.02     -0.69      0.00    961.05 
   183.39     12.25   1288.99      0.00     -9.65      0.00    955.66 
   183.40     12.25   1298.47      0.00      2.41      0.00    962.85 
   183.41     12.25   1296.23     -0.00      0.17      0.00    961.05 
   183.42     12.26   1298.13      0.01     -0.34      0.00    962.85 
   183.43     12.25   1295.89      0.01     -0.34      0.00    961.05 
   183.44     12.25   1298.64     -0.00      9.82      0.00    962.85 
   183.45     12.25   1296.06      0.00     -0.17      0.00    961.05 
   183.46     12.24   1298.81     -0.01      0.34      0.00    962.85 
   183.47     12.25   1296.23     -0.01      0.52      0.00    961.05 
   183.48     12.25   1288.65     -0.00     -7.07      0.00    955.66 
   183.49     12.25   1295.89     -0.01     -2.07      0.00    961.05 
   183.50     12.25   1298.30     -0.00      2.58      0.00    962.85 
   183.51     12.25   1295.89     -0.01     -2.07      0.00    961.05 
   183.52     12.25   1296.06     -0.00      0.17      0.00    961.05 
   183.53     12.25   1298.30      0.00     -0.17      0.00    962.85 
   183.54     12.25   1295.89      0.01     -0.52      0.00    961.05 
   183.55     12.25   1298.30      0.01      9.14      0.00    962.85 
   183.56     12.26   1295.54      0.02     -0.69      0.00    961.05 
   183.57     12.25   1295.89      0.00     -2.41      0.00    961.05 
   183.58     12.25   1298.30     -0.01      2.76      0.00    962.85 
   183.59     12.25   1296.06     -0.01     -1.90      0.00    961.05 
   183.60     12.25   1296.06     -0.00      0.17      0.00    961.05 
   183.61     12.25   1298.30      0.01     -0.34      0.00    962.85 
   183.62     12.25   1296.06      0.01     -0.34      0.00    961.05 
   183.63     12.25   1298.30      0.03     -1.03      0.00    962.85 
   183.64     12.24   1296.40      0.00      0.00      0.00    961.05 
   183.65     12.24   1289.33     -0.01      0.34      0.00    955.66 
   183.66     12.23   1296.75     -0.02      0.69      0.00    961.05 
   183.67     12.23   1305.20     -0.03      7.07      0.00    967.35 
   183.68     12.24   1289.33     -0.02     -6.55      0.00    955.66 
   183.69     12.24   1296.40     -0.01     -2.07      0.00    961.05 
   183.70     12.25   1298.47     -0.00      2.58      0.00    962.85 
   183.71     12.25   1295.89     -0.00     -2.24      0.00    961.05 
   183.72     12.26   1297.95      0.00      2.24      0.00    962.85 
   183.73     12.26   1295.54      0.01     -0.52      0.00    961.05 
   183.74     12.26   1297.95      0.01     -0.52      0.00    962.85 
   183.75     12.26   1295.71      0.02     -0.69      0.00    961.05 
   183.76     12.25   1295.89      0.01     -0.34      0.00    961.05 
   183.77     12.25   1298.47     -0.00      9.82      0.00    962.85 
   183.78     12.25   1296.06     -0.00     -8.27      0.00    961.05 
   183.79     12.25   1288.82     -0.01     -6.89      0.00    955.66 
   183.80     12.25   1296.06     -0.01      7.58      0.00    961.05 
   183.81     12.25   1298.47     -0.00      2.58      0.00    962.85 
   183.82     12.25   1295.89     -0.01     -2.07      0.00    961.05 
   183.83     12.25   1298.47     -0.01      2.76      0.00    962.85 
   183.84     12.25   1295.89      0.00      0.00      7.00    961.05 
   183.85     12.25   1298.30     -0.00      0.17      0.00    962.85 
   183.86     12.25   1296.23     -0.01      0.34      7.00    961.05 
   183.87     12.25   1298.47     -0.00      2.58      0.00    962.85 
   183.88     12.25   1296.23     -0.01     -1.90      0.00    961.05 
   183.89     12.24   1289.16     -0.01     -6.90      0.00    955.66 
   183.90     12.25   1296.23     -0.01      0.52      7.00    961.05 
   183.91     12.25   1298.47      0.00      0.00      0.00    962.85 
   183.92     12.25   1296.06      0.00      0.00      0.00    961.05 
   183.93     12.26   1298.13      0.00      0.00      8.00    962.85 
   183.94     12.26   1295.54      0.00     -0.17      0.00    961.05 
   183.95     12.26   1295.71     -0.01      0.34      7.00    961.05 
   183.96     12.26   1297.95      0.00      9.65      0.00    962.85 
   183.97     12.26   1295.71      0.00     -0.17      7.00    961.05 
   183.98     12.26   1295.54      0.01     -8.96      0.00    961.05 
   183.99     12.27   1297.78      0.02      8.96      0.00    962.85 
   184.00     12.26   1295.54      0.01     -0.52      0.00    961.05 
   184.01     12.26   1295.71      0.00     -0.17      0.00    961.05 
   184.02     12.26   1288.31      0.00     -9.82      0.00    955.66 
   184.03     12.25   1304.33     -0.01      8.79      0.00    967.35 
   184.04     12.25   1295.89     -0.02     -1.72      7.00    961.05 
   184.05     12.26   1288.31     -0.01     -6.72      0.00    955.66 
   184.06     12.25   1295.89     -0.01      0.34      0.00    961.05 
   184.07     12.26   1298.13      0.00      0.00      0.00    962.85 
   184.08     12.25   1295.89      0.01     -0.52      0.00    961.05 
   184.09     12.25   1296.06      0.01     -0.52      0.00    961.05 
   184.10     12.25   1298.64      0.01     -0.34      0.00    962.85 
   184.11     12.24   1296.40      0.00     -0.17      0.00    961.05 
   184.12     12.23   1296.75     -0.02     -1.73      0.00    961.05 
   184.13     12.23   1299.33     -0.02      3.27      0.00    962.85 
   184.14     12.23   1296.75     -0.02      0.69      0.00    961.05 
   184.15     12.24   1298.99     -0.02      0.86      8.00    962.85 
   184.16     12.25   1296.06      0.00      0.00      0.00    961.05 
   184.17     12.25   1296.06     -0.00      7.41      0.00    961.05 
   184.18     12.26   1298.13      0.00      2.24      0.00    962.85 
   184.19     12.25   1295.89      0.00     -2.41      7.00    961.05 
   184.20     12.25   1295.89      0.00      0.00      0.00    961.05 
   184.21     12.26   1297.95      0.00     -0.17      0.00    962.85 
   184.22     12.25   1296.06     -0.01      0.52      0.00    961.05 
   184.23     12.25   1288.82     -0.01     -9.14      0.00    955.66 
   184.24     12.25   1304.50     -0.02      9.13      0.00    967.35 
   184.25     12.25   1296.23     -0.01     -1.90      0.00    961.05 
   184.26     12.25   1288.82     -0.00     -7.07      0.00    955.66 
   184.27     12.25   1296.06     -0.00      7.41      0.00    961.05 
   184.28     12.25   1298.47      0.00     -6.03      0.00    962.85 
   184.29     12.25   1296.23      0.00      7.24      0.00    961.05 
   184.30     12.25   1298.47      0.01     -0.34      0.00    962.85 
   184.31     12.25   1296.23      0.01     -0.34      0.00    961.05 
   184.32     12.24   1296.40     -0.01     -2.07      0.00    961.05 
   184.33     12.25   1298.30      0.00      2.41      0.00    962.85 
   184.34     12.25   1296.06     -0.02     -1.72      0.00    961.05 
   184.35     12.25   1298.47     -0.02      3.27      0.00    962.85 
   184.36     12.25   1296.06     -0.00     -2.24      0.00    961.05 
   184.37     12.25   1298.47     -0.01      2.76      0.00    962.85 
   184.38     12.25   1296.23      0.00      7.24      0.00    961.05 
   184.39     12.25   1295.89      0.00     -2.58      7.00    961.05 
   184.40     12.26   1297.95      0.02      1.72      0.00    962.85 
   184.41     12.26   1295.71      0.00     -2.41      0.00    961.05 
   184.42     12.26   1288.31      0.01     -7.58      0.00    955.66 
   184.43     12.26   1295.54      0.02     -3.10      0.00    961.05 
