#Written by Robertson Geologging WinLogger V1.0/406
~VERSION INFORMATION
#------------------------------------------------------------------------------
 VERS. 2.0 : CWLS LOG ASCII STANDARD - VERSION 2.0
 WRAP. NO  : ONE LINE PER DEPTH STEP
~WELL INFORMATION
#MNEM.UNIT         DATA                                DESCRIPTION OF MNEMONIC
#------------------------------------------------------------------------------
 STRT.M         42.0600                            :   START DEPTH
 STOP.M        195.0000                            :   STOP DEPTH
 STEP.M          0.0100                            :   STEP VALUE
 NULL.        -999.2500                            :   NULL VALUE
 COMP.    I.W.S.                                   :   COMPANY NAME
 WELL.    Thrislington                             :   WELL NAME
 FLD.     Thrislington                             :   FIELD NAME
 LOC.     N/A                                      :   LOCATION
 PROV.    N/A                                      :   PROVINCE
 SRVC.    N/A                                      :   SERVICE COMPANY NAME
 DATE.    21 Jul 09                                :   DATE
 UWI.     N/A                                      :   UNIQUE WELL IDENTIFIER
~PARAMETER INFORMATION
#MNEMO.UNIT         VALUE                 DESCRIPTION OF MNEMONIC
#------------------------------------------------------------------------------
~OTHER INFORMATION SECTION
#------------------------------------------------------------------------------
 TCGS 1365
~CURVE INFORMATION
#MNEMO.UNIT         API CODE              CURVE DESCRIPTION
#------------------------------------------------------------------------------
 DEPTH.M                                 :   0     Depth
 TEMP.DegC                               :   1     Temperature
 CN25.uS/cm                              :   2     Conductivity@25DegC
 DELT.DegC                               :   3     Delta T
 DELC.uS/cm                              :   4     Delta C
 NGAM.CPS                                :   5     Natural Gamma
 COND.uS/cm                              :   6     Conductivity
#------------------------------------------------------------------------------
~A  DEPTH     TEMP      CN25      DELT      DELC      NGAM      COND      
# ...
   193.48     13.51   4386.10      0.10   -857.86      7.00   3374.04 
   193.49     13.50   4421.22      0.09   -831.15     16.00   3400.65 
   193.50     13.50   4446.81      0.08   -801.83      7.00   3419.93 
   193.51     13.49   4452.14      0.06   -780.77      8.00   3423.60 
   193.52     13.49   4464.63      0.05   -750.16     21.00   3432.78 
   193.53     13.49   4472.98      0.04   -702.11     14.00   3439.20 
   193.54     13.50   4470.09      0.05   -675.02     16.00   3438.29 
   193.55     13.51   4496.95      0.05   -597.17     21.00   3459.40 
   193.56     13.51   4505.29      0.05   -501.37     21.00   3465.83 
   193.57     13.51   4519.03      0.05   -385.23      0.00   3476.85 
   193.58     13.51   4521.42      0.05   -271.58     14.00   3478.68 
   193.59     13.51   4539.88      0.04   -174.20      0.00   3492.46 
   193.60     13.51   4548.84      0.04   -124.02     33.00   3499.81 
   193.61     13.51   4564.35      0.04    -39.82     28.00   3511.75 
   193.62     13.50   4589.36      0.02    116.44      8.00   3530.12 
   193.63     13.51   4607.87      0.03    260.81      0.00   3544.82 
   193.64     13.50   4617.39      0.02    353.10     14.00   3551.25 
   193.65     13.49   4631.10      0.01    454.95      8.00   3561.36 
   193.66     13.49   4651.40      0.02    584.23      0.00   3576.99 
   193.67     13.49   4669.90      0.01    680.06      7.00   3590.77 
   193.68     13.49   4691.39      0.01    724.16      0.00   3607.32 
   193.69     13.49   4703.34      0.00    748.31      0.00   3616.51 
   193.70     13.50   4729.62     -0.00    784.40      0.00   3637.66 
   193.71     13.50   4761.27     -0.00    826.06     21.00   3662.49 
   193.72     13.50   4847.90     -0.01    923.88     21.00   3728.73 
   193.73     13.50   4888.55     -0.00    961.16      0.00   3760.02 
   193.74     13.50   4932.79      0.00   1016.29      7.00   3794.08 
   193.75     13.50   5018.28      0.02   1097.23      7.00   3860.40 
   193.76     13.51   5057.13      0.02   1130.13      8.00   3890.80 
   193.77     13.51   5095.34      0.02   1166.96     16.00   3921.21 
   193.78     13.51   5136.03      0.02   1207.64      7.00   3952.56 
   193.79     13.51   5178.58      0.01   1253.07     14.00   3984.83 
   193.80     13.51   5225.82      0.02   1297.44     16.00   4021.72 
   193.81     13.51   5273.86      0.01   1338.85     14.00   4057.70 
   193.82     13.50   5297.97     -0.01   1362.76      8.00   4075.24 
   193.83     13.49   5344.20     -0.01   1410.18     21.00   4110.31 
   193.84     13.49   5389.26     -0.02   1454.54      0.00   4144.47 
   193.85     13.49   5412.57     -0.02   1468.85      0.00   4162.94 
   193.86     13.50   5467.59     -0.00   1522.87     16.00   4206.36 
   193.87     13.51   5487.29      0.00   1542.58      7.00   4222.07 
   193.88     13.51   5506.49      0.00   1552.96      0.00   4236.85 
   193.89     13.50   5514.39      0.00   1559.67     14.00   4242.40 
   193.90     13.50   5527.59     -0.01   1566.74     25.00   4252.56 
   193.91     13.49   5532.59     -0.03   1572.74      0.00   4255.34 
   193.92     13.49   5528.98     -0.03   1576.77      8.00   4252.56 
   193.93     13.49   5532.59     -0.02   1563.93     14.00   4255.34 
   193.94     13.49   5529.68     -0.02   1566.46      0.00   4252.56 
   193.95     13.49   5540.99     -0.01   1579.64      0.00   4261.81 
   193.96     13.49   5538.59     -0.01   1568.42      8.00   4259.96 
   193.97     13.49   5549.40     -0.01   1574.48      0.00   4268.28 
   193.98     13.51   5573.71      0.00   1595.22      0.00   4288.61 
   193.99     13.51   5586.91      0.00   1608.43      0.00   4298.78 
   194.00     13.50   5582.81     -0.00   1598.89      7.00   4295.09 
   194.01     13.51   5586.21      0.00   1608.22      0.00   4298.78 
   194.02     13.51   5590.51      0.00   1597.08      7.00   4301.56 
   194.03     13.51   5586.21      0.00   1600.41     16.00   4298.78 
   194.04     13.51   5605.91      0.00   1620.62      7.00   4314.50 
   194.05     13.51   5604.71     -0.00   1612.79     16.00   4313.58 
   194.06     13.51   5616.93     -0.01   1623.32      0.00   4321.90 
   194.07     13.51   5646.24      0.00   1642.62      8.00   4345.02 
   194.08     13.51   5667.37     -0.00   1673.26      7.00   4360.75 
   194.09     13.49   5709.18     -0.02   1705.56      0.00   4391.28 
   194.10     13.51   5753.89     -0.01   1750.77      0.00   4427.37 
   194.11     13.50   5779.86     -0.01   1766.73     14.00   4446.81 
   194.12     13.51   5756.29      0.00   1752.16      0.00   4429.22 
   194.13     13.51   5726.00      0.01   1711.86     21.00   4407.01 
   194.14     13.51   5706.30      0.00   1693.85     16.00   4391.28 
   194.15     13.51   5710.62     -0.01   1698.00      7.00   4394.05 
   194.16     13.51   5727.45     -0.00   1715.51     14.00   4407.01 
   194.17     13.51   5745.95      0.00   1732.31      8.00   4421.82 
   194.18     13.51   5762.30      0.00   1738.65      0.00   4433.85 
   194.19     13.51   5786.34      0.01   1764.56     33.00   4452.36 
   194.20     13.50   5797.89      0.01   1762.52      0.00   4460.70 
   194.21     13.50   5814.72      0.01   1767.46      7.00   4473.66 
   194.22     13.51   5816.40      0.00   1763.02      8.00   4475.51 
   194.23     13.50   5840.72     -0.01   1777.67     28.00   4493.10 
   194.24     13.51   5846.46     -0.01   1774.41      0.00   4498.66 
   194.25     13.50   5858.02     -0.02   1771.04      0.00   4507.00 
   194.26     13.51   5876.53     -0.00   1783.75      8.00   4521.82 
   194.27     13.52   5897.15      0.02   1790.93      0.00   4539.42 
   194.28     13.51   5905.11      0.02   1791.75      8.00   4544.98 
   194.29     13.52   5915.19      0.02   1782.80      0.00   4553.31 
   194.30     13.51   5905.11      0.02   1762.01      0.00   4544.98 
   194.31     13.52   5924.81      0.02   1767.43      8.00   4560.73 
   194.32     13.52   5932.03      0.02   1766.32     21.00   4566.29 
   194.33     13.52   5934.43      0.02   1751.40      0.00   4568.14 
   194.34     13.52   5932.03      0.02   1731.80      0.00   4566.29 
   194.35     13.51   5926.30      0.00   1718.81      8.00   4560.73 
   194.36     13.51   5941.95      0.01   1719.64      0.00   4572.77 
   194.37     13.51   5936.68      0.01   1693.60     25.00   4568.14 
   194.38     13.51   5935.18      0.01   1683.65      8.00   4568.14 
   194.39     13.51   5932.78      0.01   1681.90     14.00   4566.29 
   194.40     13.52   5934.43      0.01   1667.43      8.00   4568.14 
   194.41     13.51   5941.20      0.01   1659.90     14.00   4572.77 
   194.42     13.52   5945.26      0.01   1644.27      8.00   4576.48 
   194.43     13.51   5949.62     -0.00   1640.19      7.00   4579.26 
   194.44     13.52   5964.51      0.01   1638.51      8.00   4591.31 
   194.45     13.53   5990.67      0.01   1660.46     21.00   4612.63 
   194.46     13.53   6013.53      0.02   1644.65      8.00   4630.24 
   194.47     13.53   6033.98      0.02   1647.88      7.00   4646.00 
   194.48     13.52   6064.83      0.02   1643.61      8.00   4669.19 
   194.49     13.52   6077.63      0.02   1630.82     14.00   4678.46 
   194.50     13.52   6084.09      0.03   1631.95      8.00   4684.03 
   194.51     13.53   6093.39      0.05   1628.76      7.00   4692.37 
   194.52     13.53   6111.01      0.04   1638.03      0.00   4705.36 
   194.53     13.54   6111.88      0.04   1641.79      8.00   4707.22 
   194.54     13.53   6136.30      0.02   1639.35      7.00   4724.84 
   194.55     13.51   6138.62      0.01   1633.32     21.00   4724.84 
   194.56     13.52   6144.29      0.01   1625.26      8.00   4730.41 
   194.57     13.52   6155.91      0.01   1634.49     14.00   4738.76 
   194.58     13.52   6165.54      0.01   1625.67     33.00   4746.19 
   194.59     13.52   6169.59      0.01   1620.74      0.00   4749.90 
   194.60     13.51   6171.14      0.00   1606.79      0.00   4749.90 
