#Written by Robertson Geologging WinLogger V1.0/406
~VERSION INFORMATION
#------------------------------------------------------------------------------
 VERS. 2.0 : CWLS LOG ASCII STANDARD - VERSION 2.0
 WRAP. NO  : ONE LINE PER DEPTH STEP
~WELL INFORMATION
#MNEM.UNIT         DATA                                DESCRIPTION OF MNEMONIC
#------------------------------------------------------------------------------
 STRT.M         42.0600                            :   START DEPTH
 STOP.M        195.0000                            :   STOP DEPTH
 STEP.M          0.0100                            :   STEP VALUE
 NULL.        -999.2500                            :   NULL VALUE
 COMP.    I.W.S.                                   :   COMPANY NAME
 WELL.    Thrislington                             :   WELL NAME
 FLD.     Thrislington                             :   FIELD NAME
 LOC.     N/A                                      :   LOCATION
 PROV.    N/A                                      :   PROVINCE
 SRVC.    N/A                                      :   SERVICE COMPANY NAME
 DATE.    21 Jul 09                                :   DATE
 UWI.     N/A                                      :   UNIQUE WELL IDENTIFIER
~PARAMETER INFORMATION
#MNEMO.UNIT         VALUE                 DESCRIPTION OF MNEMONIC
#------------------------------------------------------------------------------
~OTHER INFORMATION SECTION
#------------------------------------------------------------------------------
 TCGS 1365
~CURVE INFORMATION
#MNEMO.UNIT         API CODE              CURVE DESCRIPTION
#------------------------------------------------------------------------------
 DEPTH.M                                 :   0     Depth
 TEMP.DegC                               :   1     Temperature
 CN25.uS/cm                              :   2     Conductivity@25DegC
 DELT.DegC                               :   3     Delta T
 DELC.uS/cm                              :   4     Delta C
 NGAM.CPS                                :   5     Natural Gamma
 COND.uS/cm                              :   6     Conductivity
#------------------------------------------------------------------------------
~A  DEPTH     TEMP      CN25      DELT      DELC      NGAM      COND      
# ...
   152.80     12.26   1295.71      0.00     -0.17      0.00    961.05 
   152.81     12.25   1298.47      0.00      0.00      0.00    962.85 
   152.82     12.25   1296.06     -0.00      0.17      0.00    961.05 
   152.83     12.24   1298.99     -0.02      0.69      0.00    962.85 
   152.84     12.25   1298.64     -0.01      2.76      8.00    962.85 
   152.85     12.25   1296.23     -0.01      7.58      0.00    961.05 
   152.86     12.25   1298.47     -0.01      0.34      0.00    962.85 
   152.87     12.25   1296.06      0.00      8.27      0.00    961.05 
   152.88     12.25   1298.47     -0.00      0.17      0.00    962.85 
   152.89     12.25   1296.23     -0.01      0.34      0.00    961.05 
   152.90     12.24   1298.81     -0.01      0.34      0.00    962.85 
   152.91     12.25   1298.64     -0.01      2.93      0.00    962.85 
   152.92     12.24   1296.40     -0.01     -1.90      0.00    961.05 
   152.93     12.25   1298.47      0.00      0.00      0.00    962.85 
   152.94     12.25   1296.06      0.00     -0.17      0.00    961.05 
   152.95     12.25   1298.47      0.00      0.00      0.00    962.85 
   152.96     12.26   1295.71      0.01     -0.34      0.00    961.05 
   152.97     12.25   1298.30      0.01     -0.34      0.00    962.85 
   152.98     12.25   1298.30      0.00      0.00      0.00    962.85 
   152.99     12.25   1295.89      0.01     -0.34      7.00    961.05 
   153.00     12.25   1298.30      0.00      0.00      0.00    962.85 
   153.01     12.25   1296.06     -0.01     -2.07      0.00    961.05 
   153.02     12.25   1298.30     -0.00      2.58      0.00    962.85 
   153.03     12.25   1295.89     -0.00     -2.24      0.00    961.05 
   153.04     12.25   1298.47      0.00      2.41      8.00    962.85 
   153.05     12.25   1295.89      0.01     -2.76      0.00    961.05 
   153.06     12.25   1298.30      0.00     -0.17      0.00    962.85 
   153.07     12.25   1298.47     -0.00      2.58      0.00    962.85 
   153.08     12.26   1295.71      0.01     -2.76      0.00    961.05 
   153.09     12.25   1298.30      0.00      0.00      0.00    962.85 
   153.10     12.25   1295.89      0.00      0.00      0.00    961.05 
   153.11     12.25   1298.30      0.00      0.00      0.00    962.85 
   153.12     12.25   1288.99     -0.02      0.68      0.00    955.66 
   153.13     12.24   1304.85     -0.02      0.86      0.00    967.35 
   153.14     12.24   1289.16     -0.01      0.51      0.00    955.66 
   153.15     12.24   1304.85     -0.01      6.38      0.00    967.35 
   153.16     12.25   1288.99     -0.01     -6.90      0.00    955.66 
   153.17     12.25   1298.30      0.00     -0.17      0.00    962.85 
   153.18     12.26   1295.71      0.01     -2.76      0.00    961.05 
   153.19     12.25   1298.30      0.01      2.07      0.00    962.85 
   153.20     12.25   1298.47      0.01     -0.52      0.00    962.85 
   153.21     12.24   1296.57      0.00     -2.41      0.00    961.05 
   153.22     12.24   1298.99     -0.01      2.93      0.00    962.85 
   153.23     12.24   1296.40     -0.02     -1.72      7.00    961.05 
   153.24     12.25   1298.47     -0.01      0.34      0.00    962.85 
   153.25     12.26   1297.95      0.00      2.41      0.00    962.85 
   153.26     12.26   1298.13      0.00     -0.17      0.00    962.85 
   153.27     12.26   1295.71      0.00     -2.58      0.00    961.05 
   153.28     12.25   1298.30      0.00      2.24      0.00    962.85 
   153.29     12.26   1298.13      0.02     -0.69      0.00    962.85 
   153.30     12.26   1295.71      0.02      6.55      7.00    961.05 
   153.31     12.26   1298.13      0.02     -6.90      0.00    962.85 
   153.32     12.25   1298.30      0.02      8.97      0.00    962.85 
   153.33     12.25   1295.89      0.01     -8.79      0.00    961.05 
   153.34     12.25   1298.64      0.01      9.31      0.00    962.85 
   153.35     12.25   1288.99      0.00     -9.65      0.00    955.66 
   153.36     12.25   1298.30      0.01      2.07      0.00    962.85 
   153.37     12.25   1295.89      0.00     -2.58      0.00    961.05 
   153.38     12.25   1298.47     -0.01      2.76      0.00    962.85 
   153.39     12.25   1298.30      0.01     -0.34      0.00    962.85 
   153.40     12.25   1296.06     -0.00     -2.24      0.00    961.05 
   153.41     12.25   1298.64     -0.00      2.59      0.00    962.85 
   153.42     12.25   1298.47      0.00      0.00      0.00    962.85 
   153.43     12.25   1295.89     -0.00      0.17      0.00    961.05 
   153.44     12.26   1298.13      0.01     -0.52      0.00    962.85 
   153.45     12.26   1298.13      0.01     -0.34      0.00    962.85 
   153.46     12.26   1295.54      0.01     -0.34      0.00    961.05 
   153.47     12.26   1298.13      0.01     -0.34      0.00    962.85 
   153.48     12.26   1298.13      0.00     -0.17      0.00    962.85 
   153.49     12.25   1295.89      0.00     -0.17      0.00    961.05 
   153.50     12.25   1298.30      0.00     -0.17      8.00    962.85 
   153.51     12.25   1296.06      0.00     -2.59      0.00    961.05 
   153.52     12.25   1298.30      0.00      2.24      0.00    962.85 
   153.53     12.25   1298.30      0.01     -0.34      0.00    962.85 
   153.54     12.25   1296.06      0.01     -2.76      0.00    961.05 
   153.55     12.26   1298.13      0.01      2.07      0.00    962.85 
   153.56     12.25   1296.06      0.01     -2.76      0.00    961.05 
   153.57     12.26   1298.13      0.01      9.31      8.00    962.85 
   153.58     12.26   1295.71      0.00     -8.44      7.00    961.05 
   153.59     12.24   1298.81     -0.01      0.52      0.00    962.85 
   153.60     12.24   1296.40     -0.02      8.09      7.00    961.05 
   153.61     12.24   1298.99     -0.02      0.86      0.00    962.85 
   153.62     12.24   1296.40     -0.02      0.69      0.00    961.05 
   153.63     12.25   1298.47     -0.01      0.34      0.00    962.85 
   153.64     12.25   1298.30     -0.00      0.17      0.00    962.85 
   153.65     12.25   1295.89      0.00      0.00      0.00    961.05 
   153.66     12.25   1298.64      0.00     -0.17      0.00    962.85 
   153.67     12.24   1296.57      0.00     -2.41      0.00    961.05 
   153.68     12.25   1298.64      0.01      2.07      0.00    962.85 
   153.69     12.25   1298.64      0.00     -0.17      0.00    962.85 
   153.70     12.25   1296.23      0.00     -0.17      0.00    961.05 
   153.71     12.25   1298.47      0.00     -0.17      0.00    962.85 
   153.72     12.25   1295.89      0.01     -0.34      0.00    961.05 
   153.73     12.25   1298.47      0.00     -0.17      8.00    962.85 
   153.74     12.25   1288.82      0.00     -9.65      0.00    955.66 
   153.75     12.25   1304.68     -0.00      8.62      7.00    967.35 
   153.76     12.23   1289.67     -0.03     -8.62      0.00    955.66 
   153.77     12.23   1299.33     -0.03      3.45      0.00    962.85 
   153.78     12.24   1305.02     -0.03      7.07     14.00    967.35 
   153.79     12.24   1289.16     -0.02     -6.55      0.00    955.66 
   153.80     12.26   1298.13      0.01     -0.34      0.00    962.85 
   153.81     12.26   1295.54      0.01     -0.52      0.00    961.05 
   153.82     12.25   1298.30      0.02     -0.69      0.00    962.85 
   153.83     12.26   1297.95      0.02     -0.69      0.00    962.85 
   153.84     12.26   1295.71      0.01     -0.52      7.00    961.05 
   153.85     12.26   1297.95      0.01     -0.52      8.00    962.85 
   153.86     12.27   1297.78      0.02      1.72      0.00    962.85 
   153.87     12.27   1295.37      0.02     -3.10      0.00    961.05 
   153.88     12.25   1298.30      0.01      2.07      0.00    962.85 
   153.89     12.25   1298.30      0.01     -0.52      0.00    962.85 
   153.90     12.25   1295.89      0.01     -2.76      0.00    961.05 
   153.91     12.25   1298.47      0.01      2.07      0.00    962.85 
   153.92     12.26   1295.71      0.01     -2.76      0.00    961.05 
