#Written by Robertson Geologging WinLogger V1.5/410
~VERSION INFORMATION
#------------------------------------------------------------------------------
 VERS. 2.0 : CWLS LOG ASCII STANDARD - VERSION 2.0
 WRAP. NO  : ONE LINE PER DEPTH STEP
~WELL INFORMATION
#MNEM.UNIT         DATA                                DESCRIPTION OF MNEMONIC
#------------------------------------------------------------------------------
 STRT.M          0.0600                            :   START DEPTH
 STOP.M        195.0000                            :   STOP DEPTH
 STEP.M          0.0100                            :   STEP VALUE
 NULL.        -999.2500                            :   NULL VALUE
 COMP.    Coal Authority                           :   COMPANY NAME
 WELL.    Thrislington Shaft                       :   WELL NAME
 FLD.     N/A                                      :   FIELD NAME
 LOC.     N/A                                      :   LOCATION
 PROV.    N/A                                      :   PROVINCE
 SRVC.    N/A                                      :   SERVICE COMPANY NAME
 DATE.    15 Dec 08                                :   DATE
 UWI.     N/A                                      :   UNIQUE WELL IDENTIFIER
~PARAMETER INFORMATION
#MNEMO.UNIT         VALUE                 DESCRIPTION OF MNEMONIC
#------------------------------------------------------------------------------
~OTHER INFORMATION SECTION
#------------------------------------------------------------------------------
 TCDS 1365
 15,12,2008
~CURVE INFORMATION
#MNEMO.UNIT         API CODE              CURVE DESCRIPTION
#------------------------------------------------------------------------------
 DEPTH.M                                 :   0     Depth
 COND.uS/cm                              :   1     Conductivity@25DegC
 COND.uS/cm                              :   2     Absolute Conductivity
 TEMP.DegC                               :   3     Temperature
 DELT.DegC                               :   4     Delta T
 DELC.uS/cm                              :   5     Delta C
 NGAM.CPS                                :   6     Natural Gamma
#------------------------------------------------------------------------------
~A  DEPTH          COND          COND          TEMP          DELT          DELC          NGAM
# ...
   168.62       1390.37       1040.88         12.43         -0.01         -0.55          0.71
   168.63       1394.10       1043.73         12.43         -0.01          2.62          0.71
   168.64       1390.23       1040.88         12.44         -0.01         -5.06          0.71
   168.65       1394.53       1044.14         12.44         -0.01          3.01          0.71
   168.66       1390.65       1041.29         12.44         -0.00         -0.91          0.71
   168.67       1390.64       1041.29         12.44         -0.00         -0.96          0.71
   168.68       1390.59       1041.29         12.44         -0.00         -0.51          0.71
   168.69       1390.57       1041.29         12.44          0.00         -4.45          0.71
   168.70       1394.36       1044.14         12.44          0.01          3.05          0.71
   168.71       1390.52       1041.29         12.44          0.01         -0.87          0.71
   168.72       1390.52       1041.29         12.44          0.01         -4.79          0.71
   168.73       1394.33       1044.14         12.44          0.01          2.74          0.71
   168.74       1390.57       1041.29         12.44          0.01         -4.35          0.35
   168.75       1394.41       1044.14         12.44          0.01          3.25          0.71
   168.76       1390.67       1041.29         12.44          0.01         -0.51          0.71
   168.77       1391.25       1041.70         12.44          0.01         -3.75          0.71
   168.78       1395.02       1044.55         12.44          0.01          3.80          0.71
   168.79       1391.20       1041.70         12.44          0.02         -3.84          0.35
   168.80       1395.00       1044.55         12.44          0.01          3.83          0.35
   168.81       1391.23       1041.70         12.44          0.01          0.10          0.71
   168.82       1391.28       1041.70         12.44          0.01         -3.59          0.71
   168.83       1395.15       1044.55         12.43          0.00          4.19          0.71
   168.84       1391.39       1041.70         12.43          0.00         -3.26          0.71
   168.85       1395.20       1044.55         12.43         -0.00          4.46          1.06
   168.86       1391.39       1041.70         12.43         -0.01          0.76          1.06
   168.87       1391.36       1041.70         12.43         -0.01         -3.03          1.06
   168.88       1394.62       1044.14         12.43         -0.01          4.07          1.06
   168.89       1390.83       1041.29         12.43         -0.01         -3.51          1.06
   168.90       1394.66       1044.14         12.43         -0.01          4.10          1.06
   168.91       1390.87       1041.29         12.43         -0.01          0.29          1.06
   168.92       1390.85       1041.29         12.43         -0.01         -3.56          0.71
   168.93       1394.67       1044.14         12.43         -0.01          4.05          0.71
   168.94       1391.46       1041.70         12.43         -0.01         -2.99          0.71
   168.95       1391.49       1041.70         12.43         -0.01          0.26          0.71
   168.96       1391.49       1041.70         12.43         -0.01         -3.58          0.71
   168.97       1391.47       1041.70         12.43         -0.00         -3.64          1.06
   168.98       1395.25       1044.55         12.43         -0.00          3.94          0.71
   168.99       1391.41       1041.70         12.43         -0.00         -3.69          0.71
   169.00       1391.43       1041.70         12.43         -0.00          0.15          0.71
   169.01       1391.47       1041.70         12.43         -0.01         -3.56          0.71
   169.02       1391.49       1041.70         12.43         -0.01         -3.53          0.35
   169.03       1395.31       1044.55         12.43         -0.01          4.10          0.35
   169.04       1391.49       1041.70         12.43         -0.01         -3.53          0.35
   169.05       1390.87       1041.29         12.43         -0.00         -0.43          0.35
   169.06       1394.64       1044.14         12.43         -0.00          0.02          0.35
   169.07       1390.85       1041.29         12.43          0.00          0.51          0.35
   169.08       1394.71       1044.14         12.43          0.00          4.32          0.35
   169.09       1390.95       1041.29         12.43          0.00         -3.26          0.35
   169.10       1390.98       1041.29         12.43         -0.00          0.58          0.35
   169.11       1394.77       1044.14         12.43         -0.00          0.58          0.35
   169.12       1390.92       1041.29         12.43          0.00          0.53          0.35
   169.13       1394.71       1044.14         12.43         -0.00          4.35          0.35
   169.14       1390.88       1041.29         12.43         -0.00         -3.21          0.00
   169.15       1394.71       1044.14         12.43         -0.00          4.43          0.00
   169.16       1394.77       1044.14         12.43         -0.01          0.76          0.00
   169.17       1391.01       1041.29         12.43         -0.01          0.84          0.00
   169.18       1394.87       1044.14         12.43         -0.01          4.17          0.00
   169.19       1391.08       1041.29         12.43         -0.01         -3.38          0.00
   169.20       1394.90       1044.14         12.43         -0.01          4.25          0.29
   169.21       1394.92       1044.14         12.43         -0.01          0.44          0.29
   169.22       1391.14       1041.29         12.43         -0.01          0.46          0.29
   169.23       1394.98       1044.14         12.42         -0.01          4.26          0.29
   169.24       1391.22       1041.29         12.42         -0.01         -3.33          0.29
   169.25       1395.08       1044.14         12.42         -0.01          4.26          0.29
   169.26       1391.26       1041.29         12.42         -0.01         -3.43          0.29
   169.27       1391.19       1041.29         12.42         -0.01          0.26          0.29
   169.28       1394.89       1044.14         12.43         -0.00          3.92          0.29
   169.29       1390.95       1041.29         12.43          0.00         -3.84          0.29
   169.30       1394.67       1044.14         12.43          0.00          3.68          0.29
   169.31       1390.82       1041.29         12.43          0.01         -4.00          0.29
   169.32       1390.77       1041.29         12.44          0.01         -0.26          0.65
   169.33       1394.58       1044.14         12.44          0.01          3.55          0.65
   169.34       1390.77       1041.29         12.44          0.01         -4.07          0.65
   169.35       1394.54       1044.14         12.44          0.01          3.48          0.65
   169.36       1390.72       1041.29         12.44          0.01         -4.15          0.65
   169.37       1390.70       1041.29         12.44          0.01         -0.36          0.35
   169.38       1394.54       1044.14         12.44          0.01          3.50          0.35
   169.39       1390.83       1041.29         12.43          0.00         -3.97          0.35
   169.40       1394.74       1044.14         12.43          0.00          3.77          0.35
   169.41       1391.01       1041.29         12.43         -0.00          0.08          0.35
   169.42       1391.06       1041.29         12.43         -0.00          0.18          0.35
   169.43       1394.90       1044.14         12.43         -0.01          4.08          0.35
   169.44       1391.09       1041.29         12.43         -0.01         -3.50          0.35
   169.45       1394.92       1044.14         12.43         -0.01          4.17          0.35
   169.46       1391.11       1041.29         12.43         -0.01          0.41          0.35
   169.47       1391.08       1041.29         12.43         -0.01          0.39          0.35
