#Written by Robertson Geologging WinLogger V1.0/406
~VERSION INFORMATION
#------------------------------------------------------------------------------
 VERS. 2.0 : CWLS LOG ASCII STANDARD - VERSION 2.0
 WRAP. NO  : ONE LINE PER DEPTH STEP
~WELL INFORMATION
#MNEM.UNIT         DATA                                DESCRIPTION OF MNEMONIC
#------------------------------------------------------------------------------
 STRT.M         42.0600                            :   START DEPTH
 STOP.M        195.0000                            :   STOP DEPTH
 STEP.M          0.0100                            :   STEP VALUE
 NULL.        -999.2500                            :   NULL VALUE
 COMP.    I.W.S.                                   :   COMPANY NAME
 WELL.    Thrislington                             :   WELL NAME
 FLD.     Thrislington                             :   FIELD NAME
 LOC.     N/A                                      :   LOCATION
 PROV.    N/A                                      :   PROVINCE
 SRVC.    N/A                                      :   SERVICE COMPANY NAME
 DATE.    21 Jul 09                                :   DATE
 UWI.     N/A                                      :   UNIQUE WELL IDENTIFIER
~PARAMETER INFORMATION
#MNEMO.UNIT         VALUE                 DESCRIPTION OF MNEMONIC
#------------------------------------------------------------------------------
~OTHER INFORMATION SECTION
#------------------------------------------------------------------------------
 TCGS 1365
~CURVE INFORMATION
#MNEMO.UNIT         API CODE              CURVE DESCRIPTION
#------------------------------------------------------------------------------
 DEPTH.M                                 :   0     Depth
 TEMP.DegC                               :   1     Temperature
 CN25.uS/cm                              :   2     Conductivity@25DegC
 DELT.DegC                               :   3     Delta T
 DELC.uS/cm                              :   4     Delta C
 NGAM.CPS                                :   5     Natural Gamma
 COND.uS/cm                              :   6     Conductivity
#------------------------------------------------------------------------------
~A  DEPTH     TEMP      CN25      DELT      DELC      NGAM      COND      
# ...
    72.57     12.24   1298.99     -0.00     11.03      0.00    962.85 
    72.58     12.23   1296.92     -0.00      0.17      0.00    961.05 
    72.59     12.23   1289.67     -0.00     -7.07      0.00    955.66 
    72.60     12.22   1288.64     -0.00    -10.69      0.00    954.76 
    72.61     12.23   1299.33      0.01     10.52      0.00    962.85 
    72.62     12.23   1288.47      0.00     -8.62      0.00    954.76 
    72.63     12.23   1296.75      0.00     -2.41      7.00    961.05 
    72.64     12.23   1299.16     -0.01      2.76      0.00    962.85 
    72.65     12.23   1296.75     -0.01      8.79      0.00    961.05 
    72.66     12.23   1296.75     -0.02      0.69      0.00    961.05 
    72.67     12.22   1289.85     -0.03     -8.63      0.00    955.66 
    72.68     12.22   1297.09     -0.02      0.86      0.00    961.05 
    72.69     12.23   1289.67     -0.02      1.89      0.00    955.66 
    72.70     12.23   1296.92     -0.01      0.52      7.00    961.05 
    72.71     12.23   1299.16     -0.01      0.34      0.00    962.85 
    72.72     12.24   1296.57     -0.00      0.17      0.00    961.05 
    72.73     12.23   1288.30     -0.01      0.34      7.00    954.76 
    72.74     12.24   1298.81      0.00      2.24      0.00    962.85 
    72.75     12.24   1296.57      0.01     -2.76      0.00    961.05 
    72.76     12.23   1296.75      0.01      7.94      0.00    961.05 
    72.77     12.24   1289.33      0.01     -7.76      0.00    955.66 
    72.78     12.24   1296.57      0.01     -0.34      0.00    961.05 
    72.79     12.25   1296.23      0.01     -2.93      0.00    961.05 
    72.80     12.25   1296.23      0.01      8.10      0.00    961.05 
    72.81     12.24   1289.16      0.00     -7.41      0.00    955.66 
    72.82     12.24   1296.57     -0.01     -2.07      0.00    961.05 
    72.83     12.22   1297.09     -0.01      0.52      0.00    961.05 
    72.84     12.23   1289.67     -0.00      1.38      0.00    955.66 
    72.85     12.23   1296.92     -0.00     -2.24      0.00    961.05 
    72.86     12.23   1296.75      0.01     -0.52      0.00    961.05 
    72.87     12.24   1296.57      0.01     -0.52      0.00    961.05 
    72.88     12.24   1289.33      0.01      0.69      0.00    955.66 
    72.89     12.23   1296.75      0.00     -2.59      0.00    961.05 
    72.90     12.23   1296.92     -0.00      0.17      0.00    961.05 
    72.91     12.24   1298.99      0.01      2.07      0.00    962.85 
    72.92     12.23   1288.30     -0.00     -1.04      0.00    954.76 
    72.93     12.24   1296.57      0.00     -0.17      0.00    961.05 
    72.94     12.24   1298.81      0.01      1.90      0.00    962.85 
    72.95     12.24   1296.57      0.00      7.24      0.00    961.05 
    72.96     12.24   1287.95      0.01     -8.96      0.00    954.76 
    72.97     12.25   1296.23      0.01     -0.52      0.00    961.05 
    72.98     12.25   1298.47      0.01     -0.34      0.00    962.85 
    72.99     12.25   1296.23      0.00      8.28      0.00    961.05 
    73.00     12.24   1288.13     -0.00     -8.28      0.00    954.76 
    73.01     12.24   1298.99     -0.00      0.17      0.00    962.85 
    73.02     12.23   1296.92     -0.01      0.34      0.00    961.05 
    73.03     12.24   1296.57      0.01      8.11      0.00    961.05 
    73.04     12.24   1288.13      0.00    -10.86      0.00    954.76 
    73.05     12.24   1298.99      0.01      1.90      0.00    962.85 
    73.06     12.25   1296.23      0.02      6.56      0.00    961.05 
    73.07     12.24   1296.40      0.00     -0.17      0.00    961.05 
    73.08     12.24   1289.16      0.01     -7.76      8.00    955.66 
    73.09     12.24   1296.40      0.00     -2.59      0.00    961.05 
    73.10     12.23   1296.75      0.00      8.28      0.00    961.05 
    73.11     12.24   1289.33      0.01    -10.00      0.00    955.66 
    73.12     12.25   1296.23      0.02     -0.69      0.00    961.05 
    73.13     12.25   1296.23      0.02     -0.69      0.00    961.05 
    73.14     12.25   1296.23      0.01      6.90      0.00    961.05 
    73.15     12.25   1288.99      0.01     -7.76      0.00    955.66 
    73.16     12.24   1296.40     -0.00      7.41      7.00    961.05 
    73.17     12.24   1296.40     -0.00      0.17      0.00    961.05 
    73.18     12.24   1298.99     -0.01      0.52      0.00    962.85 
    73.19     12.24   1288.13     -0.01     -8.10      0.00    954.76 
    73.20     12.24   1298.81      0.00      9.65      0.00    962.85 
    73.21     12.23   1296.75     -0.00      0.17      0.00    961.05 
    73.22     12.23   1296.92     -0.00      0.17      0.00    961.05 
    73.23     12.24   1289.33     -0.00      0.17      0.00    955.66 
    73.24     12.23   1296.92     -0.01      0.52      0.00    961.05 
    73.25     12.23   1299.16     -0.01      2.76      0.00    962.85 
    73.26     12.24   1287.95      0.00    -10.86      0.00    954.76 
    73.27     12.23   1296.75      0.00      8.45      7.00    961.05 
    73.28     12.25   1298.64      0.01     -0.34      0.00    962.85 
    73.29     12.24   1296.40      0.00     -0.17      7.00    961.05 
    73.30     12.24   1289.16      0.00      0.00      0.00    955.66 
    73.31     12.24   1296.40      0.00     -0.17      0.00    961.05 
    73.32     12.23   1296.75      0.00      0.00      0.00    961.05 
    73.33     12.24   1289.33      0.01    -10.00      0.00    955.66 
    73.34     12.24   1296.57      0.01      7.94      0.00    961.05 
    73.35     12.24   1298.81      0.00     -0.17      0.00    962.85 
    73.36     12.24   1296.57      0.00      0.00      0.00    961.05 
    73.37     12.23   1289.67     -0.01     -6.73      0.00    955.66 
    73.38     12.23   1296.92     -0.01      7.76      0.00    961.05 
    73.39     12.23   1299.33     -0.01      2.93      0.00    962.85 
    73.40     12.23   1288.30     -0.00     -1.04      0.00    954.76 
    73.41     12.24   1298.99      0.00      2.41      0.00    962.85 
    73.42     12.25   1296.23      0.01     -0.34      0.00    961.05 
    73.43     12.25   1288.82      0.02    -10.34      0.00    955.66 
    73.44     12.25   1296.06      0.02      7.76      0.00    961.05 
    73.45     12.25   1298.47      0.02      1.55      0.00    962.85 
    73.46     12.24   1287.95      0.01    -11.38      0.00    954.76 
    73.47     12.24   1298.81      0.02      1.73      0.00    962.85 
    73.48     12.24   1296.57      0.01      6.90      7.00    961.05 
    73.49     12.23   1296.75      0.00      0.00      0.00    961.05 
    73.50     12.24   1289.33     -0.00     -7.07      0.00    955.66 
    73.51     12.23   1296.92     -0.01      7.59      0.00    961.05 
    73.52     12.24   1296.40      0.00      0.00      0.00    961.05 
    73.53     12.25   1288.99      0.00     -9.65      0.00    955.66 
    73.54     12.24   1296.57     -0.00      0.17      7.00    961.05 
    73.55     12.24   1298.81     -0.00     11.03      0.00    962.85 
    73.56     12.23   1296.92     -0.01     -2.07      0.00    961.05 
    73.57     12.23   1288.47      0.00     -8.45      0.00    954.76 
    73.58     12.23   1299.16      0.00      9.49      0.00    962.85 
    73.59     12.23   1296.92      0.00      8.28      0.00    961.05 
    73.60     12.23   1289.50      0.00     -9.83      0.00    955.66 
    73.61     12.24   1296.57      0.01      8.11      0.00    961.05 
    73.62     12.24   1296.57      0.00     -0.17      0.00    961.05 
    73.63     12.24   1298.99      0.00     -0.17      0.00    962.85 
    73.64     12.24   1288.13      0.00     -8.62      0.00    954.76 
    73.65     12.25   1296.23      0.01     -0.52      0.00    961.05 
    73.66     12.25   1298.64      0.02      8.80      0.00    962.85 
    73.67     12.25   1296.06      0.03     -1.03      0.00    961.05 
    73.68     12.25   1287.61      0.02     -2.06      0.00    954.76 
    73.69     12.23   1296.75      0.00     -0.17      0.00    961.05 
