#Written by Robertson Geologging WinLogger V1.0/406
~VERSION INFORMATION
#------------------------------------------------------------------------------
 VERS. 2.0 : CWLS LOG ASCII STANDARD - VERSION 2.0
 WRAP. NO  : ONE LINE PER DEPTH STEP
~WELL INFORMATION
#MNEM.UNIT         DATA                                DESCRIPTION OF MNEMONIC
#------------------------------------------------------------------------------
 STRT.M         42.0600                            :   START DEPTH
 STOP.M        195.0000                            :   STOP DEPTH
 STEP.M          0.0100                            :   STEP VALUE
 NULL.        -999.2500                            :   NULL VALUE
 COMP.    I.W.S.                                   :   COMPANY NAME
 WELL.    Thrislington                             :   WELL NAME
 FLD.     Thrislington                             :   FIELD NAME
 LOC.     N/A                                      :   LOCATION
 PROV.    N/A                                      :   PROVINCE
 SRVC.    N/A                                      :   SERVICE COMPANY NAME
 DATE.    21 Jul 09                                :   DATE
 UWI.     N/A                                      :   UNIQUE WELL IDENTIFIER
~PARAMETER INFORMATION
#MNEMO.UNIT         VALUE                 DESCRIPTION OF MNEMONIC
#------------------------------------------------------------------------------
~OTHER INFORMATION SECTION
#------------------------------------------------------------------------------
 TCGS 1365
~CURVE INFORMATION
#MNEMO.UNIT         API CODE              CURVE DESCRIPTION
#------------------------------------------------------------------------------
 DEPTH.M                                 :   0     Depth
 TEMP.DegC                               :   1     Temperature
 CN25.uS/cm                              :   2     Conductivity@25DegC
 DELT.DegC                               :   3     Delta T
 DELC.uS/cm                              :   4     Delta C
 NGAM.CPS                                :   5     Natural Gamma
 COND.uS/cm                              :   6     Conductivity
#------------------------------------------------------------------------------
~A  DEPTH     TEMP      CN25      DELT      DELC      NGAM      COND      
# ...
   103.08     12.25   1295.89      0.02     -0.69      0.00    961.05 
   103.09     12.26   1288.48      0.02     -0.68      0.00    955.66 
   103.10     12.25   1304.50      0.01      8.10      0.00    967.35 
   103.11     12.25   1296.06      0.00     -2.59      0.00    961.05 
   103.12     12.25   1288.99      0.00     -7.24      0.00    955.66 
   103.13     12.24   1305.02     -0.00      6.21      0.00    967.35 
   103.14     12.24   1296.57     -0.01      0.34      0.00    961.05 
   103.15     12.24   1289.16      0.00     -7.24      0.00    955.66 
   103.16     12.23   1296.92     -0.02      8.10      0.00    961.05 
   103.17     12.24   1305.02     -0.00      8.62      0.00    967.35 
   103.18     12.24   1289.16      0.00     -7.24      0.00    955.66 
   103.19     12.24   1296.40      0.00     -2.41      0.00    961.05 
   103.20     12.25   1298.47      0.01      1.90      0.00    962.85 
   103.21     12.24   1296.40     -0.00     -2.24      0.00    961.05 
   103.22     12.25   1298.64      0.00      2.41      0.00    962.85 
   103.23     12.25   1296.06      0.00      7.07      0.00    961.05 
   103.24     12.25   1296.06      0.00      0.00      0.00    961.05 
   103.25     12.25   1298.47      0.00      0.00      0.00    962.85 
   103.26     12.25   1296.06      0.00      0.00      0.00    961.05 
   103.27     12.25   1298.64      0.00      2.41      0.00    962.85 
   103.28     12.25   1296.06      0.00     -2.59      0.00    961.05 
   103.29     12.26   1298.13      0.01      1.90      0.00    962.85 
   103.30     12.25   1295.89      0.01     -0.34      0.00    961.05 
   103.31     12.25   1295.89      0.00     -2.41      0.00    961.05 
   103.32     12.25   1298.47      0.00      2.24      8.00    962.85 
   103.33     12.24   1296.57     -0.02      0.69      0.00    961.05 
   103.34     12.25   1288.82     -0.00      0.17      0.00    955.66 
   103.35     12.26   1304.16      0.02      7.76      0.00    967.35 
   103.36     12.26   1288.31      0.02     -7.92      0.00    955.66 
   103.37     12.27   1295.37      0.03     -3.44      0.00    961.05 
   103.38     12.26   1298.13      0.02      1.72      0.00    962.85 
   103.39     12.25   1295.89      0.01     -2.76      0.00    961.05 
   103.40     12.25   1298.30      0.02      1.72      0.00    962.85 
   103.41     12.25   1296.06      0.02     -0.69      0.00    961.05 
   103.42     12.25   1298.47      0.01     -0.52      0.00    962.85 
   103.43     12.25   1296.23      0.01     -0.34      0.00    961.05 
   103.44     12.25   1296.23      0.00      7.07      0.00    961.05 
   103.45     12.25   1298.47      0.01     -6.38      0.00    962.85 
   103.46     12.25   1296.06      0.01      6.90      0.00    961.05 
   103.47     12.25   1298.30      0.01      1.90      0.00    962.85 
   103.48     12.26   1295.71      0.02     -3.10      0.00    961.05 
   103.49     12.25   1296.23     -0.00      0.17      0.00    961.05 
   103.50     12.25   1288.82      0.00     -9.65      0.00    955.66 
   103.51     12.25   1304.68     -0.00      8.62      0.00    967.35 
   103.52     12.24   1289.16     -0.01     -6.90      0.00    955.66 
   103.53     12.24   1296.40     -0.00     -2.24      0.00    961.05 
   103.54     12.24   1304.85      0.00      8.45      0.00    967.35 
   103.55     12.25   1296.23      0.01      6.90      0.00    961.05 
   103.56     12.25   1288.82      0.01     -7.75      0.00    955.66 
   103.57     12.25   1296.06      0.01     -2.93      0.00    961.05 
   103.58     12.25   1304.68      0.00      8.27      7.00    967.35 
   103.59     12.25   1288.82      0.00     -9.82      0.00    955.66 
   103.60     12.25   1296.23      0.01     -0.34      0.00    961.05 
   103.61     12.25   1304.68      0.00      8.27      0.00    967.35 
   103.62     12.24   1296.57     -0.01     -2.07      0.00    961.05 
   103.63     12.24   1289.33     -0.00     -7.07      0.00    955.66 
   103.64     12.25   1296.23      0.00     -2.41      0.00    961.05 
   103.65     12.25   1304.50      0.00      8.27      0.00    967.35 
   103.66     12.26   1288.31      0.01     -0.51      8.00    955.66 
   103.67     12.26   1295.71      0.00     -0.17      7.00    961.05 
   103.68     12.25   1296.23      0.00      0.00      0.00    961.05 
   103.69     12.25   1298.64     -0.00      0.17      0.00    962.85 
   103.70     12.24   1296.40      0.00     -0.17      7.00    961.05 
   103.71     12.23   1296.75     -0.00      0.17      0.00    961.05 
   103.72     12.24   1298.81     -0.00      0.17      0.00    962.85 
   103.73     12.25   1296.23     -0.00      0.17      0.00    961.05 
   103.74     12.25   1298.47      0.00      2.24      0.00    962.85 
   103.75     12.25   1296.06      0.00     -2.41      0.00    961.05 
   103.76     12.25   1298.47     -0.00      2.58      0.00    962.85 
   103.77     12.25   1296.06      0.00     -0.17      0.00    961.05 
   103.78     12.25   1296.06     -0.00     -2.24      0.00    961.05 
   103.79     12.25   1298.47      0.00      2.41      0.00    962.85 
   103.80     12.25   1296.23      0.00      0.00      0.00    961.05 
   103.81     12.25   1298.47      0.00      2.24      0.00    962.85 
   103.82     12.25   1296.23      0.01     -2.76      0.00    961.05 
   103.83     12.25   1298.30      0.02      1.72      0.00    962.85 
   103.84     12.25   1295.89      0.01     -2.93      0.00    961.05 
   103.85     12.26   1295.71      0.02     -0.69      0.00    961.05 
   103.86     12.26   1298.13      0.01      1.90      0.00    962.85 
   103.87     12.26   1298.13      0.01      1.90      0.00    962.85 
   103.88     12.25   1295.89      0.01     -2.93      0.00    961.05 
   103.89     12.25   1298.47      0.01      1.90      0.00    962.85 
   103.90     12.24   1296.40     -0.00     -2.24      0.00    961.05 
   103.91     12.24   1289.33     -0.02     -6.55      0.00    955.66 
   103.92     12.25   1304.68     -0.01      8.79      0.00    967.35 
   103.93     12.25   1296.23     -0.01      0.52      0.00    961.05 
   103.94     12.25   1288.65     -0.00     -9.48      0.00    955.66 
   103.95     12.26   1303.98      0.01      7.93      0.00    967.35 
   103.96     12.25   1295.89      0.00      0.00      0.00    961.05 
   103.97     12.26   1288.31      0.00     -9.82      0.00    955.66 
   103.98     12.25   1304.33      0.00      8.27      0.00    967.35 
   103.99     12.25   1296.23     -0.00      0.17      0.00    961.05 
   104.00     12.25   1288.82     -0.00     -9.48      0.00    955.66 
   104.01     12.24   1304.85     -0.00      8.62      0.00    967.35 
   104.02     12.25   1296.23     -0.00      0.17      0.00    961.05 
   104.03     12.25   1296.23     -0.00     -2.24      0.00    961.05 
   104.04     12.25   1298.47      0.00      2.41      0.00    962.85 
   104.05     12.24   1296.40     -0.01     -2.07      0.00    961.05 
   104.06     12.24   1291.75     -0.01     -4.31     10.00    957.46 
   104.07     12.25   1303.47     -0.01      7.58      0.00    966.45 
   104.08     12.24   1296.40     -0.02      7.92      0.00    961.05 
   104.09     12.25   1296.23     -0.00     -8.27      0.00    961.05 
   104.10     12.26   1298.13      0.01      2.07      0.00    962.85 
   104.11     12.26   1295.71      0.01      6.72      0.00    961.05 
   104.12     12.25   1295.89      0.02     -9.14      0.00    961.05 
   104.13     12.25   1298.30      0.02      1.72      0.00    962.85 
   104.14     12.25   1295.89      0.01      6.72      0.00    961.05 
   104.15     12.25   1296.06      0.02     -0.86      0.00    961.05 
   104.16     12.26   1298.13      0.02     -6.90      0.00    962.85 
   104.17     12.26   1295.71      0.02      6.55      0.00    961.05 
   104.18     12.26   1295.71      0.02     -0.69      7.00    961.05 
   104.19     12.27   1297.78      0.02     -0.69      0.00    962.85 
   104.20     12.26   1295.54      0.02     -0.86      0.00    961.05 
