#Written by Robertson Geologging WinLogger V1.5/410
~VERSION INFORMATION
#------------------------------------------------------------------------------
 VERS. 2.0 : CWLS LOG ASCII STANDARD - VERSION 2.0
 WRAP. NO  : ONE LINE PER DEPTH STEP
~WELL INFORMATION
#MNEM.UNIT         DATA                                DESCRIPTION OF MNEMONIC
#------------------------------------------------------------------------------
 STRT.M          0.0600                            :   START DEPTH
 STOP.M        195.0000                            :   STOP DEPTH
 STEP.M          0.0100                            :   STEP VALUE
 NULL.        -999.2500                            :   NULL VALUE
 COMP.    Coal Authority                           :   COMPANY NAME
 WELL.    Thrislington Shaft                       :   WELL NAME
 FLD.     N/A                                      :   FIELD NAME
 LOC.     N/A                                      :   LOCATION
 PROV.    N/A                                      :   PROVINCE
 SRVC.    N/A                                      :   SERVICE COMPANY NAME
 DATE.    15 Dec 08                                :   DATE
 UWI.     N/A                                      :   UNIQUE WELL IDENTIFIER
~PARAMETER INFORMATION
#MNEMO.UNIT         VALUE                 DESCRIPTION OF MNEMONIC
#------------------------------------------------------------------------------
~OTHER INFORMATION SECTION
#------------------------------------------------------------------------------
 TCDS 1365
 15,12,2008
~CURVE INFORMATION
#MNEMO.UNIT         API CODE              CURVE DESCRIPTION
#------------------------------------------------------------------------------
 DEPTH.M                                 :   0     Depth
 COND.uS/cm                              :   1     Conductivity@25DegC
 COND.uS/cm                              :   2     Absolute Conductivity
 TEMP.DegC                               :   3     Temperature
 DELT.DegC                               :   4     Delta T
 DELC.uS/cm                              :   5     Delta C
 NGAM.CPS                                :   6     Natural Gamma
#------------------------------------------------------------------------------
~A  DEPTH          COND          COND          TEMP          DELT          DELC          NGAM
# ...
    64.56       1366.77       1021.76         12.38          0.07         23.98          0.00
    64.57       1366.78       1021.76         12.38          0.07         24.11          0.00
    64.58       1370.05       1024.20         12.38          0.07         23.62          0.00
    64.59       1370.03       1024.20         12.38          0.07         23.71          0.00
    64.60       1370.03       1024.20         12.38          0.06         24.88          0.29
    64.61       1370.03       1024.20         12.38          0.06         27.72          0.29
    64.62       1373.82       1027.04         12.38          0.06         28.36          0.29
    64.63       1370.56       1024.60         12.38          0.05         25.21          0.29
    64.64       1370.06       1024.20         12.38          0.05         24.84          0.65
    64.65       1370.65       1024.60         12.38          0.05         25.51          0.65
    64.66       1374.01       1027.04         12.37          0.04         25.73          0.65
    64.67       1374.08       1027.04         12.37          0.04         25.91          0.65
    64.68       1370.86       1024.60         12.37          0.03         22.79          0.65
    64.69       1370.86       1024.60         12.37          0.03         22.96          0.65
    64.70       1370.86       1024.60         12.37          0.02         23.04          0.65
    64.71       1370.83       1024.60         12.37          0.02         23.15          0.65
    64.72       1370.78       1024.60         12.37          0.02         20.00          0.65
    64.73       1368.08       1022.57         12.37          0.02         21.73          0.65
    64.74       1371.36       1025.01         12.37          0.01         25.12          0.65
    64.75       1370.78       1024.60         12.37          0.01         21.35          0.65
    64.76       1370.72       1024.60         12.37          0.01         20.23          0.65
    64.77       1370.62       1024.60         12.38          0.01         20.70          0.35
    64.78       1370.57       1024.60         12.38          0.01         19.58          0.35
    64.79       1373.29       1026.64         12.38          0.01         22.30          0.35
    64.80       1370.09       1024.20         12.38          0.01         19.11          0.35
    64.81       1370.16       1024.20         12.38          0.01         19.24          0.00
    64.82       1370.25       1024.20         12.37          0.01         15.50          0.00
    64.83       1369.79       1023.79         12.37          0.01         18.28          0.00
    64.84       1373.10       1026.23         12.37          0.00         20.51          0.00
    64.85       1373.13       1026.23         12.37          0.00         16.72          0.00
    64.86       1373.69       1026.64         12.37          0.00         20.61          0.00
    64.87       1372.64       1025.82         12.37         -0.00         16.93          0.00
    64.88       1372.69       1025.82         12.37         -0.01         19.79          0.00
    64.89       1372.65       1025.82         12.37         -0.01         17.13          0.00
    64.90       1376.95       1029.08         12.37         -0.01         21.49          0.00
    64.91       1378.45       1030.30         12.37         -0.00         25.73          0.00
    64.92       1378.29       1030.30         12.38          0.00         22.82          0.00
    64.93       1378.09       1030.30         12.38          0.01         25.36          0.00
    64.94       1378.00       1030.30         12.38          0.01         22.00          0.00
    64.95       1377.95       1030.30         12.39          0.01         23.08          0.00
    64.96       1377.88       1030.30         12.39          0.01         22.55          0.00
    64.97       1377.87       1030.30         12.39          0.01         22.54          0.00
    64.98       1378.36       1030.71         12.39          0.01         22.50          0.00
    64.99       1378.33       1030.71         12.39          0.01         23.56          0.00
    65.00       1378.41       1030.71         12.39          0.01         23.06          0.00
    65.01       1374.17       1027.45         12.38          0.01         18.82          0.00
    65.02       1375.93       1028.67         12.38          0.00         17.85          0.00
    65.03       1372.81       1026.23         12.38         -0.00         14.23          0.00
    65.04       1372.99       1026.23         12.37         -0.01         14.43          0.00
    65.05       1373.04       1026.23         12.37         -0.01         14.99          0.00
    65.06       1373.02       1026.23         12.37         -0.01         13.80          0.00
    65.07       1373.04       1026.23         12.37         -0.00         13.66          0.35
    65.08       1372.44       1025.82         12.37          0.00         14.03          0.35
    65.09       1372.97       1026.23         12.37          0.01         14.48          0.35
    65.10       1372.97       1026.23         12.37          0.01         13.32          0.35
    65.11       1372.96       1026.23         12.37          0.01         13.80          0.35
    65.12       1373.42       1026.64         12.38          0.01         10.99          0.35
    65.13       1373.39       1026.64         12.38          0.01         13.66          0.35
    65.14       1376.07       1028.67         12.38          0.01         16.31          0.35
    65.15       1375.99       1028.67         12.38          0.02         13.53          0.35
    65.16       1376.54       1029.08         12.38          0.01         16.86          0.35
    65.17       1376.52       1029.08         12.38          0.01         13.64          0.35
    65.18       1376.49       1029.08         12.38          0.01         18.10          0.35
    65.19       1377.03       1029.48         12.38          0.01         14.43          0.35
    65.20       1376.49       1029.08         12.38          0.01         13.93          0.35
    65.21       1376.49       1029.08         12.38          0.00         13.99          0.35
    65.22       1376.47       1029.08         12.38          0.00         13.50          0.35
    65.23       1375.96       1028.67         12.38          0.00         16.28          0.35
    65.24       1375.93       1028.67         12.38          0.00         13.05          0.00
    65.25       1376.42       1029.08         12.38          0.00         13.59          0.00
    65.26       1376.39       1029.08         12.38          0.00         16.26          0.00
    65.27       1376.29       1029.08         12.39          0.01         12.85          0.00
    65.28       1375.69       1028.67         12.39          0.01         15.46          0.00
    65.29       1375.65       1028.67         12.39          0.01         10.98          0.00
    65.30       1375.67       1028.67         12.39          0.01         11.46          0.00
    65.31       1376.26       1029.08         12.39          0.01         12.01          0.00
    65.32       1375.73       1028.67         12.39          0.01         11.43          0.00
    65.33       1375.73       1028.67         12.39          0.02         11.38          0.00
    65.34       1376.25       1029.08         12.39          0.02          9.18          0.00
    65.35       1376.26       1029.08         12.39          0.02         12.46          0.00
    65.36       1375.77       1028.67         12.39          0.01         11.96          0.00
    65.37       1375.81       1028.67         12.38          0.01         12.02          0.00
    65.38       1375.88       1028.67         12.38          0.01         12.09          0.41
    65.39       1375.90       1028.67         12.38          0.01          8.84          0.41
    65.40       1375.86       1028.67         12.38          0.01         12.11          0.41
    65.41       1375.80       1028.67         12.38          0.01         11.58          0.41
