#Written by Robertson Geologging WinLogger V1.5/410
~VERSION INFORMATION
#------------------------------------------------------------------------------
 VERS. 2.0 : CWLS LOG ASCII STANDARD - VERSION 2.0
 WRAP. NO  : ONE LINE PER DEPTH STEP
~WELL INFORMATION
#MNEM.UNIT         DATA                                DESCRIPTION OF MNEMONIC
#------------------------------------------------------------------------------
 STRT.M          0.0600                            :   START DEPTH
 STOP.M        195.0000                            :   STOP DEPTH
 STEP.M          0.0100                            :   STEP VALUE
 NULL.        -999.2500                            :   NULL VALUE
 COMP.    Coal Authority                           :   COMPANY NAME
 WELL.    Thrislington Shaft                       :   WELL NAME
 FLD.     N/A                                      :   FIELD NAME
 LOC.     N/A                                      :   LOCATION
 PROV.    N/A                                      :   PROVINCE
 SRVC.    N/A                                      :   SERVICE COMPANY NAME
 DATE.    15 Dec 08                                :   DATE
 UWI.     N/A                                      :   UNIQUE WELL IDENTIFIER
~PARAMETER INFORMATION
#MNEMO.UNIT         VALUE                 DESCRIPTION OF MNEMONIC
#------------------------------------------------------------------------------
~OTHER INFORMATION SECTION
#------------------------------------------------------------------------------
 TCDS 1365
 15,12,2008
~CURVE INFORMATION
#MNEMO.UNIT         API CODE              CURVE DESCRIPTION
#------------------------------------------------------------------------------
 DEPTH.M                                 :   0     Depth
 COND.uS/cm                              :   1     Conductivity@25DegC
 COND.uS/cm                              :   2     Absolute Conductivity
 TEMP.DegC                               :   3     Temperature
 DELT.DegC                               :   4     Delta T
 DELC.uS/cm                              :   5     Delta C
 NGAM.CPS                                :   6     Natural Gamma
#------------------------------------------------------------------------------
~A  DEPTH          COND          COND          TEMP          DELT          DELC          NGAM
# ...
    12.96        359.59        221.37          5.78          0.07         -2.10         83.24
    12.97        359.01        220.98          5.78          0.07         -2.68         80.94
    12.98        359.07        220.98          5.77          0.06         -3.24         82.82
    12.99        359.12        220.98          5.77          0.05         -3.15         83.06
    13.00        362.33        222.92          5.76          0.05         -0.53         82.59
    13.01        357.95        220.20          5.76          0.04         -4.89         84.41
    13.02        361.13        222.14          5.76          0.03         -1.67         83.71
    13.03        356.70        219.42          5.76          0.03         -6.05         88.35
    13.04        359.84        221.37          5.76          0.03         -2.86         84.53
    13.05        359.81        221.37          5.76          0.02          0.36         86.00
    13.06        362.95        223.31          5.76          0.02         -0.21         87.12
    13.07        362.93        223.31          5.77          0.01          2.99         89.76
    13.08        362.90        223.31          5.77          0.01         -0.12         90.53
    13.09        362.23        222.92          5.77          0.01          3.06         93.06
    13.10        362.20        222.92          5.77          0.01         -1.35         99.71
    13.11        362.18        222.92          5.77          0.00          2.48        100.53
    13.12        362.81        223.31          5.78          0.00         -1.28        101.47
    13.13        362.18        222.92          5.77         -0.00          1.93        101.35
    13.14        362.82        223.31          5.77         -0.01         -1.19        102.82
    13.15        362.84        223.31          5.77         -0.01          2.05        100.35
    13.16        362.84        223.31          5.77         -0.02          2.09        102.53
    13.17        363.48        223.70          5.77         -0.02          2.75        102.59
    13.18        359.05        220.98          5.77         -0.02         -1.61        100.71
    13.19        363.46        223.70          5.77         -0.03          2.83         99.06
    13.20        360.29        221.75          5.77         -0.03         -0.30         96.12
    13.21        360.26        221.75          5.78         -0.03         -0.29         99.53
    13.22        357.06        219.81          5.78         -0.03         -3.46        101.12
    13.23        360.81        222.14          5.78         -0.03          0.96        100.76
    13.24        361.41        222.53          5.79         -0.03          0.98         96.29
    13.25        362.02        222.92          5.79         -0.03          2.27         93.71
    13.26        359.44        221.37          5.79         -0.03         -0.27         91.88
    13.27        359.41        221.37          5.80         -0.03         -4.05         88.18
    13.28        356.82        219.81          5.80         -0.03         -4.10         90.18
    13.29        363.72        224.09          5.81         -0.02          2.81         88.94
    13.30        360.52        222.14          5.81         -0.02         -1.01         88.47
    13.31        361.14        222.53          5.81         -0.02         -0.38         90.29
    13.32        362.40        223.31          5.81         -0.02          1.52         89.82
    13.33        364.28        224.48          5.81         -0.02          3.43         86.65
    13.34        359.85        221.75          5.81         -0.02         -0.99         85.59
    13.35        359.83        221.75          5.81         -0.02         -0.38         85.53
    13.36        359.19        221.37          5.81         -0.02         -1.04         83.24
    13.37        362.34        223.31          5.82         -0.02         -1.04         80.94
    13.38        361.70        222.92          5.82         -0.02          2.11         79.24
    13.39        364.26        224.48          5.81         -0.02          2.13         78.24
    13.40        357.94        220.59          5.81         -0.02         -3.57         77.35
    13.41        360.49        222.14          5.81         -0.02         -0.40         79.06
    13.42        359.85        221.75          5.81         -0.02         -1.06         80.59
    13.43        358.60        220.98          5.81         -0.02         -2.95         80.65
    13.44        358.00        220.59          5.81         -0.02         -2.93         80.82
    13.45        359.93        221.75          5.81         -0.02         -1.64         80.82
    13.46        357.42        220.20          5.80         -0.02         -4.77         82.82
    13.47        358.68        220.97          5.80         -0.02         -3.52         82.35
    13.48        354.89        218.64          5.80         -0.02         -4.17         81.06
    13.49        355.51        219.03          5.81         -0.02         -7.35         81.94
    13.50        353.62        217.86          5.80         -0.02         -6.10         82.82
    13.51        355.53        219.03          5.80         -0.02         -7.98         81.76
    13.52        354.92        218.64          5.80         -0.02         -5.44         83.18
    13.53        356.19        219.42          5.80         -0.02         -4.16         84.18
    13.54        359.98        221.75          5.80         -0.02          0.24         85.18
    13.55        358.71        220.97          5.80         -0.02         -1.67         83.00
    13.56        357.44        220.20          5.80         -0.02         -2.31         80.82
    13.57        356.20        219.42          5.80         -0.02         -3.56         80.00
    13.58        354.97        218.64          5.80         -0.02         -5.40         80.00
    13.59        357.54        220.20          5.79         -0.03         -2.21         79.71
    13.60        358.84        220.97          5.79         -0.03         -0.91         79.41
    13.61        358.22        220.58          5.79         -0.03         -1.55         79.00
    13.62        359.49        221.36          5.79         -0.03         -0.29         79.12
    13.63        358.22        220.59          5.79         -0.03         -1.57         78.65
    13.64        358.23        220.59          5.79         -0.03         -5.37         79.53
    13.65        355.71        219.03          5.79         -0.03         -4.74         76.59
    13.66        360.76        222.14          5.79         -0.02         -3.51         74.71
    13.67        361.98        222.92          5.79         -0.02          0.85         74.00
    13.68        363.20        223.70          5.80         -0.01          2.05         74.47
    13.69        364.41        224.47          5.80         -0.01          3.87         71.29
    13.70        363.08        223.70          5.81          0.00          1.89         74.24
    13.71        363.03        223.70          5.81          0.01          1.82         77.18
    13.72        363.01        223.70          5.81          0.01          1.14         77.53
    13.73        363.03        223.70          5.81          0.01          4.28         77.88
    13.74        364.94        224.86          5.81          0.01          2.37         79.94
    13.75        366.21        225.64          5.81          0.01          7.42         80.47
    13.76        367.49        226.42          5.81          0.01          4.89         81.06
    13.77        364.35        224.47          5.80          0.01          5.52         79.82
    13.78        366.91        226.03          5.80          0.01          4.88         81.88
    13.79        366.31        225.64          5.80          0.02          4.86         83.29
    13.80        367.61        226.42          5.80          0.02          5.49         81.53
    13.81        368.92        227.20          5.79          0.01          7.42         82.12
