#Written by Robertson Geologging WinLogger V1.0/406
~VERSION INFORMATION
#------------------------------------------------------------------------------
 VERS. 2.0 : CWLS LOG ASCII STANDARD - VERSION 2.0
 WRAP. NO  : ONE LINE PER DEPTH STEP
~WELL INFORMATION
#MNEM.UNIT         DATA                                DESCRIPTION OF MNEMONIC
#------------------------------------------------------------------------------
 STRT.M         42.0600                            :   START DEPTH
 STOP.M        195.0000                            :   STOP DEPTH
 STEP.M          0.0100                            :   STEP VALUE
 NULL.        -999.2500                            :   NULL VALUE
 COMP.    I.W.S.                                   :   COMPANY NAME
 WELL.    Thrislington                             :   WELL NAME
 FLD.     Thrislington                             :   FIELD NAME
 LOC.     N/A                                      :   LOCATION
 PROV.    N/A                                      :   PROVINCE
 SRVC.    N/A                                      :   SERVICE COMPANY NAME
 DATE.    21 Jul 09                                :   DATE
 UWI.     N/A                                      :   UNIQUE WELL IDENTIFIER
~PARAMETER INFORMATION
#MNEMO.UNIT         VALUE                 DESCRIPTION OF MNEMONIC
#------------------------------------------------------------------------------
~OTHER INFORMATION SECTION
#------------------------------------------------------------------------------
 TCGS 1365
~CURVE INFORMATION
#MNEMO.UNIT         API CODE              CURVE DESCRIPTION
#------------------------------------------------------------------------------
 DEPTH.M                                 :   0     Depth
 TEMP.DegC                               :   1     Temperature
 CN25.uS/cm                              :   2     Conductivity@25DegC
 DELT.DegC                               :   3     Delta T
 DELC.uS/cm                              :   4     Delta C
 NGAM.CPS                                :   5     Natural Gamma
 COND.uS/cm                              :   6     Conductivity
#------------------------------------------------------------------------------
~A  DEPTH     TEMP      CN25      DELT      DELC      NGAM      COND      
# ...
   162.97     12.26   1303.98      0.03     14.65      7.00    967.35 
   162.98     12.26   1297.95      0.03     -1.03      0.00    962.85 
   162.99     12.26   1288.31      0.02    -16.54      0.00    955.66 
   163.00     12.26   1304.16      0.01     15.34      7.00    967.35 
   163.01     12.25   1288.82      0.00    -15.68      0.00    955.66 
   163.02     12.26   1297.95      0.02      8.96      0.00    962.85 
   163.03     12.26   1295.71      0.01     -8.96      0.00    961.05 
   163.04     12.26   1297.95      0.03      8.45      0.00    962.85 
   163.05     12.26   1297.95      0.02     -0.86      0.00    962.85 
   163.06     12.25   1295.89      0.01     -0.34      0.00    961.05 
   163.07     12.26   1298.13      0.01     -0.34      0.00    962.85 
   163.08     12.25   1295.89     -0.00      0.17      0.00    961.05 
   163.09     12.25   1298.30      0.01     -0.52      0.00    962.85 
   163.10     12.26   1297.95      0.02     -0.69      8.00    962.85 
   163.11     12.25   1295.89      0.01     -0.52      0.00    961.05 
   163.12     12.25   1298.30      0.01     -0.52      0.00    962.85 
   163.13     12.26   1298.13      0.00     -0.17      0.00    962.85 
   163.14     12.24   1296.57     -0.01      0.52      7.00    961.05 
   163.15     12.25   1298.64     -0.00      0.17      0.00    962.85 
   163.16     12.25   1298.47     -0.00      0.17      0.00    962.85 
   163.17     12.25   1296.23      0.00     -0.17      0.00    961.05 
   163.18     12.25   1298.30      0.02     -0.86      8.00    962.85 
   163.19     12.25   1295.89      0.02     -3.27      7.00    961.05 
   163.20     12.24   1298.81      0.01     -0.52      0.00    962.85 
   163.21     12.25   1298.64      0.01      2.07      0.00    962.85 
   163.22     12.24   1296.40     -0.00     -2.24      7.00    961.05 
   163.23     12.25   1298.64     -0.00      0.17      0.00    962.85 
   163.24     12.25   1296.23     -0.01      0.34      0.00    961.05 
   163.25     12.25   1298.64     -0.02      0.69      0.00    962.85 
   163.26     12.26   1298.13     -0.00      0.17      0.00    962.85 
   163.27     12.25   1295.89     -0.02      7.92      0.00    961.05 
   163.28     12.26   1298.13     -0.01     -5.51      0.00    962.85 
   163.29     12.25   1295.89     -0.00      7.41      0.00    961.05 
   163.30     12.25   1298.30     -0.00      0.17      8.00    962.85 
   163.31     12.25   1298.47     -0.00      0.17      0.00    962.85 
   163.32     12.24   1296.40     -0.00      0.17      0.00    961.05 
   163.33     12.25   1298.64     -0.00      0.17      8.00    962.85 
   163.34     12.25   1298.47     -0.01      0.34      0.00    962.85 
   163.35     12.25   1296.06      0.00      0.00      0.00    961.05 
   163.36     12.25   1298.30      0.00      0.00      0.00    962.85 
   163.37     12.25   1298.30     -0.01      0.34      0.00    962.85 
   163.38     12.25   1295.89      0.00      0.00      0.00    961.05 
   163.39     12.25   1298.30     -0.00      0.17      0.00    962.85 
   163.40     12.25   1288.65      0.00     -9.65      0.00    955.66 
   163.41     12.25   1298.30      0.01      1.90      8.00    962.85 
   163.42     12.25   1304.50      0.00      5.86      0.00    967.35 
   163.43     12.25   1288.99      0.00     -7.24      0.00    955.66 
   163.44     12.25   1298.47      0.01     -0.34      0.00    962.85 
   163.45     12.25   1298.47      0.00      0.00      0.00    962.85 
   163.46     12.25   1295.89      0.01     -0.34      0.00    961.05 
   163.47     12.25   1298.30      0.01     -0.34      0.00    962.85 
   163.48     12.25   1298.30      0.00      2.41      0.00    962.85 
   163.49     12.25   1296.23     -0.02     -1.72      0.00    961.05 
   163.50     12.25   1298.64     -0.02      0.86      0.00    962.85 
   163.51     12.25   1298.47     -0.01      2.93      0.00    962.85 
   163.52     12.25   1295.89     -0.00     -2.24      0.00    961.05 
   163.53     12.25   1298.30      0.01      2.07      0.00    962.85 
   163.54     12.26   1298.13      0.01     -0.52      8.00    962.85 
   163.55     12.26   1295.71      0.01     -0.52      0.00    961.05 
   163.56     12.26   1298.13      0.01     -0.34     16.00    962.85 
   163.57     12.26   1288.31      0.01     -9.99      0.00    955.66 
   163.58     12.25   1304.33     -0.00      8.62      0.00    967.35 
   163.59     12.25   1298.30     -0.01      0.52      0.00    962.85 
   163.60     12.25   1296.23     -0.02      0.69      0.00    961.05 
   163.61     12.25   1298.64     -0.01      0.52      8.00    962.85 
   163.62     12.25   1296.06      0.00     -0.17      0.00    961.05 
   163.63     12.25   1298.47      0.00     -0.17      0.00    962.85 
   163.64     12.26   1288.31      0.01     -7.75      0.00    955.66 
   163.65     12.26   1303.98      0.01      5.69      0.00    967.35 
   163.66     12.26   1288.31      0.00     -7.24      0.00    955.66 
   163.67     12.26   1303.98      0.00      5.86      0.00    967.35 
   163.68     12.26   1298.13      0.00     -0.17      0.00    962.85 
   163.69     12.26   1295.71      0.00     -0.17      0.00    961.05 
   163.70     12.26   1298.13      0.00     -0.17      0.00    962.85 
   163.71     12.25   1295.89      0.01     -0.34      0.00    961.05 
   163.72     12.25   1298.30      0.00     -0.17      0.00    962.85 
   163.73     12.25   1296.06      0.00     -0.17      0.00    961.05 
   163.74     12.24   1298.81      0.00     -0.17      0.00    962.85 
   163.75     12.25   1288.82      0.00     -7.24      0.00    955.66 
   163.76     12.25   1304.68      0.00      6.03      0.00    967.35 
   163.77     12.25   1288.82     -0.01     -9.31      8.00    955.66 
   163.78     12.26   1304.16      0.00      8.27      0.00    967.35 
   163.79     12.25   1288.65      0.00     -9.82      0.00    955.66 
   163.80     12.25   1304.50      0.00      8.27      0.00    967.35 
   163.81     12.26   1288.48      0.02    -10.51      0.00    955.66 
   163.82     12.25   1304.33      0.00      6.03      0.00    967.35 
   163.83     12.25   1288.65      0.00     -7.41      0.00    955.66 
   163.84     12.26   1303.98      0.01      5.69      7.00    967.35 
   163.85     12.25   1288.65      0.00     -7.24      0.00    955.66 
   163.86     12.26   1297.95      0.02     -0.69      0.00    962.85 
   163.87     12.26   1295.71      0.01     -2.76      0.00    961.05 
   163.88     12.26   1297.95      0.01      1.90      0.00    962.85 
   163.89     12.26   1295.71      0.01     -2.76      0.00    961.05 
   163.90     12.25   1298.30      0.00     -0.17      0.00    962.85 
   163.91     12.25   1295.89      0.01     -0.52      0.00    961.05 
   163.92     12.25   1298.64      0.00     -0.17      8.00    962.85 
   163.93     12.25   1298.47      0.01      2.07      0.00    962.85 
   163.94     12.25   1296.23      0.00     -2.41      0.00    961.05 
   163.95     12.25   1298.64     -0.01     10.17      0.00    962.85 
   163.96     12.24   1296.40     -0.02     -7.58      0.00    961.05 
   163.97     12.23   1299.16     -0.03      1.21      0.00    962.85 
   163.98     12.24   1296.40     -0.02      8.09      0.00    961.05 
   163.99     12.24   1298.81     -0.02     -5.34      0.00    962.85 
   164.00     12.25   1298.64     -0.00      9.82      0.00    962.85 
   164.01     12.25   1295.89     -0.01     -2.07      0.00    961.05 
   164.02     12.26   1298.13      0.00      2.41      0.00    962.85 
   164.03     12.25   1295.89     -0.01     -2.07      0.00    961.05 
   164.04     12.25   1298.64     -0.02      0.69      0.00    962.85 
   164.05     12.24   1298.81     -0.01      2.93      0.00    962.85 
   164.06     12.24   1296.57     -0.02     -1.55      7.00    961.05 
   164.07     12.25   1298.64     -0.01      2.76      0.00    962.85 
   164.08     12.25   1296.06     -0.00     -2.24      0.00    961.05 
   164.09     12.25   1298.64     -0.02      0.69      0.00    962.85 
