#Written by Robertson Geologging WinLogger V1.0/406
~VERSION INFORMATION
#------------------------------------------------------------------------------
 VERS. 2.0 : CWLS LOG ASCII STANDARD - VERSION 2.0
 WRAP. NO  : ONE LINE PER DEPTH STEP
~WELL INFORMATION
#MNEM.UNIT         DATA                                DESCRIPTION OF MNEMONIC
#------------------------------------------------------------------------------
 STRT.M         42.0600                            :   START DEPTH
 STOP.M        195.0000                            :   STOP DEPTH
 STEP.M          0.0100                            :   STEP VALUE
 NULL.        -999.2500                            :   NULL VALUE
 COMP.    I.W.S.                                   :   COMPANY NAME
 WELL.    Thrislington                             :   WELL NAME
 FLD.     Thrislington                             :   FIELD NAME
 LOC.     N/A                                      :   LOCATION
 PROV.    N/A                                      :   PROVINCE
 SRVC.    N/A                                      :   SERVICE COMPANY NAME
 DATE.    21 Jul 09                                :   DATE
 UWI.     N/A                                      :   UNIQUE WELL IDENTIFIER
~PARAMETER INFORMATION
#MNEMO.UNIT         VALUE                 DESCRIPTION OF MNEMONIC
#------------------------------------------------------------------------------
~OTHER INFORMATION SECTION
#------------------------------------------------------------------------------
 TCGS 1365
~CURVE INFORMATION
#MNEMO.UNIT         API CODE              CURVE DESCRIPTION
#------------------------------------------------------------------------------
 DEPTH.M                                 :   0     Depth
 TEMP.DegC                               :   1     Temperature
 CN25.uS/cm                              :   2     Conductivity@25DegC
 DELT.DegC                               :   3     Delta T
 DELC.uS/cm                              :   4     Delta C
 NGAM.CPS                                :   5     Natural Gamma
 COND.uS/cm                              :   6     Conductivity
#------------------------------------------------------------------------------
~A  DEPTH     TEMP      CN25      DELT      DELC      NGAM      COND      
# ...
   142.63     12.25   1296.06      0.01     -0.34      0.00    961.05 
   142.64     12.25   1298.64      0.00      0.00      0.00    962.85 
   142.65     12.25   1296.23      0.00      7.24      0.00    961.05 
   142.66     12.24   1298.99     -0.02     -5.34      0.00    962.85 
   142.67     12.24   1298.81     -0.02     10.51      0.00    962.85 
   142.68     12.24   1296.40     -0.03     -7.41      0.00    961.05 
   142.69     12.25   1298.64     -0.02     10.51      0.00    962.85 
   142.70     12.25   1295.89     -0.01     -2.07      0.00    961.05 
   142.71     12.25   1298.30      0.00      2.41      0.00    962.85 
   142.72     12.25   1296.06      0.00     -2.41      0.00    961.05 
   142.73     12.25   1298.64     -0.01      0.34      0.00    962.85 
   142.74     12.25   1296.06      0.00      0.00      0.00    961.05 
   142.75     12.24   1298.81     -0.01      0.34      0.00    962.85 
   142.76     12.24   1298.81     -0.00      0.17      0.00    962.85 
   142.77     12.24   1296.40     -0.00      0.17      0.00    961.05 
   142.78     12.24   1298.99     -0.01      0.52      8.00    962.85 
   142.79     12.24   1296.40     -0.00      0.17      0.00    961.05 
   142.80     12.24   1298.81      0.00      0.00      0.00    962.85 
   142.81     12.25   1298.64      0.01      2.07      0.00    962.85 
   142.82     12.25   1296.23      0.01     -2.93      0.00    961.05 
   142.83     12.25   1298.30      0.01     -0.34      0.00    962.85 
   142.84     12.25   1298.30      0.00      2.24      0.00    962.85 
   142.85     12.25   1295.89     -0.00     -2.24      0.00    961.05 
   142.86     12.25   1298.47     -0.01      2.93      0.00    962.85 
   142.87     12.25   1288.82     -0.01     -9.14      0.00    955.66 
   142.88     12.25   1304.50     -0.01      8.79      0.00    967.35 
   142.89     12.25   1288.65      0.00     -9.82      8.00    955.66 
   142.90     12.26   1298.13      0.00      2.24      8.00    962.85 
   142.91     12.25   1296.23     -0.01     -2.07      0.00    961.05 
   142.92     12.25   1298.47     -0.02      0.69      0.00    962.85 
   142.93     12.24   1298.99     -0.03      3.45      0.00    962.85 
   142.94     12.23   1296.75     -0.04     -1.04      0.00    961.05 
   142.95     12.24   1298.81     -0.03      3.44      0.00    962.85 
   142.96     12.25   1298.64     -0.01      0.52      0.00    962.85 
   142.97     12.25   1295.89     -0.01      0.34      0.00    961.05 
   142.98     12.25   1298.30      0.00      0.00      0.00    962.85 
   142.99     12.25   1295.89      0.01     -0.34      0.00    961.05 
   143.00     12.24   1298.81      0.00      0.00      0.00    962.85 
   143.01     12.24   1298.81     -0.01      2.76      0.00    962.85 
   143.02     12.24   1296.40     -0.01     -2.07      0.00    961.05 
   143.03     12.24   1298.99     -0.01     10.17      0.00    962.85 
   143.04     12.25   1296.23     -0.01     -8.10      0.00    961.05 
   143.05     12.25   1298.64      0.00      9.65      0.00    962.85 
   143.06     12.25   1296.06      0.00     -8.45      0.00    961.05 
   143.07     12.25   1298.64     -0.00      9.82      0.00    962.85 
   143.08     12.24   1298.81     -0.00     -5.86      0.00    962.85 
   143.09     12.24   1296.40      0.00      7.07      0.00    961.05 
   143.10     12.24   1298.81      0.00      0.00      0.00    962.85 
   143.11     12.25   1296.23      0.01     -0.34      0.00    961.05 
   143.12     12.25   1298.64      0.00     -0.17      0.00    962.85 
   143.13     12.25   1298.30      0.00      2.24      0.00    962.85 
   143.14     12.25   1296.06     -0.00     -2.24      0.00    961.05 
   143.15     12.26   1298.13      0.00      2.41      0.00    962.85 
   143.16     12.26   1295.71      0.00     -2.58      0.00    961.05 
   143.17     12.25   1298.64     -0.01      2.93      0.00    962.85 
   143.18     12.25   1295.89      0.00     -2.58      0.00    961.05 
   143.19     12.25   1298.47     -0.01      0.34      8.00    962.85 
   143.20     12.25   1288.99     -0.01     -6.90      0.00    955.66 
   143.21     12.25   1304.68     -0.00      6.21      0.00    967.35 
   143.22     12.24   1289.33     -0.02     -8.97      0.00    955.66 
   143.23     12.24   1305.02     -0.01      8.96      0.00    967.35 
   143.24     12.24   1289.33     -0.02      0.68      8.00    955.66 
   143.25     12.25   1298.64     -0.00      2.59      0.00    962.85 
   143.26     12.25   1296.23      0.00     -2.59      7.00    961.05 
   143.27     12.24   1298.99     -0.01      0.52      8.00    962.85 
   143.28     12.24   1296.40      0.00      0.00      0.00    961.05 
   143.29     12.23   1299.16     -0.01      0.34      0.00    962.85 
   143.30     12.24   1298.81     -0.00      2.59      8.00    962.85 
   143.31     12.24   1296.40      0.00     -2.59      0.00    961.05 
   143.32     12.25   1298.64      0.00     -0.17      0.00    962.85 
   143.33     12.25   1298.30      0.01      9.31      0.00    962.85 
   143.34     12.25   1296.06      0.01     -8.96      0.00    961.05 
   143.35     12.26   1298.13      0.02     -0.69      0.00    962.85 
   143.36     12.25   1295.89      0.01      6.72      0.00    961.05 
   143.37     12.25   1298.64      0.00     -6.03      0.00    962.85 
   143.38     12.25   1298.47     -0.00      9.82      0.00    962.85 
   143.39     12.24   1296.57     -0.02     -1.72      0.00    961.05 
   143.40     12.25   1298.64     -0.00      2.59      8.00    962.85 
   143.41     12.26   1295.71      0.00     -2.41      0.00    961.05 
   143.42     12.25   1298.30      0.00      0.00      0.00    962.85 
   143.43     12.28   1297.44      0.03      1.21      0.00    962.85 
   143.44     12.27   1295.37      0.02     -3.27      7.00    961.05 
   143.45     12.26   1297.95      0.03     -1.03      0.00    962.85 
   143.46     12.26   1298.13      0.02      1.72      0.00    962.85 
   143.47     12.24   1296.40      0.00     -2.41      0.00    961.05 
   143.48     12.24   1298.81     -0.01      0.34      0.00    962.85 
   143.49     12.25   1296.23     -0.00      0.17      0.00    961.05 
   143.50     12.24   1298.81     -0.00      0.17      0.00    962.85 
   143.51     12.25   1288.99     -0.00     -9.48      0.00    955.66 
   143.52     12.25   1304.50      0.00      8.27      0.00    967.35 
   143.53     12.25   1288.99      0.00     -9.65      0.00    955.66 
   143.54     12.25   1298.30      0.00      9.48      0.00    962.85 
   143.55     12.25   1295.89      0.00     -8.62      0.00    961.05 
   143.56     12.25   1298.47      0.00      9.48      0.00    962.85 
   143.57     12.25   1295.89      0.01     -8.79      0.00    961.05 
   143.58     12.25   1298.64     -0.00      9.82      0.00    962.85 
   143.59     12.25   1298.47     -0.00      0.17      0.00    962.85 
   143.60     12.25   1295.89      0.00      0.00      7.00    961.05 
   143.61     12.25   1298.47     -0.00      0.17      0.00    962.85 
   143.62     12.26   1298.13      0.01      2.07      0.00    962.85 
   143.63     12.26   1295.54      0.02     -3.10      0.00    961.05 
   143.64     12.25   1298.30      0.01      2.07      0.00    962.85 
   143.65     12.26   1295.71      0.02     -3.27      0.00    961.05 
   143.66     12.25   1298.47      0.01     -0.34      0.00    962.85 
   143.67     12.25   1298.47      0.01      2.07      0.00    962.85 
   143.68     12.26   1295.71      0.01     -2.93      0.00    961.05 
   143.69     12.25   1298.47     -0.00      2.58      0.00    962.85 
   143.70     12.26   1298.13      0.00     -0.17      0.00    962.85 
   143.71     12.26   1295.54      0.01     -0.52      0.00    961.05 
   143.72     12.25   1298.30      0.01     -0.34      0.00    962.85 
   143.73     12.26   1295.71      0.01     -0.34      0.00    961.05 
   143.74     12.25   1298.30      0.01     -0.52      0.00    962.85 
   143.75     12.25   1298.47      0.01     -0.34      8.00    962.85 
