#Written by Robertson Geologging WinLogger V1.0/406
~VERSION INFORMATION
#------------------------------------------------------------------------------
 VERS. 2.0 : CWLS LOG ASCII STANDARD - VERSION 2.0
 WRAP. NO  : ONE LINE PER DEPTH STEP
~WELL INFORMATION
#MNEM.UNIT         DATA                                DESCRIPTION OF MNEMONIC
#------------------------------------------------------------------------------
 STRT.M         42.0600                            :   START DEPTH
 STOP.M        195.0000                            :   STOP DEPTH
 STEP.M          0.0100                            :   STEP VALUE
 NULL.        -999.2500                            :   NULL VALUE
 COMP.    I.W.S.                                   :   COMPANY NAME
 WELL.    Thrislington                             :   WELL NAME
 FLD.     Thrislington                             :   FIELD NAME
 LOC.     N/A                                      :   LOCATION
 PROV.    N/A                                      :   PROVINCE
 SRVC.    N/A                                      :   SERVICE COMPANY NAME
 DATE.    21 Jul 09                                :   DATE
 UWI.     N/A                                      :   UNIQUE WELL IDENTIFIER
~PARAMETER INFORMATION
#MNEMO.UNIT         VALUE                 DESCRIPTION OF MNEMONIC
#------------------------------------------------------------------------------
~OTHER INFORMATION SECTION
#------------------------------------------------------------------------------
 TCGS 1365
~CURVE INFORMATION
#MNEMO.UNIT         API CODE              CURVE DESCRIPTION
#------------------------------------------------------------------------------
 DEPTH.M                                 :   0     Depth
 TEMP.DegC                               :   1     Temperature
 CN25.uS/cm                              :   2     Conductivity@25DegC
 DELT.DegC                               :   3     Delta T
 DELC.uS/cm                              :   4     Delta C
 NGAM.CPS                                :   5     Natural Gamma
 COND.uS/cm                              :   6     Conductivity
#------------------------------------------------------------------------------
~A  DEPTH     TEMP      CN25      DELT      DELC      NGAM      COND      
# ...
    82.74     12.24   1296.57     -0.01     -1.90      0.00    961.05 
    82.75     12.23   1296.75     -0.01      0.34      0.00    961.05 
    82.76     12.24   1289.16      0.00      1.21      0.00    955.66 
    82.77     12.24   1296.57     -0.00     -2.24      0.00    961.05 
    82.78     12.24   1296.57      0.00     -0.17      0.00    961.05 
    82.79     12.25   1298.64      0.00      2.24      0.00    962.85 
    82.80     12.24   1287.95      0.00     -1.21      0.00    954.76 
    82.81     12.25   1296.23      0.01     -0.34      0.00    961.05 
    82.82     12.25   1296.06      0.02     -0.69      7.00    961.05 
    82.83     12.25   1298.47      0.01      9.14      8.00    962.85 
    82.84     12.25   1287.61      0.01     -8.79      7.00    954.76 
    82.85     12.25   1296.06      0.00     -0.17      0.00    961.05 
    82.86     12.25   1298.64     -0.01      2.76      0.00    962.85 
    82.87     12.24   1296.40     -0.01     -2.07      0.00    961.05 
    82.88     12.23   1296.92     -0.01     17.41      0.00    961.05 
    82.89     12.24   1289.33     -0.00     -7.07      0.00    955.66 
    82.90     12.24   1296.57      0.00     -2.41      0.00    961.05 
    82.91     12.23   1296.75     -0.01      0.34      7.00    961.05 
    82.92     12.24   1298.81     -0.01     10.00      0.00    962.85 
    82.93     12.23   1288.30     -0.01     -7.93      0.00    954.76 
    82.94     12.23   1296.92     -0.02      0.69      0.00    961.05 
    82.95     12.24   1298.81     -0.01      0.34      0.00    962.85 
    82.96     12.24   1296.57     -0.00      8.62      0.00    961.05 
    82.97     12.24   1287.95     -0.00     -8.28      0.00    954.76 
    82.98     12.25   1298.30      0.01     -0.34      0.00    962.85 
    82.99     12.25   1296.23      0.00     -0.17      0.00    961.05 
    83.00     12.24   1296.40      0.00     -0.17      0.00    961.05 
    83.01     12.24   1289.16      0.00     -0.17      0.00    955.66 
    83.02     12.22   1297.26     -0.02      0.69      0.00    961.05 
    83.03     12.22   1297.26     -0.02      0.69      0.00    961.05 
    83.04     12.23   1296.92     -0.01      7.59      0.00    961.05 
    83.05     12.24   1298.99      0.00      2.24      0.00    962.85 
    83.06     12.25   1287.44      0.01    -11.37      0.00    954.76 
    83.07     12.25   1296.06      0.01     -0.34      0.00    961.05 
    83.08     12.25   1298.47      0.01      2.07      0.00    962.85 
    83.09     12.24   1296.40     -0.00      7.41      7.00    961.05 
    83.10     12.24   1289.16      0.01     -7.58      0.00    955.66 
    83.11     12.24   1296.57      0.00     -2.41      0.00    961.05 
    83.12     12.23   1296.92     -0.01      0.34      0.00    961.05 
    83.13     12.22   1297.09     -0.02      7.93      0.00    961.05 
    83.14     12.22   1289.85     -0.02     -6.38      0.00    955.66 
    83.15     12.22   1297.26     -0.03      1.03      0.00    961.05 
    83.16     12.23   1299.33     -0.02     10.34      0.00    962.85 
    83.17     12.22   1297.09     -0.01      0.52      7.00    961.05 
    83.18     12.23   1296.92     -0.00     -2.24      0.00    961.05 
    83.19     12.24   1289.33      0.00     -7.41      0.00    955.66 
    83.20     12.24   1296.57      0.00      7.24      0.00    961.05 
    83.21     12.25   1298.47      0.02      1.73      0.00    962.85 
    83.22     12.25   1287.78      0.01     -8.96      0.00    954.76 
    83.23     12.24   1296.57      0.01     -2.76      0.00    961.05 
    83.24     12.25   1298.64      0.02     10.00      0.00    962.85 
    83.25     12.24   1296.40      0.01     -2.93      0.00    961.05 
    83.26     12.25   1288.99      0.01     -7.76      0.00    955.66 
    83.27     12.25   1296.23      0.00      7.07      0.00    961.05 
    83.28     12.24   1298.81      0.01      2.07      0.00    962.85 
    83.29     12.24   1296.40      0.00     -0.17      0.00    961.05 
    83.30     12.24   1288.13      0.00    -10.86      0.00    954.76 
    83.31     12.24   1298.81      0.01      2.07      0.00    962.85 
    83.32     12.24   1296.40      0.00      7.24      0.00    961.05 
    83.33     12.24   1296.57     -0.00      0.17      0.00    961.05 
    83.34     12.23   1289.50     -0.01     -9.31      0.00    955.66 
    83.35     12.23   1299.33     -0.01     11.21      0.00    962.85 
    83.36     12.23   1296.92     -0.00      0.17      0.00    961.05 
    83.37     12.23   1289.67     -0.00     -9.49      0.00    955.66 
    83.38     12.24   1296.57      0.00      0.00      0.00    961.05 
    83.39     12.24   1298.99     -0.00      9.83      0.00    962.85 
    83.40     12.24   1296.40      0.00      0.00      0.00    961.05 
    83.41     12.25   1287.61      0.01     -8.79      0.00    954.76 
    83.42     12.25   1298.30      0.02     -0.86      0.00    962.85 
    83.43     12.25   1296.23      0.02      7.59      0.00    961.05 
    83.44     12.25   1288.99      0.02    -10.34      0.00    955.66 
    83.45     12.25   1296.23      0.01     -0.34      0.00    961.05 
    83.46     12.24   1298.99     -0.01      2.76      0.00    962.85 
    83.47     12.25   1296.23     -0.01      7.75      0.00    961.05 
    83.48     12.25   1288.99     -0.00     -7.07      0.00    955.66 
    83.49     12.24   1296.40     -0.00     -2.24      0.00    961.05 
    83.50     12.24   1296.40      0.00      0.00      0.00    961.05 
    83.51     12.25   1298.64      0.02     10.18      0.00    962.85 
    83.52     12.24   1296.40      0.00     -2.41      0.00    961.05 
    83.53     12.24   1287.95      0.00     -8.45      0.00    954.76 
    83.54     12.25   1298.47      0.00      2.24      0.00    962.85 
    83.55     12.24   1296.40      0.00      7.24      0.00    961.05 
    83.56     12.25   1288.99      0.01     -7.76      0.00    955.66 
    83.57     12.24   1296.40      0.00     -2.41      0.00    961.05 
    83.58     12.23   1296.75     -0.01      0.34      0.00    961.05 
    83.59     12.25   1298.64     -0.01      9.99      0.00    962.85 
    83.60     12.24   1296.57     -0.02      0.69      0.00    961.05 
    83.61     12.24   1288.13     -0.00     -8.28      0.00    954.76 
    83.62     12.24   1298.81      0.00      9.48      0.00    962.85 
    83.63     12.23   1296.92      0.00     -0.17      0.00    961.05 
    83.64     12.23   1289.50      0.00     -9.66      0.00    955.66 
    83.65     12.23   1296.92     -0.01      0.34      0.00    961.05 
    83.66     12.23   1296.92     -0.02      0.69      0.00    961.05 
    83.67     12.23   1296.75     -0.02      8.10      0.00    961.05 
    83.68     12.24   1298.81     -0.00      2.59      0.00    962.85 
    83.69     12.24   1288.13      0.00    -10.86      0.00    954.76 
    83.70     12.24   1296.57      0.01      8.11      0.00    961.05 
    83.71     12.23   1299.16      0.00      2.41      0.00    962.85 
    83.72     12.22   1297.09     -0.01     -1.90      0.00    961.05 
    83.73     12.23   1296.92     -0.01      0.34      0.00    961.05 
    83.74     12.24   1289.33      0.00     -7.41      0.00    955.66 
    83.75     12.24   1296.40      0.00      7.24      0.00    961.05 
    83.76     12.24   1298.81      0.00      2.24      8.00    962.85 
    83.77     12.24   1287.95      0.00     -8.62      0.00    954.76 
    83.78     12.25   1296.23      0.00     -2.41      7.00    961.05 
    83.79     12.25   1298.64      0.00     10.69      0.00    962.85 
    83.80     12.25   1296.06      0.00     -0.17      7.00    961.05 
    83.81     12.25   1288.65      0.00     -7.41      0.00    955.66 
    83.82     12.25   1296.06      0.00     -2.41      0.00    961.05 
    83.83     12.24   1296.57     -0.01      8.96      0.00    961.05 
    83.84     12.24   1298.81     -0.01      2.76      0.00    962.85 
    83.85     12.25   1287.78      0.00    -10.86      0.00    954.76 
    83.86     12.25   1298.30      0.01      1.90      0.00    962.85 
