#Written by Robertson Geologging WinLogger V1.5/410
~VERSION INFORMATION
#------------------------------------------------------------------------------
 VERS. 2.0 : CWLS LOG ASCII STANDARD - VERSION 2.0
 WRAP. NO  : ONE LINE PER DEPTH STEP
~WELL INFORMATION
#MNEM.UNIT         DATA                                DESCRIPTION OF MNEMONIC
#------------------------------------------------------------------------------
 STRT.M          0.0600                            :   START DEPTH
 STOP.M        195.0000                            :   STOP DEPTH
 STEP.M          0.0100                            :   STEP VALUE
 NULL.        -999.2500                            :   NULL VALUE
 COMP.    Coal Authority                           :   COMPANY NAME
 WELL.    Thrislington Shaft                       :   WELL NAME
 FLD.     N/A                                      :   FIELD NAME
 LOC.     N/A                                      :   LOCATION
 PROV.    N/A                                      :   PROVINCE
 SRVC.    N/A                                      :   SERVICE COMPANY NAME
 DATE.    15 Dec 08                                :   DATE
 UWI.     N/A                                      :   UNIQUE WELL IDENTIFIER
~PARAMETER INFORMATION
#MNEMO.UNIT         VALUE                 DESCRIPTION OF MNEMONIC
#------------------------------------------------------------------------------
~OTHER INFORMATION SECTION
#------------------------------------------------------------------------------
 TCDS 1365
 15,12,2008
~CURVE INFORMATION
#MNEMO.UNIT         API CODE              CURVE DESCRIPTION
#------------------------------------------------------------------------------
 DEPTH.M                                 :   0     Depth
 COND.uS/cm                              :   1     Conductivity@25DegC
 COND.uS/cm                              :   2     Absolute Conductivity
 TEMP.DegC                               :   3     Temperature
 DELT.DegC                               :   4     Delta T
 DELC.uS/cm                              :   5     Delta C
 NGAM.CPS                                :   6     Natural Gamma
#------------------------------------------------------------------------------
~A  DEPTH          COND          COND          TEMP          DELT          DELC          NGAM
# ...
   129.92       1394.79       1044.14         12.43         -0.00          3.86          0.00
   129.93       1394.74       1044.14         12.43          0.00         -0.02          0.00
   129.94       1394.75       1044.14         12.43          0.00          3.26          0.00
   129.95       1390.96       1041.29         12.43         -0.00         -0.49          0.00
   129.96       1394.80       1044.14         12.43         -0.00         -0.41          0.00
   129.97       1391.05       1041.29         12.43         -0.01         -0.32          0.00
   129.98       1394.84       1044.14         12.43         -0.01         -0.28          0.00
   129.99       1394.84       1044.14         12.43         -0.01          3.54          0.35
   130.00       1391.03       1041.29         12.43         -0.01         -0.28          0.35
   130.01       1394.82       1044.14         12.43         -0.01         -0.33          0.35
   130.02       1391.01       1041.29         12.43         -0.00         -0.36          0.71
   130.03       1394.77       1044.14         12.43         -0.00         -0.45          0.71
   130.04       1390.92       1041.29         12.43         -0.00         -0.49          0.71
   130.05       1390.88       1041.29         12.43         -0.00         -3.77          0.71
   130.06       1394.66       1044.14         12.43          0.00          0.00          0.71
   130.07       1390.78       1041.29         12.44          0.00         -0.07          0.71
   130.08       1394.51       1044.14         12.44          0.00         -0.18          1.06
   130.09       1391.20       1041.70         12.44          0.01          0.27          1.06
   130.10       1391.13       1041.70         12.44          0.01         -3.66          1.06
   130.11       1394.87       1044.55         12.44          0.01          0.05          1.06
   130.12       1391.05       1041.70         12.44          0.01          0.04          1.06
   130.13       1394.86       1044.55         12.44          0.01          0.09          1.06
   130.14       1391.13       1041.70         12.44          0.01          0.25          1.06
   130.15       1395.05       1044.55         12.44          0.00          0.40          1.06
   130.16       1395.12       1044.55         12.44          0.00          4.27          0.71
   130.17       1391.39       1041.70         12.43          0.00         -3.31          0.71
   130.18       1395.25       1044.55         12.43          0.00          0.48          0.71
   130.19       1391.52       1041.70         12.43          0.00          0.54          0.35
   130.20       1394.84       1044.14         12.43         -0.00          0.07          0.35
   130.21       1394.87       1044.14         12.43         -0.00          3.43          0.35
   130.22       1391.09       1041.29         12.43         -0.01         -0.30          0.35
   130.23       1394.85       1044.14         12.43         -0.01         -0.35          0.35
   130.24       1391.01       1041.29         12.43         -0.00         -0.43          0.35
   130.25       1394.72       1044.14         12.43          0.00         -0.61          0.00
   130.26       1390.82       1041.29         12.43          0.01         -0.74          0.00
   130.27       1390.82       1041.29         12.43          0.01         -4.55          0.71
   130.28       1394.59       1044.14         12.44          0.01          3.07          0.71
   130.29       1390.82       1041.29         12.43          0.00         -0.66          0.71
   130.30       1394.62       1044.14         12.43          0.00         -0.63          0.71
   130.31       1391.34       1041.70         12.43          0.00         -0.07          0.71
   130.32       1391.34       1041.70         12.43          0.00         -3.35          0.71
   130.33       1395.18       1044.55         12.43          0.00          1.01          0.71
   130.34       1391.46       1041.70         12.43          0.00         -2.72          0.71
   130.35       1395.30       1044.55         12.43         -0.00          1.14          0.71
   130.36       1391.57       1041.70         12.43         -0.00          1.27          0.71
   130.37       1392.17       1042.10         12.43         -0.01         -1.88          0.71
   130.38       1395.94       1044.95         12.43         -0.01          5.76          0.71
   130.39       1392.13       1042.10         12.43         -0.01         -1.75          0.71
   130.40       1395.87       1044.95         12.43         -0.01          2.10          0.71
   130.41       1391.99       1042.10         12.43         -0.01          2.12          0.71
   130.42       1391.41       1041.70         12.43         -0.01         -2.20          0.71
   130.43       1395.18       1044.55         12.43         -0.01          5.43          0.71
   130.44       1391.38       1041.70         12.43         -0.02         -2.68          0.00
   130.45       1395.20       1044.55         12.43         -0.02          4.99          0.00
   130.46       1391.41       1041.70         12.43         -0.02          1.21          0.00
   130.47       1395.22       1044.55         12.43         -0.02          1.21          0.00
   130.48       1394.66       1044.14         12.43         -0.02          4.44          0.00
   130.49       1390.87       1041.29         12.43         -0.02         -3.19          0.00
   130.50       1394.71       1044.14         12.43         -0.02          4.41          0.00
   130.51       1390.98       1041.29         12.43         -0.02         -3.20          0.29
   130.52       1394.89       1044.14         12.43         -0.02          0.62          0.29
   130.53       1394.95       1044.14         12.43         -0.02          4.43          0.29
   130.54       1395.00       1044.14         12.42         -0.02          0.64          0.29
   130.55       1395.02       1044.14         12.42         -0.02          4.44          0.29
   130.56       1391.22       1041.29         12.42         -0.02         -3.15          0.65
   130.57       1395.07       1044.14         12.42         -0.02          0.69          0.65
   130.58       1391.29       1041.29         12.42         -0.02          0.72          0.65
   130.59       1395.11       1044.14         12.42         -0.02          0.72          0.65
   130.60       1395.07       1044.14         12.42         -0.02          4.44          0.65
   130.61       1391.19       1041.29         12.42         -0.01         -3.27          0.65
   130.62       1394.90       1044.14         12.43         -0.01          4.18          0.65
   130.63       1391.00       1041.29         12.43         -0.01          0.23          0.65
   130.64       1394.72       1044.14         12.43         -0.00          0.08          0.65
   130.65       1390.83       1041.29         12.43          0.00         -0.08          0.65
   130.66       1394.51       1044.14         12.44          0.01         -0.25          0.65
   130.67       1394.38       1044.14         12.44          0.01          3.40          0.65
   130.68       1390.48       1041.29         12.44          0.01         -4.30          0.35
   130.69       1394.17       1044.14         12.45          0.02         -1.13          0.35
   130.70       1390.33       1041.29         12.45          0.02         -1.16          0.35
   130.71       1394.15       1044.14         12.45          0.02         -1.13          0.35
   130.72       1394.18       1044.14         12.45          0.01          3.28          0.35
   130.73       1390.41       1041.29         12.45          0.01         -4.21          0.00
   130.74       1394.22       1044.14         12.45          0.01         -0.33          0.00
   130.75       1390.36       1041.29         12.45          0.01         -0.29          0.35
   130.76       1394.12       1044.14         12.45          0.01         -0.25          0.35
   130.77       1390.33       1041.29         12.45          0.00         -0.18          0.35
