#Written by Robertson Geologging WinLogger V1.0/406
~VERSION INFORMATION
#------------------------------------------------------------------------------
 VERS. 2.0 : CWLS LOG ASCII STANDARD - VERSION 2.0
 WRAP. NO  : ONE LINE PER DEPTH STEP
~WELL INFORMATION
#MNEM.UNIT         DATA                                DESCRIPTION OF MNEMONIC
#------------------------------------------------------------------------------
 STRT.M         42.0600                            :   START DEPTH
 STOP.M        195.0000                            :   STOP DEPTH
 STEP.M          0.0100                            :   STEP VALUE
 NULL.        -999.2500                            :   NULL VALUE
 COMP.    I.W.S.                                   :   COMPANY NAME
 WELL.    Thrislington                             :   WELL NAME
 FLD.     Thrislington                             :   FIELD NAME
 LOC.     N/A                                      :   LOCATION
 PROV.    N/A                                      :   PROVINCE
 SRVC.    N/A                                      :   SERVICE COMPANY NAME
 DATE.    21 Jul 09                                :   DATE
 UWI.     N/A                                      :   UNIQUE WELL IDENTIFIER
~PARAMETER INFORMATION
#MNEMO.UNIT         VALUE                 DESCRIPTION OF MNEMONIC
#------------------------------------------------------------------------------
~OTHER INFORMATION SECTION
#------------------------------------------------------------------------------
 TCGS 1365
~CURVE INFORMATION
#MNEMO.UNIT         API CODE              CURVE DESCRIPTION
#------------------------------------------------------------------------------
 DEPTH.M                                 :   0     Depth
 TEMP.DegC                               :   1     Temperature
 CN25.uS/cm                              :   2     Conductivity@25DegC
 DELT.DegC                               :   3     Delta T
 DELC.uS/cm                              :   4     Delta C
 NGAM.CPS                                :   5     Natural Gamma
 COND.uS/cm                              :   6     Conductivity
#------------------------------------------------------------------------------
~A  DEPTH     TEMP      CN25      DELT      DELC      NGAM      COND      
# ...
   113.25     12.25   1298.30      0.00     -0.17      0.00    962.85 
   113.26     12.25   1296.06      0.00     -0.17      0.00    961.05 
   113.27     12.25   1298.64     -0.01      0.34      0.00    962.85 
   113.28     12.24   1296.40     -0.01      0.52      0.00    961.05 
   113.29     12.24   1296.57     -0.03      1.03      0.00    961.05 
   113.30     12.24   1298.99     -0.03      1.03      0.00    962.85 
   113.31     12.24   1296.57     -0.01      0.52      0.00    961.05 
   113.32     12.24   1298.99     -0.01     -5.52      0.00    962.85 
   113.33     12.24   1296.40      0.00      7.07      7.00    961.05 
   113.34     12.24   1298.81      0.01     -6.38      8.00    962.85 
   113.35     12.23   1296.75     -0.01      7.76      0.00    961.05 
   113.36     12.24   1298.81     -0.01     -5.69      0.00    962.85 
   113.37     12.24   1296.40     -0.01      0.52      0.00    961.05 
   113.38     12.25   1295.89      0.00     -2.41      0.00    961.05 
   113.39     12.26   1298.13      0.01      9.31      8.00    962.85 
   113.40     12.26   1295.71      0.01     -8.96      0.00    961.05 
   113.41     12.26   1298.13      0.02      1.72      0.00    962.85 
   113.42     12.25   1296.06      0.00     -2.41      0.00    961.05 
   113.43     12.25   1298.47      0.00      2.24      0.00    962.85 
   113.44     12.25   1296.23     -0.00     -2.24      0.00    961.05 
   113.45     12.25   1298.64     -0.01      2.76      0.00    962.85 
   113.46     12.25   1295.89      0.00     -2.58      0.00    961.05 
   113.47     12.25   1298.30     -0.00      2.58      0.00    962.85 
   113.48     12.26   1295.71     -0.00     -2.24      0.00    961.05 
   113.49     12.25   1295.89     -0.00      0.17      0.00    961.05 
   113.50     12.25   1298.30     -0.00      0.17      0.00    962.85 
   113.51     12.25   1295.89      0.01     -0.34      0.00    961.05 
   113.52     12.25   1304.50      0.00      5.86      0.00    967.35 
   113.53     12.25   1288.65      0.02     -7.93      0.00    955.66 
   113.54     12.25   1304.33      0.01      8.10      0.00    967.35 
   113.55     12.25   1295.89      0.01     -2.76      7.00    961.05 
   113.56     12.25   1298.47      0.01      1.90      0.00    962.85 
   113.57     12.25   1296.06      0.01     -2.93      0.00    961.05 
   113.58     12.25   1296.06      0.02     -0.69      0.00    961.05 
   113.59     12.24   1298.81      0.00      0.00      0.00    962.85 
   113.60     12.24   1296.40     -0.00      0.17      0.00    961.05 
   113.61     12.24   1296.57     -0.01     -1.90      7.00    961.05 
   113.62     12.23   1299.16     -0.01      2.93      0.00    962.85 
   113.63     12.24   1296.57     -0.00      0.17      0.00    961.05 
   113.64     12.24   1296.57     -0.01     -1.90      0.00    961.05 
   113.65     12.25   1298.64     -0.00      2.59      0.00    962.85 
   113.66     12.24   1296.40     -0.02      0.69      7.00    961.05 
   113.67     12.24   1298.81     -0.01      0.52      0.00    962.85 
   113.68     12.24   1296.40     -0.00      0.17      0.00    961.05 
   113.69     12.24   1298.99     -0.00      2.59      0.00    962.85 
   113.70     12.24   1296.40      0.00      0.00      0.00    961.05 
   113.71     12.24   1296.40      0.00     -2.41      0.00    961.05 
   113.72     12.25   1298.64      0.00      2.41      0.00    962.85 
   113.73     12.25   1296.23      0.00     -8.45      0.00    961.05 
   113.74     12.25   1298.47      0.00      9.65      0.00    962.85 
   113.75     12.25   1295.89      0.00     -8.62      0.00    961.05 
   113.76     12.26   1297.95      0.01      2.07      8.00    962.85 
   113.77     12.26   1295.71     -0.00     -2.24      7.00    961.05 
   113.78     12.25   1295.89     -0.01      0.34      0.00    961.05 
   113.79     12.26   1298.13     -0.00      2.58      8.00    962.85 
   113.80     12.25   1296.06     -0.02     -1.72      0.00    961.05 
   113.81     12.25   1298.47     -0.01      2.93      0.00    962.85 
   113.82     12.25   1296.23     -0.01      0.34      0.00    961.05 
   113.83     12.25   1298.64     -0.02      0.69      0.00    962.85 
   113.84     12.25   1296.23     -0.01      0.52      0.00    961.05 
   113.85     12.25   1298.47     -0.01      2.76      0.00    962.85 
   113.86     12.25   1296.06      0.00     -2.41      0.00    961.05 
   113.87     12.25   1304.68     -0.00      8.62      7.00    967.35 
   113.88     12.25   1288.82      0.00     -7.24      0.00    955.66 
   113.89     12.25   1304.50      0.00      8.27      0.00    967.35 
   113.90     12.25   1296.06     -0.00     -2.24      0.00    961.05 
   113.91     12.25   1298.30      0.00      2.24      0.00    962.85 
   113.92     12.25   1295.89      0.01     -8.96      0.00    961.05 
   113.93     12.25   1295.89      0.01      6.72      0.00    961.05 
   113.94     12.26   1298.13      0.02     -6.72      0.00    962.85 
   113.95     12.25   1296.06      0.00     -0.17      0.00    961.05 
   113.96     12.24   1296.40     -0.01     -1.90      0.00    961.05 
   113.97     12.25   1298.47     -0.00      2.58      0.00    962.85 
   113.98     12.25   1296.23     -0.00      0.17      0.00    961.05 
   113.99     12.24   1296.40     -0.01     -2.07      0.00    961.05 
   114.00     12.26   1295.71      0.01     -0.52      7.00    961.05 
   114.01     12.26   1298.13      0.02      1.72      0.00    962.85 
   114.02     12.25   1295.89      0.00      0.00      0.00    961.05 
   114.03     12.25   1304.33      0.00      6.03      0.00    967.35 
   114.04     12.24   1289.16     -0.01     -6.72      0.00    955.66 
   114.05     12.24   1305.02     -0.02      9.14      0.00    967.35 
   114.06     12.23   1296.75     -0.01     -1.90      0.00    961.05 
   114.07     12.24   1298.81      0.00      2.24      0.00    962.85 
   114.08     12.24   1296.40      0.00     -0.17      7.00    961.05 
   114.09     12.24   1296.40      0.00     -2.41      0.00    961.05 
   114.10     12.25   1298.47      0.01      2.07      0.00    962.85 
   114.11     12.25   1296.06     -0.01     -2.07      0.00    961.05 
   114.12     12.25   1295.89     -0.00      0.17      0.00    961.05 
   114.13     12.26   1298.13      0.00     -6.20      0.00    962.85 
   114.14     12.25   1296.06     -0.00      7.41      0.00    961.05 
   114.15     12.25   1296.06      0.00     -8.62      0.00    961.05 
   114.16     12.25   1298.64      0.00      2.41      0.00    962.85 
   114.17     12.24   1296.40     -0.01     -2.07      0.00    961.05 
   114.18     12.25   1296.23     -0.00      0.17      0.00    961.05 
   114.19     12.25   1298.64     -0.00      0.17      0.00    962.85 
   114.20     12.24   1296.40     -0.01      0.34      7.00    961.05 
   114.21     12.24   1304.85     -0.01      8.96      0.00    967.35 
   114.22     12.23   1299.16     -0.03      1.03      0.00    962.85 
   114.23     12.23   1296.75     -0.02      0.86      0.00    961.05 
   114.24     12.25   1296.23     -0.01     -2.07      0.00    961.05 
   114.25     12.25   1298.64     -0.00      2.59      0.00    962.85 
   114.26     12.25   1296.06      0.00     -2.59      0.00    961.05 
   114.27     12.25   1295.89      0.01     -0.52      0.00    961.05 
   114.28     12.25   1298.47      0.01      1.90      0.00    962.85 
   114.29     12.25   1295.89      0.02     -3.10      7.00    961.05 
   114.30     12.27   1297.78      0.03      1.21      0.00    962.85 
   114.31     12.26   1295.71      0.02     -3.27      0.00    961.05 
   114.32     12.26   1295.54      0.02     -0.86      0.00    961.05 
   114.33     12.26   1298.13      0.02     -0.69      0.00    962.85 
   114.34     12.25   1296.23      0.01     -0.52      7.00    961.05 
   114.35     12.25   1296.06      0.01     -2.76      0.00    961.05 
   114.36     12.25   1298.47      0.01      2.07      0.00    962.85 
   114.37     12.25   1296.23     -0.01      0.34      7.00    961.05 
