#Written by Robertson Geologging WinLogger V1.5/410
~VERSION INFORMATION
#------------------------------------------------------------------------------
 VERS. 2.0 : CWLS LOG ASCII STANDARD - VERSION 2.0
 WRAP. NO  : ONE LINE PER DEPTH STEP
~WELL INFORMATION
#MNEM.UNIT         DATA                                DESCRIPTION OF MNEMONIC
#------------------------------------------------------------------------------
 STRT.M          0.0600                            :   START DEPTH
 STOP.M        195.0000                            :   STOP DEPTH
 STEP.M          0.0100                            :   STEP VALUE
 NULL.        -999.2500                            :   NULL VALUE
 COMP.    Coal Authority                           :   COMPANY NAME
 WELL.    Thrislington Shaft                       :   WELL NAME
 FLD.     N/A                                      :   FIELD NAME
 LOC.     N/A                                      :   LOCATION
 PROV.    N/A                                      :   PROVINCE
 SRVC.    N/A                                      :   SERVICE COMPANY NAME
 DATE.    15 Dec 08                                :   DATE
 UWI.     N/A                                      :   UNIQUE WELL IDENTIFIER
~PARAMETER INFORMATION
#MNEMO.UNIT         VALUE                 DESCRIPTION OF MNEMONIC
#------------------------------------------------------------------------------
~OTHER INFORMATION SECTION
#------------------------------------------------------------------------------
 TCDS 1365
 15,12,2008
~CURVE INFORMATION
#MNEMO.UNIT         API CODE              CURVE DESCRIPTION
#------------------------------------------------------------------------------
 DEPTH.M                                 :   0     Depth
 COND.uS/cm                              :   1     Conductivity@25DegC
 COND.uS/cm                              :   2     Absolute Conductivity
 TEMP.DegC                               :   3     Temperature
 DELT.DegC                               :   4     Delta T
 DELC.uS/cm                              :   5     Delta C
 NGAM.CPS                                :   6     Natural Gamma
#------------------------------------------------------------------------------
~A  DEPTH          COND          COND          TEMP          DELT          DELC          NGAM
# ...
   104.12       1392.81       1042.51         12.42          0.01          1.90          0.00
   104.13       1392.84       1042.51         12.42          0.01         -1.88          0.00
   104.14       1389.03       1039.66         12.42          0.01         -1.30          0.00
   104.15       1393.37       1042.92         12.42          0.01         -0.77          0.00
   104.16       1389.59       1040.07         12.42          0.00         -0.69          0.00
   104.17       1393.44       1042.92         12.42          0.00          3.18          0.00
   104.18       1393.99       1043.33         12.42          0.00         -0.61          0.00
   104.19       1390.27       1040.48         12.42         -0.00         -0.46          0.00
   104.20       1394.72       1043.73         12.42         -0.01          0.25          0.00
   104.21       1390.99       1040.88         12.42         -0.01          0.41          0.00
   104.22       1394.87       1043.73         12.41         -0.02          4.40          0.00
   104.23       1390.48       1040.48         12.41         -0.02         -3.75          0.00
   104.24       1390.96       1040.88         12.42         -0.01          0.55          0.00
   104.25       1394.73       1043.73         12.42         -0.01         -0.05          0.00
   104.26       1390.94       1040.88         12.42         -0.01         -0.10          0.00
   104.27       1394.75       1043.73         12.42         -0.01          3.59          0.00
   104.28       1390.96       1040.88         12.42         -0.01         -4.14          0.00
   104.29       1390.38       1040.48         12.42         -0.00         -0.51          0.00
   104.30       1394.14       1043.33         12.42          0.00         -0.72          0.00
   104.31       1390.27       1040.48         12.42          0.01         -0.95          0.00
   104.32       1394.01       1043.33         12.42          0.02          2.66          0.00
   104.33       1390.15       1040.48         12.42          0.02         -5.07          0.41
   104.34       1390.67       1040.88         12.42          0.02         -0.78          0.41
   104.35       1394.49       1043.73         12.42          0.02          3.04          0.41
   104.36       1390.70       1040.88         12.42          0.02         -0.72          0.41
   104.37       1394.51       1043.73         12.42          0.02          3.11          0.41
   104.38       1390.73       1040.88         12.42          0.02         -4.43          0.41
   104.39       1390.76       1040.88         12.42          0.01         -0.52          0.41
   104.40       1395.18       1044.14         12.42          0.01         -0.36          0.41
   104.41       1391.42       1041.29         12.42          0.00         -0.18          0.41
   104.42       1395.21       1044.14         12.42          0.00          3.73          0.76
   104.43       1391.36       1041.29         12.42          0.00         -3.82          0.76
   104.44       1391.32       1041.29         12.42          0.00         -0.03          0.76
   104.45       1395.20       1044.14         12.42         -0.00          0.02          0.76
   104.46       1391.47       1041.29         12.42         -0.00         -3.74          0.76
   104.47       1395.34       1044.14         12.42         -0.00          3.89          0.76
   104.48       1391.60       1041.29         12.41         -0.00         -3.68          0.76
   104.49       1391.62       1041.29         12.41         -0.00          0.16          0.76
   104.50       1395.44       1044.14         12.41         -0.01          0.20          0.35
   104.51       1391.63       1041.29         12.41         -0.01          0.20          0.35
   104.52       1395.41       1044.14         12.41         -0.00          3.94          0.35
   104.53       1391.07       1040.88         12.41         -0.00         -4.21          0.35
   104.54       1391.11       1040.88         12.41         -0.00          0.16          0.35
   104.55       1394.96       1043.73         12.41         -0.01          0.23          0.35
   104.56       1391.14       1040.88         12.41         -0.01          0.23          0.35
   104.57       1394.87       1043.73         12.41         -0.00          3.94          0.35
   104.58       1390.99       1040.88         12.42         -0.00         -3.78          0.35
   104.59       1390.91       1040.88         12.42          0.00         -0.08          0.00
   104.60       1394.69       1043.73         12.42          0.00         -0.16          0.00
   104.61       1390.86       1040.88         12.42          0.01         -0.23          0.00
   104.62       1394.67       1043.73         12.42          0.01          3.51          0.00
   104.63       1390.89       1040.88         12.42          0.01         -4.10          0.00
   104.64       1395.26       1044.14         12.42          0.01          4.06          0.00
   104.65       1395.29       1044.14         12.42          0.01         -0.28          0.00
   104.66       1391.49       1041.29         12.42          0.01         -0.28          0.00
   104.67       1395.29       1044.14         12.42          0.01          4.09          0.00
   104.68       1391.53       1041.29         12.42          0.01         -3.46          0.00
   104.69       1395.34       1044.14         12.42          0.00          4.21          0.35
   104.70       1395.36       1044.14         12.41          0.00          0.46          0.35
   104.71       1391.55       1041.29         12.41          0.00          0.49          0.35
   104.72       1395.34       1044.14         12.42          0.00          4.34          0.35
   104.73       1391.53       1041.29         12.42         -0.00         -3.23          0.35
   104.74       1395.34       1044.14         12.42         -0.00          4.40          0.35
   104.75       1391.55       1041.29         12.41         -0.00         -3.23          0.35
   104.76       1390.99       1040.88         12.42          0.00          0.00          0.35
   104.77       1394.78       1043.73         12.42          0.00          3.76          0.35
   104.78       1390.98       1040.88         12.42          0.00         -4.48          0.35
   104.79       1394.73       1043.73         12.42          0.01          3.02          0.35
   104.80       1390.38       1040.48         12.42          0.01         -5.17          0.35
   104.81       1394.17       1043.33         12.42          0.01          2.95          0.35
   104.82       1394.13       1043.33         12.42          0.01          2.94          0.76
   104.83       1390.30       1040.48         12.42          0.01         -4.68          0.76
   104.84       1394.08       1043.33         12.42          0.01          2.92          0.76
   104.85       1390.25       1040.48         12.42          0.01         -4.70          1.18
   104.86       1394.09       1043.33         12.42          0.01          3.55          0.82
   104.87       1394.67       1043.73         12.42          0.00          0.36          0.82
   104.88       1390.37       1040.48         12.42          0.00         -3.89          0.82
   104.89       1394.21       1043.33         12.42         -0.00          4.38          0.82
   104.90       1390.40       1040.48         12.42         -0.00         -3.15          0.82
   104.91       1394.73       1043.73         12.42         -0.00          5.59          0.82
   104.92       1390.93       1040.88         12.42         -0.00         -2.54          0.82
   104.93       1390.94       1040.88         12.42         -0.01         -2.51          0.82
   104.94       1394.73       1043.73         12.42         -0.01          5.12          0.82
   104.95       1390.38       1040.48         12.42         -0.01         -2.99          0.82
   104.96       1394.17       1043.33         12.42         -0.01          4.68          0.82
   104.97       1390.32       1040.48         12.42         -0.01         -3.48          0.82
