#Written by Robertson Geologging WinLogger V1.5/410
~VERSION INFORMATION
#------------------------------------------------------------------------------
 VERS. 2.0 : CWLS LOG ASCII STANDARD - VERSION 2.0
 WRAP. NO  : ONE LINE PER DEPTH STEP
~WELL INFORMATION
#MNEM.UNIT         DATA                                DESCRIPTION OF MNEMONIC
#------------------------------------------------------------------------------
 STRT.M          0.0600                            :   START DEPTH
 STOP.M        195.0000                            :   STOP DEPTH
 STEP.M          0.0100                            :   STEP VALUE
 NULL.        -999.2500                            :   NULL VALUE
 COMP.    Coal Authority                           :   COMPANY NAME
 WELL.    Thrislington Shaft                       :   WELL NAME
 FLD.     N/A                                      :   FIELD NAME
 LOC.     N/A                                      :   LOCATION
 PROV.    N/A                                      :   PROVINCE
 SRVC.    N/A                                      :   SERVICE COMPANY NAME
 DATE.    15 Dec 08                                :   DATE
 UWI.     N/A                                      :   UNIQUE WELL IDENTIFIER
~PARAMETER INFORMATION
#MNEMO.UNIT         VALUE                 DESCRIPTION OF MNEMONIC
#------------------------------------------------------------------------------
~OTHER INFORMATION SECTION
#------------------------------------------------------------------------------
 TCDS 1365
 15,12,2008
~CURVE INFORMATION
#MNEMO.UNIT         API CODE              CURVE DESCRIPTION
#------------------------------------------------------------------------------
 DEPTH.M                                 :   0     Depth
 COND.uS/cm                              :   1     Conductivity@25DegC
 COND.uS/cm                              :   2     Absolute Conductivity
 TEMP.DegC                               :   3     Temperature
 DELT.DegC                               :   4     Delta T
 DELC.uS/cm                              :   5     Delta C
 NGAM.CPS                                :   6     Natural Gamma
#------------------------------------------------------------------------------
~A  DEPTH          COND          COND          TEMP          DELT          DELC          NGAM
# ...
    51.66       1017.65        742.46         11.48          0.00         -0.12          0.35
    51.67       1017.62        742.46         11.48          0.01          1.45          0.76
    51.68       1019.29        743.67         11.48          0.01          1.44          0.76
    51.69       1020.97        744.87         11.48          0.01          3.11          1.18
    51.70       1017.70        742.46         11.48          0.01         -0.17          1.18
    51.71       1019.42        743.67         11.47          0.00          1.57          1.18
    51.72       1021.09        744.87         11.47          0.00          1.61          1.53
    51.73       1017.76        742.46         11.48          0.00         -3.37          1.53
    51.74       1017.76        742.46         11.48          0.00         -0.07          1.53
    51.75       1017.74        742.46         11.48          0.00          1.53          1.53
    51.76       1021.00        744.87         11.48          0.00          3.17          1.53
    51.77       1021.01        744.87         11.48          0.00          1.57          1.53
    51.78       1017.71        742.46         11.48          0.00         -0.01          1.18
    51.79       1016.03        741.26         11.48         -0.00          0.01          1.18
    51.80       1017.65        742.46         11.48          0.00         -1.65          1.18
    51.81       1020.95        744.87         11.48         -0.00          0.02          1.18
    51.82       1017.63        742.46         11.48          0.00         -1.67          1.18
    51.83       1017.64        742.46         11.48          0.00         -0.01          1.18
    51.84       1020.95        744.87         11.48          0.00          4.93          0.76
    51.85       1019.29        743.67         11.48          0.00          1.60          0.76
    51.86       1017.63        742.46         11.48          0.00         -1.68          0.35
    51.87       1017.59        742.46         11.48          0.00         -0.08          0.35
    51.88       1019.18        743.67         11.48          0.00         -0.13          0.35
    51.89       1020.79        744.87         11.48          0.01         -0.18          0.00
    51.90       1019.12        743.67         11.49          0.01         -0.23          0.00
    51.91       1017.47        742.46         11.49          0.01         -1.88          0.00
    51.92       1017.48        742.46         11.49          0.01         -0.23          0.00
    51.93       1019.14        743.67         11.48          0.01          3.07          0.00
    51.94       1020.80        744.87         11.48          0.01          1.40          0.00
    51.95       1019.16        743.67         11.48          0.01         -0.28          0.00
    51.96       1019.16        743.67         11.48          0.01         -1.98          0.00
    51.97       1020.81        744.87         11.48          0.01          1.25          0.00
    51.98       1019.19        743.67         11.48          0.01          1.24          0.00
    51.99       1015.93        741.26         11.48          0.01         -0.38          0.00
    52.00       1019.83        744.07         11.48          0.01          1.88          0.00
    52.01       1019.86        744.07         11.48          0.01          0.29          0.00
    52.02       1019.88        744.07         11.48          0.01          1.98          0.00
    52.03       1019.88        744.07         11.48          0.01          3.63          0.00
    52.04       1019.85        744.07         11.48          0.01          1.94          0.00
    52.05       1016.52        741.67         11.48          0.01         -1.38          0.35
    52.06       1016.51        741.67         11.48          0.01         -2.99          0.35
    52.07       1019.82        744.07         11.48          0.01          2.03          0.35
    52.08       1018.18        742.87         11.48          0.00          0.50          0.35
    52.09       1019.88        744.07         11.48         -0.00          2.29          0.35
    52.10       1021.55        745.27         11.48         -0.01          2.36          0.35
    52.11       1016.07        741.26         11.48         -0.01         -1.46          0.35
    52.12       1017.75        742.46         11.48         -0.01         -1.44          0.35
    52.13       1019.40        743.67         11.48         -0.01          1.87          0.35
    52.14       1019.39        743.67         11.48         -0.01          0.25          0.35
    52.15       1019.36        743.67         11.48         -0.01         -1.38          0.35
    52.16       1019.35        743.67         11.48         -0.01          0.28          0.35
    52.17       1019.35        743.67         11.48         -0.01          3.58          0.35
    52.18       1019.34        743.67         11.48         -0.01          3.54          0.35
    52.19       1019.34        743.67         11.48         -0.01          1.81          0.35
    52.20       1019.29        743.67         11.48         -0.00         -1.59          0.35
    52.21       1017.60        742.46         11.48          0.00         -1.68          0.35
    52.22       1019.23        743.67         11.48          0.00          1.59          0.41
    52.23       1020.84        744.87         11.48          0.00          4.87          0.41
    52.24       1019.19        743.67         11.48          0.00         -0.09          0.41
    52.25       1019.19        743.67         11.48          0.00         -0.10          0.41
    52.26       1017.56        742.46         11.48          0.00          1.54          0.41
    52.27       1019.23        743.67         11.48          0.00         -0.65          0.41
    52.28       1020.87        744.87         11.48          0.00          1.00          0.41
    52.29       1017.59        742.46         11.48          0.00         -2.26          0.41
    52.30       1017.62        742.46         11.48          0.00         -2.20          0.41
    52.31       1017.63        742.46         11.48         -0.00         -0.51          0.41
    52.32       1020.95        744.87         11.48         -0.00          4.49          0.41
    52.33       1020.95        744.87         11.48         -0.00          2.84          0.41
    52.34       1017.62        742.46         11.48         -0.00         -0.50          0.41
    52.35       1017.60        742.46         11.48         -0.00          1.13          0.41
    52.36       1017.59        742.46         11.48          0.00         -0.55          0.41
    52.37       1019.23        743.67         11.48          0.00         -0.56          0.41
    52.38       1020.89        744.87         11.48          0.00          3.28          0.41
    52.39       1017.60        742.46         11.48          0.00         -0.02          0.29
    52.40       1020.91        744.87         11.48         -0.00          3.31          0.29
    52.41       1020.90        744.87         11.48         -0.00          3.32          0.29
    52.42       1019.25        743.67         11.48         -0.00          0.06          0.29
    52.43       1019.21        743.67         11.48         -0.00         -1.60          0.29
    52.44       1019.19        743.67         11.48          0.00          0.00          0.29
    52.45       1019.19        743.67         11.48          0.00         -1.66          0.29
    52.46       1020.82        744.87         11.48          0.00         -0.05          0.29
    52.47       1019.19        743.67         11.48          0.00         -0.02          0.29
    52.48       1023.05        746.47         11.48          0.00          5.49          0.29
    52.49       1025.25        748.08         11.48         -0.00          7.71          0.29
    52.50       1026.90        749.28         11.48         -0.00          6.12          0.29
    52.51       1023.60        746.87         11.48         -0.00          2.79          0.29
