#Written by Robertson Geologging WinLogger V1.0/406
~VERSION INFORMATION
#------------------------------------------------------------------------------
 VERS. 2.0 : CWLS LOG ASCII STANDARD - VERSION 2.0
 WRAP. NO  : ONE LINE PER DEPTH STEP
~WELL INFORMATION
#MNEM.UNIT         DATA                                DESCRIPTION OF MNEMONIC
#------------------------------------------------------------------------------
 STRT.M         42.0600                            :   START DEPTH
 STOP.M        195.0000                            :   STOP DEPTH
 STEP.M          0.0100                            :   STEP VALUE
 NULL.        -999.2500                            :   NULL VALUE
 COMP.    I.W.S.                                   :   COMPANY NAME
 WELL.    Thrislington                             :   WELL NAME
 FLD.     Thrislington                             :   FIELD NAME
 LOC.     N/A                                      :   LOCATION
 PROV.    N/A                                      :   PROVINCE
 SRVC.    N/A                                      :   SERVICE COMPANY NAME
 DATE.    21 Jul 09                                :   DATE
 UWI.     N/A                                      :   UNIQUE WELL IDENTIFIER
~PARAMETER INFORMATION
#MNEMO.UNIT         VALUE                 DESCRIPTION OF MNEMONIC
#------------------------------------------------------------------------------
~OTHER INFORMATION SECTION
#------------------------------------------------------------------------------
 TCGS 1365
~CURVE INFORMATION
#MNEMO.UNIT         API CODE              CURVE DESCRIPTION
#------------------------------------------------------------------------------
 DEPTH.M                                 :   0     Depth
 TEMP.DegC                               :   1     Temperature
 CN25.uS/cm                              :   2     Conductivity@25DegC
 DELT.DegC                               :   3     Delta T
 DELC.uS/cm                              :   4     Delta C
 NGAM.CPS                                :   5     Natural Gamma
 COND.uS/cm                              :   6     Conductivity
#------------------------------------------------------------------------------
~A  DEPTH     TEMP      CN25      DELT      DELC      NGAM      COND      
# ...
    62.40     12.23   1288.30      0.01     -0.51      0.00    954.76 
    62.41     12.24   1298.81      0.01     -0.52      0.00    962.85 
    62.42     12.25   1296.06      0.02     -0.86      0.00    961.05 
    62.43     12.25   1288.65      0.02     -0.85      0.00    955.66 
    62.44     12.25   1295.89      0.01     -0.52      0.00    961.05 
    62.45     12.25   1288.82      0.01      0.86      0.00    955.66 
    62.46     12.25   1295.89      0.02     -3.10      0.00    961.05 
    62.47     12.24   1296.40      0.00     -0.17      0.00    961.05 
    62.48     12.24   1289.16     -0.01      0.34      0.00    955.66 
    62.49     12.23   1296.75     -0.00      0.17      0.00    961.05 
    62.50     12.23   1289.50     -0.01      0.34      0.00    955.66 
    62.51     12.23   1296.75     -0.01      0.52      0.00    961.05 
    62.52     12.23   1296.75      0.00      0.00      0.00    961.05 
    62.53     12.24   1289.16      0.00      1.21      0.00    955.66 
    62.54     12.24   1296.57     -0.01     -2.07      0.00    961.05 
    62.55     12.25   1298.64      0.00      2.41      8.00    962.85 
    62.56     12.24   1288.13     -0.01      0.51      0.00    954.76 
    62.57     12.22   1297.26     -0.04     -1.04      0.00    961.05 
    62.58     12.22   1299.50     -0.03     11.89      0.00    962.85 
    62.59     12.21   1288.98     -0.04     -7.08      0.00    954.76 
    62.60     12.22   1297.09     -0.02     -1.55      0.00    961.05 
    62.61     12.23   1299.16     -0.01     11.38      0.00    962.85 
    62.62     12.23   1288.47     -0.02     -7.59      0.00    954.76 
    62.63     12.24   1298.81     -0.02     10.34      0.00    962.85 
    62.64     12.24   1296.57     -0.03      1.03      0.00    961.05 
    62.65     12.24   1289.16     -0.01     -6.90      0.00    955.66 
    62.66     12.25   1296.23     -0.01      0.34      0.00    961.05 
    62.67     12.24   1296.57     -0.01      8.79      0.00    961.05 
    62.68     12.25   1288.99      0.00     -9.82      0.00    955.66 
    62.69     12.25   1296.23      0.00      8.28      7.00    961.05 
    62.70     12.25   1295.89      0.03     -1.03      0.00    961.05 
    62.71     12.25   1288.82      0.02     -8.10      0.00    955.66 
    62.72     12.24   1296.57     -0.00      7.41      0.00    961.05 
    62.73     12.24   1289.16     -0.00     -7.07      0.00    955.66 
    62.74     12.24   1296.57     -0.01      0.52      0.00    961.05 
    62.75     12.25   1298.64     -0.00      9.82      0.00    962.85 
    62.76     12.25   1287.78      0.00     -8.62      0.00    954.76 
    62.77     12.24   1296.40      0.00      0.00      0.00    961.05 
    62.78     12.24   1296.40      0.00      8.45      0.00    961.05 
    62.79     12.24   1289.16      0.00     -7.41      8.00    955.66 
    62.80     12.25   1296.23      0.00     -2.59      0.00    961.05 
    62.81     12.25   1296.23      0.00      8.45      0.00    961.05 
    62.82     12.25   1288.65      0.00     -7.24      0.00    955.66 
    62.83     12.25   1295.89     -0.01      0.34      0.00    961.05 
    62.84     12.25   1296.06     -0.01      7.58      0.00    961.05 
    62.85     12.25   1287.78     -0.00     -8.27      0.00    954.76 
    62.86     12.24   1298.99     -0.01      2.93      0.00    962.85 
    62.87     12.24   1296.40      0.00      7.24      0.00    961.05 
    62.88     12.24   1289.16      0.00     -7.41      0.00    955.66 
    62.89     12.25   1296.23      0.01     -0.34      0.00    961.05 
    62.90     12.25   1296.06      0.02      6.55      0.00    961.05 
    62.91     12.25   1287.78      0.01     -8.96      7.00    954.76 
    62.92     12.25   1296.23      0.01      7.93      0.00    961.05 
    62.93     12.25   1298.64      0.00      2.24      0.00    962.85 
    62.94     12.25   1287.61      0.02     -9.13      7.00    954.76 
    62.95     12.25   1295.89      0.02      6.55      0.00    961.05 
    62.96     12.26   1298.13      0.02      1.55      0.00    962.85 
    62.97     12.26   1287.10      0.03     -9.47      7.00    954.76 
    62.98     12.25   1295.89      0.01      6.72      0.00    961.05 
    62.99     12.25   1296.23      0.00     -0.17      0.00    961.05 
    63.00     12.24   1289.33     -0.00     -7.07      0.00    955.66 
    63.01     12.23   1296.92     -0.01      7.59      0.00    961.05 
    63.02     12.22   1297.09     -0.02      0.69      0.00    961.05 
    63.03     12.23   1296.92     -0.00      0.17      0.00    961.05 
    63.04     12.24   1289.33      0.00      1.21      0.00    955.66 
    63.05     12.24   1296.57      0.00     -2.59      0.00    961.05 
    63.06     12.23   1296.75      0.00      0.00      0.00    961.05 
    63.07     12.24   1288.13      0.00      0.00     14.00    954.76 
    63.08     12.24   1298.99      0.00      0.00      0.00    962.85 
    63.09     12.24   1296.57      0.00      8.45      0.00    961.05 
    63.10     12.24   1287.95     -0.00    -10.69      0.00    954.76 
    63.11     12.24   1296.40     -0.00      0.17      0.00    961.05 
    63.12     12.24   1298.99      0.00     10.86      0.00    962.85 
    63.13     12.24   1288.13      0.00    -10.86      0.00    954.76 
    63.14     12.24   1296.57      0.01     -0.34      0.00    961.05 
    63.15     12.24   1289.16      0.01     -0.51      0.00    955.66 
    63.16     12.24   1296.57      0.00      0.00      0.00    961.05 
    63.17     12.23   1296.92     -0.02      0.69      0.00    961.05 
    63.18     12.24   1296.57     -0.01      7.75      0.00    961.05 
    63.19     12.24   1289.33     -0.00     -7.07      8.00    955.66 
    63.20     12.23   1296.92     -0.02      7.93      0.00    961.05 
    63.21     12.23   1296.75     -0.00      0.17      0.00    961.05 
    63.22     12.23   1289.67     -0.01     -6.73      0.00    955.66 
    63.23     12.22   1297.09     -0.03      8.27      0.00    961.05 
    63.24     12.24   1296.57     -0.00      0.17      0.00    961.05 
    63.25     12.24   1289.16     -0.00      0.17      0.00    955.66 
    63.26     12.24   1296.57      0.00     -0.17      0.00    961.05 
    63.27     12.23   1289.50     -0.00     -9.48      0.00    955.66 
    63.28     12.23   1296.75     -0.00      8.62      0.00    961.05 
    63.29     12.23   1296.75      0.00     -0.17      7.00    961.05 
    63.30     12.24   1289.33     -0.00     -9.48      0.00    955.66 
    63.31     12.24   1288.13      0.00      0.00      0.00    954.76 
    63.32     12.24   1296.57     -0.00     -2.24      0.00    961.05 
    63.33     12.24   1289.16     -0.00      1.38      0.00    955.66 
    63.34     12.23   1296.75     -0.01      0.34      0.00    961.05 
    63.35     12.24   1298.81      0.00      0.00      0.00    962.85 
    63.36     12.24   1287.95      0.00     -0.17      0.00    954.76 
    63.37     12.24   1296.57      0.00     -0.17      7.00    961.05 
    63.38     12.25   1298.47      0.01     -0.52      0.00    962.85 
    63.39     12.25   1287.78      0.01     -0.51      0.00    954.76 
    63.40     12.25   1298.64      0.00     -0.17      8.00    962.85 
    63.41     12.25   1296.23     -0.00      0.17      7.00    961.05 
    63.42     12.24   1289.16     -0.01      0.51      0.00    955.66 
    63.43     12.24   1296.40     -0.01      0.52      7.00    961.05 
    63.44     12.24   1289.16     -0.01      0.34      0.00    955.66 
    63.45     12.24   1296.40     -0.01      0.52      0.00    961.05 
    63.46     12.23   1296.75     -0.01      0.34      0.00    961.05 
    63.47     12.24   1289.33     -0.00      0.17      0.00    955.66 
    63.48     12.24   1296.57      0.00     -0.17      0.00    961.05 
    63.49     12.24   1298.99      0.00      9.48      0.00    962.85 
    63.50     12.24   1288.13      0.00     -8.62      0.00    954.76 
    63.51     12.24   1298.99      0.00      2.24      0.00    962.85 
    63.52     12.23   1296.92     -0.01      7.76      0.00    961.05 
