#Written by Robertson Geologging WinLogger V1.5/410
~VERSION INFORMATION
#------------------------------------------------------------------------------
 VERS. 2.0 : CWLS LOG ASCII STANDARD - VERSION 2.0
 WRAP. NO  : ONE LINE PER DEPTH STEP
~WELL INFORMATION
#MNEM.UNIT         DATA                                DESCRIPTION OF MNEMONIC
#------------------------------------------------------------------------------
 STRT.M          0.0600                            :   START DEPTH
 STOP.M        195.0000                            :   STOP DEPTH
 STEP.M          0.0100                            :   STEP VALUE
 NULL.        -999.2500                            :   NULL VALUE
 COMP.    Coal Authority                           :   COMPANY NAME
 WELL.    Thrislington Shaft                       :   WELL NAME
 FLD.     N/A                                      :   FIELD NAME
 LOC.     N/A                                      :   LOCATION
 PROV.    N/A                                      :   PROVINCE
 SRVC.    N/A                                      :   SERVICE COMPANY NAME
 DATE.    15 Dec 08                                :   DATE
 UWI.     N/A                                      :   UNIQUE WELL IDENTIFIER
~PARAMETER INFORMATION
#MNEMO.UNIT         VALUE                 DESCRIPTION OF MNEMONIC
#------------------------------------------------------------------------------
~OTHER INFORMATION SECTION
#------------------------------------------------------------------------------
 TCDS 1365
 15,12,2008
~CURVE INFORMATION
#MNEMO.UNIT         API CODE              CURVE DESCRIPTION
#------------------------------------------------------------------------------
 DEPTH.M                                 :   0     Depth
 COND.uS/cm                              :   1     Conductivity@25DegC
 COND.uS/cm                              :   2     Absolute Conductivity
 TEMP.DegC                               :   3     Temperature
 DELT.DegC                               :   4     Delta T
 DELC.uS/cm                              :   5     Delta C
 NGAM.CPS                                :   6     Natural Gamma
#------------------------------------------------------------------------------
~A  DEPTH          COND          COND          TEMP          DELT          DELC          NGAM
# ...
   181.52       1391.74       1042.10         12.44         -0.00          1.17          0.00
   181.53       1391.74       1042.10         12.44         -0.00          1.20          0.00
   181.54       1391.72       1042.10         12.44         -0.00          1.18          0.00
   181.55       1391.71       1042.10         12.44         -0.00          1.17          0.00
   181.56       1391.72       1042.10         12.44         -0.00          1.12          0.00
   181.57       1391.79       1042.10         12.44         -0.00         -2.69          0.00
   181.58       1391.84       1042.10         12.44         -0.00          0.58          0.00
   181.59       1391.86       1042.10         12.44         -0.00          0.58          0.00
   181.60       1395.10       1044.55         12.44         -0.00          3.89          0.00
   181.61       1391.25       1041.70         12.44         -0.00         -0.46          0.00
   181.62       1391.74       1042.10         12.44         -0.00          0.07          0.00
   181.63       1391.72       1042.10         12.44         -0.00          0.02          0.29
   181.64       1391.69       1042.10         12.44          0.00         -0.64          0.29
   181.65       1391.66       1042.10         12.44          0.01         -0.74          0.65
   181.66       1391.66       1042.10         12.44          0.01         -0.74          0.65
   181.67       1391.08       1041.70         12.44          0.00         -1.81          0.65
   181.68       1394.84       1044.55         12.44          0.00          5.84          0.65
   181.69       1391.02       1041.70         12.44          0.00         -1.17          0.65
   181.70       1391.55       1042.10         12.44          0.00         -1.15          0.65
   181.71       1391.55       1042.10         12.44          0.00         -1.17          0.65
   181.72       1391.58       1042.10         12.44          0.00         -0.62          0.65
   181.73       1391.07       1041.70         12.44          0.00         -1.68          0.65
   181.74       1391.08       1041.70         12.44          0.00         -1.66          0.65
   181.75       1391.15       1041.70         12.44         -0.00         -1.53          0.65
   181.76       1391.79       1042.10         12.44         -0.01         -0.81          0.65
   181.77       1391.94       1042.10         12.43         -0.01         -0.65          0.65
   181.78       1392.05       1042.10         12.43         -0.02          0.04          0.65
   181.79       1392.12       1042.10         12.43         -0.02         -0.45          0.65
   181.80       1392.66       1042.51         12.43         -0.02          0.06          0.35
   181.81       1392.07       1042.10         12.43         -0.01         -0.00          0.35
   181.82       1392.05       1042.10         12.43         -0.01          3.24          0.00
   181.83       1392.55       1042.51         12.43         -0.01         -0.05          0.00
   181.84       1392.56       1042.51         12.43         -0.01          0.54          0.00
   181.85       1392.58       1042.51         12.43         -0.02          0.60          0.00
   181.86       1392.53       1042.51         12.43         -0.01          0.52          0.00
   181.87       1392.50       1042.51         12.43         -0.01          0.46          0.00
   181.88       1392.38       1042.51         12.44         -0.01          0.28          0.00
   181.89       1392.30       1042.51         12.44         -0.00         -0.40          0.00
   181.90       1389.01       1040.07         12.44         -0.00         -3.15          0.00
   181.91       1392.30       1042.51         12.44         -0.00          0.13          0.00
   181.92       1392.40       1042.51         12.44         -0.01          0.23          0.00
   181.93       1392.45       1042.51         12.43         -0.01          0.77          0.00
   181.94       1392.51       1042.51         12.43         -0.01          0.82          0.00
   181.95       1392.48       1042.51         12.43         -0.01          0.77          0.35
   181.96       1392.41       1042.51         12.44         -0.00          4.50          0.35
   181.97       1392.94       1042.92         12.44         -0.00          1.79          0.35
   181.98       1392.35       1042.51         12.44         -0.00          1.18          0.35
   181.99       1392.32       1042.51         12.44         -0.00          1.18          0.35
   182.00       1392.84       1042.92         12.44         -0.00          2.27          0.35
   182.01       1392.30       1042.51         12.44         -0.00          1.74          0.35
   182.02       1392.28       1042.51         12.44         -0.00          1.76          0.35
   182.03       1392.25       1042.51         12.44         -0.00          1.15          0.35
   182.04       1392.27       1042.51         12.44         -0.00          1.17          0.35
   182.05       1391.74       1042.10         12.44         -0.00          0.59          0.35
   182.06       1391.81       1042.10         12.44         -0.00          0.59          0.71
   182.07       1391.87       1042.10         12.44         -0.00         -3.17          0.71
   182.08       1391.38       1041.70         12.43         -0.00         -0.45          0.71
   182.09       1391.41       1041.70         12.43         -0.00         -0.43          0.71
   182.10       1391.44       1041.70         12.43         -0.00         -0.43          0.71
   182.11       1390.93       1041.29         12.43         -0.00         -0.97          0.71
   182.12       1390.90       1041.29         12.43         -0.00         -1.01          0.35
   182.13       1390.88       1041.29         12.43         -0.00         -1.01          0.35
   182.14       1390.88       1041.29         12.43         -0.00         -0.43          0.35
   182.15       1390.88       1041.29         12.43         -0.00         -0.40          0.35
   182.16       1390.88       1041.29         12.43         -0.00         -0.36          0.35
   182.17       1391.39       1041.70         12.43         -0.00          0.18          0.35
   182.18       1391.39       1041.70         12.43         -0.01          3.46          0.35
   182.19       1391.34       1041.70         12.43         -0.00          0.16          0.35
   182.20       1391.86       1042.10         12.44         -0.00          0.67          0.35
   182.21       1391.86       1042.10         12.44         -0.00          0.71          0.71
   182.22       1391.79       1042.10         12.44         -0.00          0.66          0.71
   182.23       1392.32       1042.51         12.44         -0.00          1.17          0.65
   182.24       1392.30       1042.51         12.44          0.00          1.09          0.65
   182.25       1392.80       1042.92         12.44          0.00          1.50          0.65
   182.26       1388.94       1040.07         12.44          0.01         -2.45          0.65
   182.27       1392.73       1042.92         12.44          0.01          1.27          0.65
   182.28       1392.17       1042.51         12.44          0.01          0.66          0.65
   182.29       1392.14       1042.51         12.44          0.01         -2.70          1.00
   182.30       1392.15       1042.51         12.44          0.01          1.09          1.00
   182.31       1391.61       1042.10         12.44          0.02          0.52          1.00
   182.32       1391.58       1042.10         12.44          0.02          0.43          1.00
   182.33       1391.63       1042.10         12.44          0.02          0.47          1.00
   182.34       1391.10       1041.70         12.44          0.02         -0.64          1.00
   182.35       1391.10       1041.70         12.44          0.02         -0.62          1.00
   182.36       1390.62       1041.29         12.44          0.01         -1.07          1.00
   182.37       1394.48       1044.14         12.44          0.01          2.30          1.00
