#Written by Robertson Geologging WinLogger V1.5/410
~VERSION INFORMATION
#------------------------------------------------------------------------------
 VERS. 2.0 : CWLS LOG ASCII STANDARD - VERSION 2.0
 WRAP. NO  : ONE LINE PER DEPTH STEP
~WELL INFORMATION
#MNEM.UNIT         DATA                                DESCRIPTION OF MNEMONIC
#------------------------------------------------------------------------------
 STRT.M          0.0600                            :   START DEPTH
 STOP.M        195.0000                            :   STOP DEPTH
 STEP.M          0.0100                            :   STEP VALUE
 NULL.        -999.2500                            :   NULL VALUE
 COMP.    Coal Authority                           :   COMPANY NAME
 WELL.    Thrislington Shaft                       :   WELL NAME
 FLD.     N/A                                      :   FIELD NAME
 LOC.     N/A                                      :   LOCATION
 PROV.    N/A                                      :   PROVINCE
 SRVC.    N/A                                      :   SERVICE COMPANY NAME
 DATE.    15 Dec 08                                :   DATE
 UWI.     N/A                                      :   UNIQUE WELL IDENTIFIER
~PARAMETER INFORMATION
#MNEMO.UNIT         VALUE                 DESCRIPTION OF MNEMONIC
#------------------------------------------------------------------------------
~OTHER INFORMATION SECTION
#------------------------------------------------------------------------------
 TCDS 1365
 15,12,2008
~CURVE INFORMATION
#MNEMO.UNIT         API CODE              CURVE DESCRIPTION
#------------------------------------------------------------------------------
 DEPTH.M                                 :   0     Depth
 COND.uS/cm                              :   1     Conductivity@25DegC
 COND.uS/cm                              :   2     Absolute Conductivity
 TEMP.DegC                               :   3     Temperature
 DELT.DegC                               :   4     Delta T
 DELC.uS/cm                              :   5     Delta C
 NGAM.CPS                                :   6     Natural Gamma
#------------------------------------------------------------------------------
~A  DEPTH          COND          COND          TEMP          DELT          DELC          NGAM
# ...
   142.82       1390.77       1041.29         12.44          0.00         -0.15          1.06
   142.83       1391.21       1041.70         12.44          0.00         -3.44          1.06
   142.84       1394.91       1044.55         12.44          0.01          4.06          1.06
   142.85       1391.02       1041.70         12.44          0.01         -3.62          0.71
   142.86       1394.79       1044.55         12.44          0.01          3.96          0.35
   142.87       1390.97       1041.70         12.44          0.01         -3.65          0.35
   142.88       1390.97       1041.70         12.44          0.01         -3.57          0.35
   142.89       1394.23       1044.14         12.44          0.01          3.56          0.35
   142.90       1390.46       1041.29         12.44          0.00         -3.97          0.35
   142.91       1394.35       1044.14         12.44          0.00          3.74          0.35
   142.92       1390.62       1041.29         12.44         -0.00         -3.79          0.71
   142.93       1390.74       1041.29         12.44         -0.00         -3.71          0.71
   142.94       1394.69       1044.14         12.43         -0.01          4.04          0.71
   142.95       1391.00       1041.29         12.43         -0.01         -3.50          0.35
   142.96       1394.93       1044.14         12.43         -0.01          4.15          0.35
   142.97       1391.21       1041.29         12.42         -0.01         -3.45          0.35
   142.98       1391.19       1041.29         12.42         -0.01          0.28          0.35
   142.99       1394.97       1044.14         12.43         -0.00          3.99          0.35
   143.00       1391.08       1041.29         12.43         -0.00         -3.73          0.35
   143.01       1394.77       1044.14         12.43          0.00          3.79          0.35
   143.02       1390.88       1041.29         12.43          0.00         -3.92          0.35
   143.03       1390.78       1041.29         12.44          0.01         -0.21          0.35
   143.04       1394.51       1044.14         12.44          0.01          3.53          0.71
   143.05       1390.62       1041.29         12.44          0.01         -4.18          0.71
   143.06       1394.35       1044.14         12.44          0.01          3.40          0.71
   143.07       1389.92       1040.88         12.44          0.01         -4.76          1.06
   143.08       1389.85       1040.88         12.45          0.01         -0.97          1.06
   143.09       1393.66       1043.73         12.45          0.01          2.86          0.71
   143.10       1389.85       1040.88         12.45          0.01         -4.77          0.71
   143.11       1393.67       1043.73         12.45          0.01          2.81          0.71
   143.12       1389.92       1040.88         12.44          0.01         -4.81          0.71
   143.13       1389.93       1040.88         12.44          0.01         -1.02          0.71
   143.14       1393.77       1043.73         12.44          0.01          2.81          0.71
   143.15       1389.98       1040.88         12.44          0.01         -4.82          0.71
   143.16       1393.77       1043.73         12.44          0.01          2.25          0.71
   143.17       1389.95       1040.88         12.44          0.01         -5.33          0.71
   143.18       1390.44       1041.29         12.44          0.01         -0.97          0.71
   143.19       1394.22       1044.14         12.45          0.01          2.92          0.71
   143.20       1390.38       1041.29         12.45          0.01         -4.63          0.71
   143.21       1394.22       1044.14         12.45          0.01          3.05          0.35
   143.22       1390.51       1041.29         12.44          0.00         -4.43          0.35
   143.23       1390.57       1041.29         12.44          0.00         -0.56          0.35
   143.24       1394.44       1044.14         12.44         -0.00          3.34          0.00
   143.25       1391.20       1041.70         12.44         -0.00         -3.69          0.00
   143.26       1394.99       1044.55         12.44         -0.00          3.94          0.00
   143.27       1391.17       1041.70         12.44         -0.00         -3.08          0.00
   143.28       1391.17       1041.70         12.44         -0.01          0.20          0.00
   143.29       1395.02       1044.55         12.44         -0.01          4.07          0.00
   143.30       1391.26       1041.70         12.44         -0.01         -3.53          0.00
   143.31       1395.15       1044.55         12.43         -0.01          4.13          0.00
   143.32       1391.43       1041.70         12.43         -0.01         -3.43          0.00
   143.33       1391.46       1041.70         12.43         -0.01          0.41          0.00
   143.34       1395.31       1044.55         12.43         -0.01          4.28          0.00
   143.35       1391.51       1041.70         12.43         -0.01         -3.37          0.00
   143.36       1394.79       1044.14         12.43         -0.01          3.14          0.00
   143.37       1391.03       1041.29         12.43         -0.01         -0.66          0.00
   143.38       1391.06       1041.29         12.43         -0.01         -0.73          0.00
   143.39       1394.89       1044.14         12.43         -0.01          3.57          0.00
   143.40       1391.05       1041.29         12.43         -0.01         -4.12          0.00
   143.41       1391.51       1041.70         12.43         -0.00          0.08          0.00
   143.42       1391.38       1041.70         12.43          0.00         -0.08          0.00
   143.43       1391.25       1041.70         12.44          0.01         -0.20          0.00
   143.44       1394.92       1044.55         12.44          0.01          3.46          0.00
   143.45       1391.03       1041.70         12.44          0.01         -4.23          0.00
   143.46       1391.02       1041.70         12.44          0.01         -0.42          0.00
   143.47       1391.03       1041.70         12.44          0.01          0.15          0.00
   143.48       1391.08       1041.70         12.44          0.01         -3.57          0.00
   143.49       1394.95       1044.55         12.44          0.01          4.12          0.00
   143.50       1391.23       1041.70         12.44          0.00         -3.41          0.00
   143.51       1391.30       1041.70         12.44          0.00          0.41          0.00
   143.52       1394.62       1044.14         12.43          0.00          3.73          0.00
   143.53       1390.37       1040.88         12.43          0.00         -4.35          0.00
   143.54       1394.23       1043.73         12.43         -0.00          3.28          0.00
   143.55       1391.05       1041.29         12.43         -0.00         -3.71          0.00
   143.56       1390.55       1040.88         12.43         -0.00         -0.40          0.00
   143.57       1394.33       1043.73         12.43         -0.00          3.38          0.00
   143.58       1390.45       1040.88         12.43         -0.00         -4.27          0.00
   143.59       1394.11       1043.73         12.43          0.00          3.21          0.00
   143.60       1390.18       1040.88         12.44          0.00         -4.53          0.00
   143.61       1390.62       1041.29         12.44          0.01         -0.29          0.00
   143.62       1394.36       1044.14         12.44          0.01          3.43          0.35
   143.63       1390.54       1041.29         12.44          0.01         -4.23          0.35
   143.64       1391.05       1041.70         12.44          0.01          0.05          0.71
   143.65       1391.02       1041.70         12.44          0.01         -3.82          0.71
   143.66       1390.43       1041.29         12.44          0.02         -0.64          0.71
   143.67       1394.73       1044.55         12.45          0.02          3.62          0.71
