#Written by Robertson Geologging WinLogger V1.5/410
~VERSION INFORMATION
#------------------------------------------------------------------------------
 VERS. 2.0 : CWLS LOG ASCII STANDARD - VERSION 2.0
 WRAP. NO  : ONE LINE PER DEPTH STEP
~WELL INFORMATION
#MNEM.UNIT         DATA                                DESCRIPTION OF MNEMONIC
#------------------------------------------------------------------------------
 STRT.M          0.0600                            :   START DEPTH
 STOP.M        195.0000                            :   STOP DEPTH
 STEP.M          0.0100                            :   STEP VALUE
 NULL.        -999.2500                            :   NULL VALUE
 COMP.    Coal Authority                           :   COMPANY NAME
 WELL.    Thrislington Shaft                       :   WELL NAME
 FLD.     N/A                                      :   FIELD NAME
 LOC.     N/A                                      :   LOCATION
 PROV.    N/A                                      :   PROVINCE
 SRVC.    N/A                                      :   SERVICE COMPANY NAME
 DATE.    15 Dec 08                                :   DATE
 UWI.     N/A                                      :   UNIQUE WELL IDENTIFIER
~PARAMETER INFORMATION
#MNEMO.UNIT         VALUE                 DESCRIPTION OF MNEMONIC
#------------------------------------------------------------------------------
~OTHER INFORMATION SECTION
#------------------------------------------------------------------------------
 TCDS 1365
 15,12,2008
~CURVE INFORMATION
#MNEMO.UNIT         API CODE              CURVE DESCRIPTION
#------------------------------------------------------------------------------
 DEPTH.M                                 :   0     Depth
 COND.uS/cm                              :   1     Conductivity@25DegC
 COND.uS/cm                              :   2     Absolute Conductivity
 TEMP.DegC                               :   3     Temperature
 DELT.DegC                               :   4     Delta T
 DELC.uS/cm                              :   5     Delta C
 NGAM.CPS                                :   6     Natural Gamma
#------------------------------------------------------------------------------
~A  DEPTH          COND          COND          TEMP          DELT          DELC          NGAM
# ...
    77.46       1391.42       1040.88         12.40         -0.01          0.52          0.00
    77.47       1391.37       1040.88         12.41         -0.01         -3.34          0.00
    77.48       1391.33       1040.88         12.41         -0.01         -3.56          0.35
    77.49       1387.52       1038.03         12.41         -0.00         -7.54          0.35
    77.50       1391.37       1040.88         12.41         -0.00         -3.78          0.35
    77.51       1390.84       1040.48         12.40          0.00         -4.35          0.35
    77.52       1390.86       1040.48         12.40         -0.00         -4.32          0.35
    77.53       1390.86       1040.48         12.40         -0.00         -4.27          0.35
    77.54       1391.38       1040.88         12.40         -0.00         -4.30          0.35
    77.55       1391.35       1040.88         12.41          0.00         -4.39          0.35
    77.56       1391.30       1040.88         12.41          0.00         -0.66          0.35
    77.57       1390.71       1040.48         12.41          0.01         -1.33          0.35
    77.58       1390.64       1040.48         12.41          0.01         -1.48          0.35
    77.59       1390.64       1040.48         12.41          0.01         -1.51          0.35
    77.60       1390.68       1040.48         12.41          0.01          2.30          0.35
    77.61       1390.69       1040.48         12.41          0.01         -1.51          0.35
    77.62       1391.24       1040.88         12.41          0.01         -0.36          0.35
    77.63       1386.90       1037.63         12.41          0.01         -4.68          0.35
    77.64       1390.71       1040.48         12.41          0.01         -0.90          0.35
    77.65       1390.71       1040.48         12.41          0.01         -0.92          0.00
    77.66       1386.93       1037.63         12.41          0.01         -4.70          0.00
    77.67       1390.76       1040.48         12.41          0.01         -0.34          0.35
    77.68       1390.76       1040.48         12.41          0.01         -0.29          0.35
    77.69       1387.00       1037.63         12.41          0.00         -3.96          0.35
    77.70       1390.86       1040.48         12.40          0.00         -0.07          0.35
    77.71       1390.89       1040.48         12.40          0.00          0.00          0.71
    77.72       1390.94       1040.48         12.40         -0.00          0.07          0.71
    77.73       1390.99       1040.48         12.40         -0.00          0.11          0.71
    77.74       1391.53       1040.88         12.40         -0.00          4.45          0.71
    77.75       1391.55       1040.88         12.40         -0.00          0.61          0.71
    77.76       1391.04       1040.48         12.40         -0.00          0.08          0.71
    77.77       1391.05       1040.48         12.40         -0.00          3.88          0.71
    77.78       1391.10       1040.48         12.40         -0.00         -0.41          0.71
    77.79       1391.71       1040.88         12.40         -0.01          0.76          0.71
    77.80       1391.17       1040.48         12.40         -0.00          0.15          0.71
    77.81       1391.12       1040.48         12.40         -0.00          0.03          0.71
    77.82       1391.07       1040.48         12.40          0.00         -0.07          0.71
    77.83       1387.14       1037.63         12.40          0.01         -4.01          0.71
    77.84       1390.89       1040.48         12.40          0.01         -0.80          0.35
    77.85       1390.84       1040.48         12.40          0.01         -0.80          0.35
    77.86       1390.81       1040.48         12.41          0.01         -0.77          0.35
    77.87       1391.37       1040.88         12.41          0.01         -0.20          0.35
    77.88       1391.40       1040.88         12.40          0.00         -0.16          0.00
    77.89       1391.43       1040.88         12.40          0.00         -0.15          0.00
    77.90       1391.43       1040.88         12.40          0.00         -0.71          0.00
    77.91       1391.99       1041.29         12.40          0.00          3.74          0.00
    77.92       1392.01       1041.29         12.40         -0.00          0.07          0.00
    77.93       1392.04       1041.29         12.40         -0.00          0.69          0.00
    77.94       1395.95       1044.14         12.40         -0.01          8.41          0.00
    77.95       1392.20       1041.29         12.40         -0.01          0.77          0.00
    77.96       1391.71       1040.88         12.40         -0.00          0.18          0.00
    77.97       1391.71       1040.88         12.40         -0.00          3.96          0.00
    77.98       1391.69       1040.88         12.40         -0.00          0.15          0.00
    77.99       1391.68       1040.88         12.40         -0.00          0.16          0.00
    78.00       1391.68       1040.88         12.40         -0.00          3.99          0.00
    78.01       1391.69       1040.88         12.40         -0.00          0.18          0.00
    78.02       1391.66       1040.88         12.40         -0.00          0.03          0.00
    78.03       1391.64       1040.88         12.40          0.00         -0.07          0.00
    78.04       1391.60       1040.88         12.40          0.00         -0.66          0.00
    78.05       1387.77       1038.03         12.40          0.00         -4.47          0.00
    78.06       1391.60       1040.88         12.40          0.00         -0.54          0.00
    78.07       1392.14       1041.29         12.40         -0.00          0.63          0.00
    78.08       1387.82       1038.03         12.40         -0.00         -3.68          0.00
    78.09       1391.63       1040.88         12.40         -0.00          0.15          0.00
    78.10       1391.63       1040.88         12.40         -0.00          0.16          0.00
    78.11       1391.63       1040.88         12.40         -0.01          0.21          0.00
    78.12       1391.05       1040.48         12.40         -0.01         -0.30          0.00
    78.13       1391.07       1040.48         12.40         -0.01         -0.18          0.00
    78.14       1391.05       1040.48         12.40         -0.01          3.67          0.35
    78.15       1391.04       1040.48         12.40         -0.01         -0.12          0.35
    78.16       1391.02       1040.48         12.40         -0.01          0.42          0.35
    78.17       1390.99       1040.48         12.40         -0.01          4.18          0.35
    78.18       1391.00       1040.48         12.40         -0.01         -0.20          0.35
    78.19       1391.02       1040.48         12.40         -0.01         -0.22          0.35
    78.20       1391.04       1040.48         12.40         -0.01          3.56          0.35
    78.21       1391.05       1040.48         12.40         -0.01         -0.27          0.35
    78.22       1387.24       1037.63         12.40         -0.01         -4.09          0.35
    78.23       1391.63       1040.88         12.40         -0.01          4.07          0.35
    78.24       1391.61       1040.88         12.40         -0.01          0.24          0.35
    78.25       1387.78       1038.03         12.40         -0.01         -3.05          0.35
    78.26       1391.58       1040.88         12.40         -0.00          0.71          0.35
    78.27       1391.53       1040.88         12.40         -0.00          0.13          0.35
    78.28       1387.18       1037.63         12.40         -0.00         -4.24          0.35
    78.29       1390.97       1040.48         12.40         -0.00         -0.41          0.35
    78.30       1391.53       1040.88         12.40         -0.01          0.24          1.18
    78.31       1391.53       1040.88         12.40         -0.01          0.33          0.82
