#Written by Robertson Geologging WinLogger V1.0/406
~VERSION INFORMATION
#------------------------------------------------------------------------------
 VERS. 2.0 : CWLS LOG ASCII STANDARD - VERSION 2.0
 WRAP. NO  : ONE LINE PER DEPTH STEP
~WELL INFORMATION
#MNEM.UNIT         DATA                                DESCRIPTION OF MNEMONIC
#------------------------------------------------------------------------------
 STRT.M         42.0600                            :   START DEPTH
 STOP.M        195.0000                            :   STOP DEPTH
 STEP.M          0.0100                            :   STEP VALUE
 NULL.        -999.2500                            :   NULL VALUE
 COMP.    I.W.S.                                   :   COMPANY NAME
 WELL.    Thrislington                             :   WELL NAME
 FLD.     Thrislington                             :   FIELD NAME
 LOC.     N/A                                      :   LOCATION
 PROV.    N/A                                      :   PROVINCE
 SRVC.    N/A                                      :   SERVICE COMPANY NAME
 DATE.    21 Jul 09                                :   DATE
 UWI.     N/A                                      :   UNIQUE WELL IDENTIFIER
~PARAMETER INFORMATION
#MNEMO.UNIT         VALUE                 DESCRIPTION OF MNEMONIC
#------------------------------------------------------------------------------
~OTHER INFORMATION SECTION
#------------------------------------------------------------------------------
 TCGS 1365
~CURVE INFORMATION
#MNEMO.UNIT         API CODE              CURVE DESCRIPTION
#------------------------------------------------------------------------------
 DEPTH.M                                 :   0     Depth
 TEMP.DegC                               :   1     Temperature
 CN25.uS/cm                              :   2     Conductivity@25DegC
 DELT.DegC                               :   3     Delta T
 DELC.uS/cm                              :   4     Delta C
 NGAM.CPS                                :   5     Natural Gamma
 COND.uS/cm                              :   6     Conductivity
#------------------------------------------------------------------------------
~A  DEPTH     TEMP      CN25      DELT      DELC      NGAM      COND      
# ...
   122.29     12.24   1298.81      0.01     -6.38      0.00    962.85 
   122.30     12.25   1296.23      0.00     -0.17      0.00    961.05 
   122.31     12.25   1304.50      0.00      8.27      0.00    967.35 
   122.32     12.26   1298.13      0.01      1.90      8.00    962.85 
   122.33     12.27   1295.37      0.02     -0.86      0.00    961.05 
   122.34     12.26   1295.54      0.02     -3.10     14.00    961.05 
   122.35     12.27   1295.37      0.02     -0.69      0.00    961.05 
   122.36     12.26   1298.13      0.00     -6.20      0.00    962.85 
   122.37     12.25   1295.89      0.00      0.00      0.00    961.05 
   122.38     12.25   1295.89      0.00     -0.17      0.00    961.05 
   122.39     12.25   1298.64      0.00      2.41      0.00    962.85 
   122.40     12.24   1296.40     -0.01     -2.07      0.00    961.05 
   122.41     12.25   1298.47     -0.00      2.58      8.00    962.85 
   122.42     12.25   1304.50      0.00      8.27      0.00    967.35 
   122.43     12.26   1295.71      0.01     -8.96      0.00    961.05 
   122.44     12.25   1295.89      0.01     -0.52      0.00    961.05 
   122.45     12.25   1298.30      0.01      1.90      0.00    962.85 
   122.46     12.25   1296.06      0.01     -0.34      0.00    961.05 
   122.47     12.25   1295.89      0.01     -2.93      0.00    961.05 
   122.48     12.26   1295.54      0.02     -0.69      0.00    961.05 
   122.49     12.26   1304.16      0.01      7.93      0.00    967.35 
   122.50     12.26   1295.71      0.01     -8.79      0.00    961.05 
   122.51     12.25   1298.30      0.00      2.24      8.00    962.85 
   122.52     12.25   1296.06      0.00     -0.17      0.00    961.05 
   122.53     12.25   1295.89      0.01     -0.34     14.00    961.05 
   122.54     12.25   1296.06      0.01     -0.34      7.00    961.05 
   122.55     12.25   1304.50      0.00      8.27      0.00    967.35 
   122.56     12.25   1295.89      0.00     -2.41      0.00    961.05 
   122.57     12.25   1296.23     -0.01     -8.10      7.00    961.05 
   122.58     12.25   1296.23     -0.01      0.34      0.00    961.05 
   122.59     12.25   1298.30      0.00      2.41      0.00    962.85 
   122.60     12.26   1295.71      0.01     -0.34      0.00    961.05 
   122.61     12.26   1295.54      0.01     -0.34      7.00    961.05 
   122.62     12.26   1303.98      0.00      8.27      7.00    967.35 
   122.63     12.25   1296.06     -0.01     -8.10      0.00    961.05 
   122.64     12.24   1296.40     -0.02     -1.55      0.00    961.05 
   122.65     12.24   1296.57     -0.03      1.03      0.00    961.05 
   122.66     12.23   1296.75     -0.04      1.37      0.00    961.05 
   122.67     12.24   1304.85     -0.03      9.48      7.00    967.35 
   122.68     12.24   1296.40     -0.01      0.52      7.00    961.05 
   122.69     12.25   1298.47      0.01      2.07      0.00    962.85 
   122.70     12.25   1295.89      0.02     -9.14      0.00    961.05 
   122.71     12.25   1295.89      0.02     -0.69      0.00    961.05 
   122.72     12.26   1295.54      0.03     -3.45      0.00    961.05 
   122.73     12.26   1295.71      0.01     -0.34      0.00    961.05 
   122.74     12.25   1304.33      0.00      8.27      0.00    967.35 
   122.75     12.25   1296.06      0.00      0.00      7.00    961.05 
   122.76     12.25   1296.23     -0.01      0.34      0.00    961.05 
   122.77     12.25   1296.23      0.00     -8.45      0.00    961.05 
   122.78     12.24   1296.40     -0.01      7.75      0.00    961.05 
   122.79     12.24   1304.85     -0.02      0.86      0.00    967.35 
   122.80     12.25   1296.06     -0.01      0.52     14.00    961.05 
   122.81     12.25   1298.47     -0.01      2.76      0.00    962.85 
   122.82     12.25   1295.89     -0.01     -2.07      0.00    961.05 
   122.83     12.26   1295.71      0.00      0.00      0.00    961.05 
   122.84     12.25   1295.89     -0.01      0.34      0.00    961.05 
   122.85     12.25   1295.89     -0.01      0.52      0.00    961.05 
   122.86     12.25   1304.33     -0.01      0.35      0.00    967.35 
   122.87     12.25   1296.06     -0.01     -1.90      0.00    961.05 
   122.88     12.25   1296.23     -0.01      0.34      0.00    961.05 
   122.89     12.25   1296.06      0.01     -0.34      0.00    961.05 
   122.90     12.25   1298.30      0.01     -0.52      0.00    962.85 
   122.91     12.25   1295.89      0.01     -0.34      0.00    961.05 
   122.92     12.26   1304.16      0.01      8.10      0.00    967.35 
   122.93     12.25   1296.06     -0.01      0.34      7.00    961.05 
   122.94     12.25   1296.23     -0.01     -7.93      0.00    961.05 
   122.95     12.25   1296.06      0.00      7.24      0.00    961.05 
   122.96     12.25   1298.47     -0.00     -5.86      0.00    962.85 
   122.97     12.25   1296.06     -0.00      0.17      7.00    961.05 
   122.98     12.25   1295.89      0.01     -0.34      0.00    961.05 
   122.99     12.25   1304.50      0.00      8.45      7.00    967.35 
   123.00     12.25   1296.23     -0.00     -2.24      7.00    961.05 
   123.01     12.25   1298.47      0.00      2.41      0.00    962.85 
   123.02     12.25   1296.23      0.00      0.00      0.00    961.05 
   123.03     12.25   1296.06      0.01     -8.79      0.00    961.05 
   123.04     12.25   1296.23      0.00     -2.59      0.00    961.05 
   123.05     12.24   1305.02     -0.00      8.62      0.00    967.35 
   123.06     12.25   1288.82     -0.00     -7.07      0.00    955.66 
   123.07     12.25   1304.50      0.00      8.45      0.00    967.35 
   123.08     12.25   1296.06      0.00     -0.17      0.00    961.05 
   123.09     12.26   1295.71      0.01     -2.93      0.00    961.05 
   123.10     12.25   1298.30      0.01      1.90      0.00    962.85 
   123.11     12.25   1295.89      0.01     -8.96      0.00    961.05 
   123.12     12.26   1295.71      0.02     -0.69      0.00    961.05 
   123.13     12.26   1295.71      0.02     -3.10      0.00    961.05 
   123.14     12.26   1298.13      0.02      1.72      0.00    962.85 
   123.15     12.25   1304.50      0.00      8.27      0.00    967.35 
   123.16     12.25   1295.89      0.01     -0.34      0.00    961.05 
   123.17     12.25   1295.89      0.01     -0.34      7.00    961.05 
   123.18     12.26   1298.13      0.00     -0.17      0.00    962.85 
   123.19     12.26   1295.71      0.00     -0.17      0.00    961.05 
   123.20     12.25   1296.06      0.00     -8.45      0.00    961.05 
   123.21     12.25   1296.06      0.00     -2.41      0.00    961.05 
   123.22     12.25   1298.64      0.00      2.41      0.00    962.85 
   123.23     12.25   1296.23     -0.00      0.17      0.00    961.05 
   123.24     12.25   1304.50     -0.01      8.79      7.00    967.35 
   123.25     12.25   1295.89     -0.00     -2.24      0.00    961.05 
   123.26     12.25   1298.47     -0.00      2.58      0.00    962.85 
   123.27     12.25   1295.89      0.00     -0.17      0.00    961.05 
   123.28     12.26   1295.71      0.02     -3.10      0.00    961.05 
   123.29     12.26   1295.71      0.01     -0.52      0.00    961.05 
   123.30     12.25   1298.30      0.00     -6.20      0.00    962.85 
   123.31     12.26   1295.71      0.00     -2.41      0.00    961.05 
   123.32     12.25   1304.50     -0.02      9.13      0.00    967.35 
   123.33     12.26   1295.71     -0.00      0.17      0.00    961.05 
   123.34     12.26   1297.95     -0.00      2.58      0.00    962.85 
   123.35     12.26   1295.71      0.00     -2.41      0.00    961.05 
   123.36     12.26   1295.54      0.01     -0.34      0.00    961.05 
   123.37     12.26   1295.71      0.00     -0.17      0.00    961.05 
   123.38     12.25   1295.89      0.01     -2.76      0.00    961.05 
   123.39     12.26   1298.13      0.02      1.72      0.00    962.85 
   123.40     12.26   1295.54      0.01     -2.93      0.00    961.05 
   123.41     12.26   1304.16      0.01     -0.35      0.00    967.35 
