#Written by Robertson Geologging WinLogger V1.5/410
~VERSION INFORMATION
#------------------------------------------------------------------------------
 VERS. 2.0 : CWLS LOG ASCII STANDARD - VERSION 2.0
 WRAP. NO  : ONE LINE PER DEPTH STEP
~WELL INFORMATION
#MNEM.UNIT         DATA                                DESCRIPTION OF MNEMONIC
#------------------------------------------------------------------------------
 STRT.M          0.0600                            :   START DEPTH
 STOP.M        195.0000                            :   STOP DEPTH
 STEP.M          0.0100                            :   STEP VALUE
 NULL.        -999.2500                            :   NULL VALUE
 COMP.    Coal Authority                           :   COMPANY NAME
 WELL.    Thrislington Shaft                       :   WELL NAME
 FLD.     N/A                                      :   FIELD NAME
 LOC.     N/A                                      :   LOCATION
 PROV.    N/A                                      :   PROVINCE
 SRVC.    N/A                                      :   SERVICE COMPANY NAME
 DATE.    15 Dec 08                                :   DATE
 UWI.     N/A                                      :   UNIQUE WELL IDENTIFIER
~PARAMETER INFORMATION
#MNEMO.UNIT         VALUE                 DESCRIPTION OF MNEMONIC
#------------------------------------------------------------------------------
~OTHER INFORMATION SECTION
#------------------------------------------------------------------------------
 TCDS 1365
 15,12,2008
~CURVE INFORMATION
#MNEMO.UNIT         API CODE              CURVE DESCRIPTION
#------------------------------------------------------------------------------
 DEPTH.M                                 :   0     Depth
 COND.uS/cm                              :   1     Conductivity@25DegC
 COND.uS/cm                              :   2     Absolute Conductivity
 TEMP.DegC                               :   3     Temperature
 DELT.DegC                               :   4     Delta T
 DELC.uS/cm                              :   5     Delta C
 NGAM.CPS                                :   6     Natural Gamma
#------------------------------------------------------------------------------
~A  DEPTH          COND          COND          TEMP          DELT          DELC          NGAM
# ...
    38.76        349.97        224.09          7.02          0.13         -2.05         19.41
    38.77        346.31        221.75          7.02          0.13         -5.06         18.53
    38.78        349.95        224.09          7.02          0.13         -2.00         18.53
    38.79        349.95        224.09          7.02          0.13         -1.98         19.71
    38.80        349.95        224.09          7.02          0.12         -1.36         19.35
    38.81        349.96        224.09          7.02          0.12         -1.97         19.88
    38.82        349.97        224.09          7.02          0.12          1.71         19.06
    38.83        349.98        224.09          7.01          0.12         -1.93         20.59
    38.84        349.99        224.09          7.01          0.12         -1.29         22.06
    38.85        350.00        224.09          7.01          0.11         -1.87         22.94
    38.86        350.01        224.09          7.01          0.11          1.82         21.06
    38.87        350.65        224.48          7.01          0.11         -0.57         19.94
    38.88        350.07        224.09          7.01          0.10          1.92         19.18
    38.89        350.10        224.09          7.00          0.10         -1.68         19.18
    38.90        347.08        222.14          7.00          0.09         -1.01         18.65
    38.91        350.73        224.48          7.00          0.09         -0.96         18.65
    38.92        347.09        222.14          7.00          0.08         -0.89         18.12
    38.93        350.74        224.48          7.00          0.08         -0.83         18.82
    38.94        347.10        222.14          7.00          0.07         -0.77         18.59
    38.95        350.14        224.09          7.00          0.07         -1.94         18.41
    38.96        347.11        222.14          7.00          0.06         -0.67         18.41
    38.97        350.15        224.09          7.00          0.06         -1.24         19.18
    38.98        350.14        224.09          7.00          0.05          1.84         18.65
    38.99        350.75        224.48          7.00          0.05         -1.16         19.06
    39.00        350.13        224.09          7.00          0.05          1.91         17.94
    39.01        350.13        224.09          7.00          0.05         -1.72         16.12
    39.02        350.14        224.09          7.00          0.04          1.35         16.47
    39.03        350.14        224.09          7.00          0.04         -1.68         15.76
    39.04        350.15        224.09          7.00          0.04          1.98         15.76
    39.05        350.16        224.09          7.00          0.04         -1.64         18.00
    39.06        350.76        224.48          7.00          0.04          3.25         17.59
    39.07        350.75        224.48          7.00          0.04         -1.01         17.59
    39.08        350.74        224.48          7.00          0.04          3.25         17.59
    39.09        347.09        222.14          7.00          0.04         -4.04         17.29
    39.10        350.75        224.48          7.00          0.04          3.26         18.41
    39.11        347.72        222.53          7.00          0.03         -3.40         18.65
    39.12        351.37        224.87          7.00          0.03          0.88         18.82
    39.13        347.11        222.14          7.00          0.03         -3.36         18.00
    39.14        350.76        224.48          7.00          0.03          3.36         20.53
    39.15        347.73        222.53          7.00          0.02         -3.29         20.29
    39.16        350.78        224.48          7.00          0.02          0.37         20.18
    39.17        347.15        222.14          7.00          0.02         -3.86         20.18
    39.18        350.82        224.48          6.99          0.02          3.46         22.00
    39.19        347.19        222.14          6.99          0.02         -4.42         21.88
    39.20        350.86        224.48          6.99          0.01          2.92         23.35
    39.21        347.23        222.14          6.99          0.01         -3.72         22.94
    39.22        350.91        224.48          6.99          0.00         -0.05         21.47
    39.23        346.68        221.76          6.98          0.00         -1.24         21.18
    39.24        350.97        224.48          6.98          0.00         -0.01         20.76
    39.25        347.33        222.14          6.98         -0.00         -3.64         21.12
    39.26        350.37        224.09          6.98         -0.00         -0.60         21.53
    39.27        347.33        222.14          6.98         -0.00          0.03         20.06
    39.28        350.98        224.48          6.98         -0.00          0.05         18.76
    39.29        350.36        224.09          6.98         -0.00         -0.56         18.76
    39.30        350.98        224.48          6.98         -0.00          0.66         19.59
    39.31        350.97        224.48          6.98         -0.00          0.63         16.24
    39.32        350.95        224.48          6.98          0.00         -0.01         16.59
    39.33        350.32        224.09          6.98          0.00          3.61         16.35
    39.34        350.91        224.48          6.98          0.00          0.57         15.65
    39.35        350.90        224.48          6.99          0.00          3.64         14.12
    39.36        350.90        224.48          6.99         -0.00          0.00         13.35
    39.37        350.91        224.48          6.98         -0.00          4.30         11.53
    39.38        350.90        224.48          6.99         -0.01          0.06         12.53
    39.39        350.89        224.48          6.99         -0.01          3.71         13.29
    39.40        347.24        222.14          6.99         -0.01         -3.54         14.00
    39.41        350.88        224.48          6.99         -0.01          3.18         14.41
    39.42        346.61        221.75          6.99         -0.02         -4.07         15.00
    39.43        350.26        224.09          6.99         -0.02          3.28         14.65
    39.44        346.62        221.76          6.99         -0.03         -4.57         15.00
    39.45        350.25        224.09          6.99         -0.03          2.75         16.47
    39.46        346.60        221.76          6.99         -0.03         -4.51         16.06
    39.47        349.65        223.70          6.99         -0.04          2.82         15.65
    39.48        350.26        224.09          6.99         -0.04         -0.81         15.65
    39.49        350.29        224.09          6.99         -0.04          2.89         14.94
    39.50        346.66        221.76          6.98         -0.05         -3.76         14.94
    39.51        350.93        224.48          6.98         -0.05          4.18         15.29
    39.52        350.33        224.09          6.98         -0.05         -0.04         15.71
    39.53        350.95        224.48          6.98         -0.05          0.59         16.24
    39.54        347.31        222.14          6.98         -0.05         -3.05         16.94
    39.55        350.96        224.48          6.98         -0.06          4.25         17.82
    39.56        350.98        224.48          6.98         -0.06          0.62         16.65
    39.57        351.00        224.48          6.98         -0.06          1.23         17.76
    39.58        351.62        224.87          6.98         -0.06          1.22         16.71
    39.59        347.38        222.14          6.97         -0.06         -3.02         16.47
    39.60        351.03        224.48          6.97         -0.06          0.63         16.82
    39.61        351.04        224.48          6.97         -0.06          0.63         17.59
