#Written by Robertson Geologging WinLogger V1.0/406
~VERSION INFORMATION
#------------------------------------------------------------------------------
 VERS. 2.0 : CWLS LOG ASCII STANDARD - VERSION 2.0
 WRAP. NO  : ONE LINE PER DEPTH STEP
~WELL INFORMATION
#MNEM.UNIT         DATA                                DESCRIPTION OF MNEMONIC
#------------------------------------------------------------------------------
 STRT.M         42.0600                            :   START DEPTH
 STOP.M        195.0000                            :   STOP DEPTH
 STEP.M          0.0100                            :   STEP VALUE
 NULL.        -999.2500                            :   NULL VALUE
 COMP.    I.W.S.                                   :   COMPANY NAME
 WELL.    Thrislington                             :   WELL NAME
 FLD.     Thrislington                             :   FIELD NAME
 LOC.     N/A                                      :   LOCATION
 PROV.    N/A                                      :   PROVINCE
 SRVC.    N/A                                      :   SERVICE COMPANY NAME
 DATE.    21 Jul 09                                :   DATE
 UWI.     N/A                                      :   UNIQUE WELL IDENTIFIER
~PARAMETER INFORMATION
#MNEMO.UNIT         VALUE                 DESCRIPTION OF MNEMONIC
#------------------------------------------------------------------------------
~OTHER INFORMATION SECTION
#------------------------------------------------------------------------------
 TCGS 1365
~CURVE INFORMATION
#MNEMO.UNIT         API CODE              CURVE DESCRIPTION
#------------------------------------------------------------------------------
 DEPTH.M                                 :   0     Depth
 TEMP.DegC                               :   1     Temperature
 CN25.uS/cm                              :   2     Conductivity@25DegC
 DELT.DegC                               :   3     Delta T
 DELC.uS/cm                              :   4     Delta C
 NGAM.CPS                                :   5     Natural Gamma
 COND.uS/cm                              :   6     Conductivity
#------------------------------------------------------------------------------
~A  DEPTH     TEMP      CN25      DELT      DELC      NGAM      COND      
# ...
   132.46     12.26   1295.71      0.01     -0.34      0.00    961.05 
   132.47     12.26   1295.71      0.01     -8.79      0.00    961.05 
   132.48     12.25   1295.89      0.00     -2.58      7.00    961.05 
   132.49     12.25   1298.30     -0.00      2.58      8.00    962.85 
   132.50     12.25   1295.89      0.00     -0.17      0.00    961.05 
   132.51     12.26   1304.16      0.02      7.76      0.00    967.35 
   132.52     12.25   1296.06      0.02     -3.10      0.00    961.05 
   132.53     12.25   1296.06      0.02     -0.69      0.00    961.05 
   132.54     12.25   1296.06      0.01     -0.34      0.00    961.05 
   132.55     12.25   1304.33     -0.00      0.17      0.00    967.35 
   132.56     12.26   1288.31     -0.01     -9.30      0.00    955.66 
   132.57     12.26   1304.16     -0.01      8.96      0.00    967.35 
   132.58     12.26   1295.71     -0.01      0.52      0.00    961.05 
   132.59     12.25   1295.89     -0.01      0.34      7.00    961.05 
   132.60     12.25   1296.23     -0.00     -2.24      0.00    961.05 
   132.61     12.25   1298.47     -0.00      2.58      0.00    962.85 
   132.62     12.24   1296.40     -0.01      0.52      0.00    961.05 
   132.63     12.24   1304.85     -0.01      0.35      0.00    967.35 
   132.64     12.25   1296.06     -0.00      0.17      7.00    961.05 
   132.65     12.25   1296.23     -0.01     -1.90      0.00    961.05 
   132.66     12.25   1288.82     -0.01     -6.89      0.00    955.66 
   132.67     12.25   1296.23     -0.02      0.69      0.00    961.05 
   132.68     12.24   1296.40     -0.02      0.69      0.00    961.05 
   132.69     12.24   1305.02     -0.02      0.69      0.00    967.35 
   132.70     12.24   1296.57     -0.01      7.75      0.00    961.05 
   132.71     12.25   1298.64     -0.01     -5.69      0.00    962.85 
   132.72     12.25   1295.89      0.00      0.00      0.00    961.05 
   132.73     12.25   1295.89      0.00     -0.17      0.00    961.05 
   132.74     12.25   1304.50      0.00      5.86      0.00    967.35 
   132.75     12.25   1296.06      0.01     -0.34      0.00    961.05 
   132.76     12.25   1298.47      0.01      2.07      0.00    962.85 
   132.77     12.25   1295.89      0.00     -8.62      0.00    961.05 
   132.78     12.25   1295.89      0.01     -0.34      0.00    961.05 
   132.79     12.25   1296.06      0.00     -2.41      0.00    961.05 
   132.80     12.25   1298.47     -0.01      2.76      0.00    962.85 
   132.81     12.25   1304.33     -0.00      8.62      7.00    967.35 
   132.82     12.25   1296.06     -0.01      0.52      0.00    961.05 
   132.83     12.25   1298.47     -0.00     -5.86      8.00    962.85 
   132.84     12.25   1296.06      0.00     -0.17      0.00    961.05 
   132.85     12.25   1296.06      0.00     -2.41      0.00    961.05 
   132.86     12.25   1296.06      0.00      0.00      0.00    961.05 
   132.87     12.25   1298.30     -0.00      2.58      8.00    962.85 
   132.88     12.25   1304.50     -0.01      8.79      0.00    967.35 
   132.89     12.25   1295.89     -0.00      0.17      0.00    961.05 
   132.90     12.26   1298.13     -0.00     -5.86     16.00    962.85 
   132.91     12.25   1295.89     -0.00     -2.24      0.00    961.05 
   132.92     12.25   1295.89      0.00      0.00      0.00    961.05 
   132.93     12.26   1298.13      0.01      2.07      8.00    962.85 
   132.94     12.26   1295.71      0.01     -0.52      0.00    961.05 
   132.95     12.25   1304.50      0.01      5.69      0.00    967.35 
   132.96     12.25   1288.82      0.00     -7.24      0.00    955.66 
   132.97     12.24   1304.85     -0.02      0.69      7.00    967.35 
   132.98     12.23   1296.75     -0.03      8.27      0.00    961.05 
   132.99     12.25   1296.23     -0.01     -7.93      0.00    961.05 
   133.00     12.25   1298.47     -0.00      2.58      0.00    962.85 
   133.01     12.25   1296.06      0.00     -0.17      0.00    961.05 
   133.02     12.26   1295.71      0.00     -2.41      0.00    961.05 
   133.03     12.26   1304.16      0.00      8.44      0.00    967.35 
   133.04     12.26   1298.13     -0.00      2.58      0.00    962.85 
   133.05     12.26   1295.71     -0.01     -2.07      0.00    961.05 
   133.06     12.26   1295.71     -0.00      0.17      0.00    961.05 
   133.07     12.26   1298.13     -0.00     -5.86      0.00    962.85 
   133.08     12.26   1295.71      0.00     -0.17      0.00    961.05 
   133.09     12.26   1297.95      0.01     -0.52      0.00    962.85 
   133.10     12.26   1295.71      0.02     -0.86      0.00    961.05 
   133.11     12.25   1304.33      0.02      7.76      0.00    967.35 
   133.12     12.25   1298.64      0.00      2.41      0.00    962.85 
   133.13     12.24   1296.40     -0.01     -2.07      0.00    961.05 
   133.14     12.24   1296.40     -0.02     -7.76      0.00    961.05 
   133.15     12.25   1298.64     -0.01      2.93      0.00    962.85 
   133.16     12.25   1296.23     -0.01      0.34      0.00    961.05 
   133.17     12.25   1296.06      0.00      0.00      0.00    961.05 
   133.18     12.25   1298.30      0.02      1.72      0.00    962.85 
   133.19     12.25   1295.89      0.01     -2.93      0.00    961.05 
   133.20     12.26   1298.13      0.01     -6.38      0.00    962.85 
   133.21     12.26   1297.95      0.01      1.90      0.00    962.85 
   133.22     12.26   1304.16     -0.00      8.61      0.00    967.35 
   133.23     12.25   1288.65     -0.01     -6.89      0.00    955.66 
   133.24     12.25   1298.47      0.00      2.41      0.00    962.85 
   133.25     12.25   1304.68     -0.01      6.38      0.00    967.35 
   133.26     12.25   1288.99     -0.01    -15.17      0.00    955.66 
   133.27     12.25   1298.47     -0.01      2.76      0.00    962.85 
   133.28     12.25   1298.30     -0.01      2.76      0.00    962.85 
   133.29     12.25   1304.33      0.00      8.44      0.00    967.35 
   133.30     12.26   1288.48      0.02     -7.92      0.00    955.66 
   133.31     12.25   1298.30      0.02     -6.72      0.00    962.85 
   133.32     12.25   1304.50      0.00      6.03      0.00    967.35 
   133.33     12.25   1288.99     -0.01     -6.90      0.00    955.66 
   133.34     12.25   1298.47     -0.00      2.58      0.00    962.85 
   133.35     12.25   1304.68     -0.01      8.79      0.00    967.35 
   133.36     12.25   1298.64      0.00      2.41      0.00    962.85 
   133.37     12.25   1296.23     -0.00     -8.27      7.00    961.05 
   133.38     12.24   1298.99     -0.02      0.86      0.00    962.85 
   133.39     12.24   1298.81     -0.03      3.44      0.00    962.85 
   133.40     12.24   1296.40     -0.02      0.86      0.00    961.05 
   133.41     12.25   1298.64     -0.02      3.10      8.00    962.85 
   133.42     12.25   1296.06     -0.00     -2.24      0.00    961.05 
   133.43     12.26   1298.13      0.00      2.41      8.00    962.85 
   133.44     12.26   1298.13     -0.00     -5.86      0.00    962.85 
   133.45     12.25   1295.89     -0.00      0.17      0.00    961.05 
   133.46     12.25   1298.30     -0.00      2.58      0.00    962.85 
   133.47     12.24   1296.40     -0.01      0.52      0.00    961.05 
   133.48     12.24   1298.81     -0.01      0.52      0.00    962.85 
   133.49     12.24   1296.40     -0.01      0.52      0.00    961.05 
   133.50     12.25   1298.64     -0.01     -5.51      0.00    962.85 
   133.51     12.25   1298.47      0.00      2.41      0.00    962.85 
   133.52     12.25   1296.06      0.00      0.00      0.00    961.05 
   133.53     12.25   1298.30      0.00      2.24      0.00    962.85 
   133.54     12.25   1304.68     -0.01      0.35      0.00    967.35 
   133.55     12.25   1298.47     -0.01     10.16      0.00    962.85 
   133.56     12.26   1295.71      0.00     -8.44      0.00    961.05 
   133.57     12.26   1297.95      0.00      2.24      0.00    962.85 
   133.58     12.26   1295.54      0.01     -0.34      0.00    961.05 
