#Written by Robertson Geologging WinLogger V1.5/410
~VERSION INFORMATION
#------------------------------------------------------------------------------
 VERS. 2.0 : CWLS LOG ASCII STANDARD - VERSION 2.0
 WRAP. NO  : ONE LINE PER DEPTH STEP
~WELL INFORMATION
#MNEM.UNIT         DATA                                DESCRIPTION OF MNEMONIC
#------------------------------------------------------------------------------
 STRT.M          0.0600                            :   START DEPTH
 STOP.M        195.0000                            :   STOP DEPTH
 STEP.M          0.0100                            :   STEP VALUE
 NULL.        -999.2500                            :   NULL VALUE
 COMP.    Coal Authority                           :   COMPANY NAME
 WELL.    Thrislington Shaft                       :   WELL NAME
 FLD.     N/A                                      :   FIELD NAME
 LOC.     N/A                                      :   LOCATION
 PROV.    N/A                                      :   PROVINCE
 SRVC.    N/A                                      :   SERVICE COMPANY NAME
 DATE.    15 Dec 08                                :   DATE
 UWI.     N/A                                      :   UNIQUE WELL IDENTIFIER
~PARAMETER INFORMATION
#MNEMO.UNIT         VALUE                 DESCRIPTION OF MNEMONIC
#------------------------------------------------------------------------------
~OTHER INFORMATION SECTION
#------------------------------------------------------------------------------
 TCDS 1365
 15,12,2008
~CURVE INFORMATION
#MNEMO.UNIT         API CODE              CURVE DESCRIPTION
#------------------------------------------------------------------------------
 DEPTH.M                                 :   0     Depth
 COND.uS/cm                              :   1     Conductivity@25DegC
 COND.uS/cm                              :   2     Absolute Conductivity
 TEMP.DegC                               :   3     Temperature
 DELT.DegC                               :   4     Delta T
 DELC.uS/cm                              :   5     Delta C
 NGAM.CPS                                :   6     Natural Gamma
#------------------------------------------------------------------------------
~A  DEPTH          COND          COND          TEMP          DELT          DELC          NGAM
# ...
   117.02       1391.08       1041.29         12.43          0.01         -4.13          1.76
   117.03       1394.93       1044.14         12.43          0.01         -0.25          1.76
   117.04       1391.19       1041.29         12.42          0.00          0.41          1.41
   117.05       1395.05       1044.14         12.42          0.00          0.49          1.06
   117.06       1391.27       1041.29         12.42          0.00          0.54          0.00
   117.07       1395.13       1044.14         12.42         -0.00          0.61          0.00
   117.08       1395.18       1044.14         12.42         -0.00          4.47          0.00
   117.09       1390.86       1040.88         12.42         -0.00         -3.68          0.00
   117.10       1394.70       1043.73         12.42         -0.00          0.15          0.00
   117.11       1390.89       1040.88         12.42         -0.00          0.66          0.00
   117.12       1394.67       1043.73         12.42         -0.00          0.61          0.00
   117.13       1394.11       1043.33         12.42         -0.00          3.84          0.00
   117.14       1394.11       1043.33         12.42          0.00          0.00          0.00
   117.15       1394.09       1043.33         12.42          0.00         -0.61          0.00
   117.16       1390.25       1040.48         12.42          0.00         -0.18          0.00
   117.17       1394.01       1043.33         12.42          0.01         -0.28          0.00
   117.18       1390.15       1040.48         12.42          0.01         -0.37          0.00
   117.19       1393.96       1043.33         12.42          0.01         -0.39          0.00
   117.20       1394.54       1043.73         12.42          0.01          4.01          0.00
   117.21       1390.20       1040.48         12.42          0.01         -0.31          0.00
   117.22       1393.99       1043.33         12.42          0.01         -0.84          0.00
   117.23       1390.19       1040.48         12.42          0.01         -0.82          0.00
   117.24       1394.54       1043.73         12.42          0.01         -0.21          0.00
   117.25       1390.19       1040.48         12.42          0.01         -0.74          0.35
   117.26       1393.99       1043.33         12.42          0.00          3.10          0.35
   117.27       1393.98       1043.33         12.42          0.00         -1.20          0.35
   117.28       1390.14       1040.48         12.42          0.00         -1.22          0.35
   117.29       1393.90       1043.33         12.42          0.00         -1.22          0.35
   117.30       1390.07       1040.48         12.43          0.00         -1.22          0.35
   117.31       1393.88       1043.33         12.43          0.00         -1.23          0.35
   117.32       1394.42       1043.73         12.43          0.00         -0.69          0.35
   117.33       1390.65       1040.88         12.42          0.00         -0.67          0.35
   117.34       1394.47       1043.73         12.42          0.00         -0.66          0.35
   117.35       1390.11       1040.48         12.42          0.00         -1.25          0.35
   117.36       1394.42       1043.73         12.43          0.01         -0.77          0.35
   117.37       1390.62       1040.88         12.43          0.01         -4.60          0.35
   117.38       1394.46       1043.73         12.42          0.01          3.60          0.35
   117.39       1393.96       1043.33         12.42          0.00         -0.69          0.35
   117.40       1390.22       1040.48         12.42          0.00         -0.61          0.35
   117.41       1394.04       1043.33         12.42          0.00         -0.56          0.35
   117.42       1390.22       1040.48         12.42          0.00          0.00          0.00
   117.43       1394.01       1043.33         12.42          0.00          0.00          0.41
   117.44       1394.01       1043.33         12.42         -0.00          0.02          0.41
   117.45       1390.22       1040.48         12.42         -0.00          0.59          0.41
   117.46       1394.59       1043.73         12.42         -0.00          1.17          0.41
   117.47       1390.83       1040.88         12.42         -0.00          1.27          0.41
   117.48       1394.62       1043.73         12.42         -0.01          1.30          0.41
   117.49       1390.80       1040.88         12.42         -0.01         -2.51          0.41
   117.50       1395.15       1044.14         12.42         -0.01          1.88          0.41
   117.51       1395.15       1044.14         12.42         -0.01          1.91          0.41
   117.52       1391.37       1041.29         12.42         -0.01          2.50          0.41
   117.53       1395.20       1044.14         12.42         -0.01          1.96          0.41
   117.54       1391.44       1041.29         12.42         -0.01          2.01          0.41
   117.55       1395.28       1044.14         12.42         -0.01          2.02          0.41
   117.56       1395.29       1044.14         12.42         -0.01          1.48          0.41
   117.57       1395.31       1044.14         12.42         -0.01          5.27          0.41
   117.58       1395.26       1044.14         12.42         -0.01          1.35          0.41
   117.59       1391.42       1041.29         12.42         -0.00          1.23          0.41
   117.60       1395.18       1044.14         12.42         -0.00          0.58          0.00
   117.61       1391.32       1041.29         12.42          0.00          0.46          0.00
   117.62       1395.10       1044.14         12.42          0.00          4.17          0.00
   117.63       1395.03       1044.14         12.42          0.01         -0.31          0.00
   117.64       1395.00       1044.14         12.42          0.01          3.43          0.00
   117.65       1394.93       1044.14         12.43          0.01         -0.47          0.00
   117.66       1391.06       1041.29         12.43          0.01          0.01          0.00
   117.67       1394.80       1044.14         12.43          0.02         -0.06          0.00
   117.68       1390.95       1041.29         12.43          0.02         -3.90          0.00
   117.69       1394.79       1044.14         12.43          0.01          3.83          0.00
   117.70       1394.84       1044.14         12.43          0.01          0.17          0.00
   117.71       1390.53       1040.88         12.43          0.01         -0.23          0.00
   117.72       1394.37       1043.73         12.43          0.00         -0.11          0.00
   117.73       1390.57       1040.88         12.43          0.00         -3.36          0.00
   117.74       1394.37       1043.73         12.43          0.00          4.27          0.00
   117.75       1390.57       1040.88         12.43          0.00         -3.31          0.00
   117.76       1394.39       1043.73         12.43          0.00          4.33          0.00
   117.77       1394.42       1043.73         12.43         -0.00          0.05          0.00
   117.78       1390.11       1040.48         12.42         -0.00         -0.45          0.00
   117.79       1393.96       1043.33         12.42         -0.00          3.43          0.00
   117.80       1390.14       1040.48         12.42         -0.00         -4.22          0.00
   117.81       1393.91       1043.33         12.42         -0.00          3.33          0.00
   117.82       1394.44       1043.73         12.42          0.00         -0.02          0.00
   117.83       1394.46       1043.73         12.42          0.00          3.78          0.00
   117.84       1394.49       1043.73         12.42         -0.00          3.30          0.00
   117.85       1390.17       1040.48         12.42         -0.00         -4.78          0.00
   117.86       1394.01       1043.33         12.42         -0.00          3.43          0.35
   117.87       1390.20       1040.48         12.42         -0.00         -4.19          0.35
