#Written by Robertson Geologging WinLogger V1.0/406
~VERSION INFORMATION
#------------------------------------------------------------------------------
 VERS. 2.0 : CWLS LOG ASCII STANDARD - VERSION 2.0
 WRAP. NO  : ONE LINE PER DEPTH STEP
~WELL INFORMATION
#MNEM.UNIT         DATA                                DESCRIPTION OF MNEMONIC
#------------------------------------------------------------------------------
 STRT.M         42.0600                            :   START DEPTH
 STOP.M        195.0000                            :   STOP DEPTH
 STEP.M          0.0100                            :   STEP VALUE
 NULL.        -999.2500                            :   NULL VALUE
 COMP.    I.W.S.                                   :   COMPANY NAME
 WELL.    Thrislington                             :   WELL NAME
 FLD.     Thrislington                             :   FIELD NAME
 LOC.     N/A                                      :   LOCATION
 PROV.    N/A                                      :   PROVINCE
 SRVC.    N/A                                      :   SERVICE COMPANY NAME
 DATE.    21 Jul 09                                :   DATE
 UWI.     N/A                                      :   UNIQUE WELL IDENTIFIER
~PARAMETER INFORMATION
#MNEMO.UNIT         VALUE                 DESCRIPTION OF MNEMONIC
#------------------------------------------------------------------------------
~OTHER INFORMATION SECTION
#------------------------------------------------------------------------------
 TCGS 1365
~CURVE INFORMATION
#MNEMO.UNIT         API CODE              CURVE DESCRIPTION
#------------------------------------------------------------------------------
 DEPTH.M                                 :   0     Depth
 TEMP.DegC                               :   1     Temperature
 CN25.uS/cm                              :   2     Conductivity@25DegC
 DELT.DegC                               :   3     Delta T
 DELC.uS/cm                              :   4     Delta C
 NGAM.CPS                                :   5     Natural Gamma
 COND.uS/cm                              :   6     Conductivity
#------------------------------------------------------------------------------
~A  DEPTH     TEMP      CN25      DELT      DELC      NGAM      COND      
    42.06     13.67     21.66      0.00      0.00     38.00     13.17 
    42.07     13.67     28.58      0.00      0.00     44.00     18.52 
    42.08     13.68     28.56      0.00      0.00     55.00     18.52 
    42.09     13.69     28.55      0.00      0.00     22.00     18.52 
    42.10     13.69     28.55      0.00      0.00     61.00     18.52 
    42.11     13.68     22.80      0.00      0.00     43.00     14.06 
    42.12     13.67     28.59      0.00      0.00     44.00     18.52 
    42.13     13.68     29.72      0.00      0.00     31.00     19.41 
    42.14     13.69     22.79      0.00      0.00     43.00     14.06 
    42.15     13.69     29.71      0.00      0.00     37.00     19.41 
    42.16     13.71     28.52      0.00      0.00     33.00     18.52 
    42.17     13.69     29.70      0.00      0.00     37.00     19.41 
    42.18     13.69     22.79      0.00      0.00     31.00     14.06 
    42.19     13.69     29.71      0.00      0.00     68.00     19.41 
    42.20     13.68     22.81      0.00      0.00     43.00     14.06 
    42.21     13.68     29.72      0.00      0.00     43.00     19.41 
    42.22     13.68     29.72      0.00      0.00     50.00     19.41 
    42.23     13.69     22.79      0.00      0.00     56.00     14.06 
    42.24     13.68     28.57      0.00      0.00     11.00     18.52 
    42.25     13.67     29.74      0.00      0.00     31.00     19.41 
    42.26     13.66     23.98      0.00      0.00     64.00     14.95 
    42.27     13.67     29.74      0.00      0.00     62.00     19.41 
    42.28     13.68     22.80      0.00      0.00     43.00     14.06 
    42.29     13.69     29.71      0.00      0.00     12.00     19.41 
    42.30     13.69     29.71      0.00      0.00     50.00     19.41 
    42.31     13.67     22.82      0.00      0.00     50.00     14.06 
    42.32     13.66     29.75      0.00      0.00     37.00     19.41 
    42.33     13.65     29.76      0.00      0.00     25.00     19.41 
    42.34     13.66     23.98      0.00      0.00     35.00     14.95 
    42.35     13.66     29.75      0.00      0.00     31.00     19.41 
    42.36     13.67     22.82      0.00      0.00     31.00     14.06 
    42.37     13.68     29.72      0.00      0.00     31.00     19.41 
    42.38     13.67     29.74      0.00      0.00     56.00     19.41 
    42.39     13.66     22.84      0.00      0.00     37.00     14.06 
    42.40     13.65     29.77      0.00      0.00     37.00     19.41 
    42.41     13.65     22.85      0.00      0.00     43.00     14.06 
    42.42     13.66     29.76      0.00      0.00     31.00     19.41 
    42.43     13.67     29.74      0.00      0.00     37.00     19.41 
    42.44     13.67     22.82      0.00      0.00     62.00     14.06 
    42.45     13.67     29.74      0.00      0.00     43.00     19.41 
    42.46     13.66     29.75      0.00      0.00     31.00     19.41 
    42.47     13.66     22.84      0.00      0.00     31.00     14.06 
    42.48     13.66     29.75      0.00      0.00     50.00     19.41 
    42.49     13.66     22.83      0.00      0.00     31.00     14.06 
    42.50     13.68     29.72      0.00      0.00     43.00     19.41 
    42.51     13.67     29.73      0.00      0.00     12.00     19.41 
    42.52     13.69     22.79      0.00      0.00     12.00     14.06 
    42.53     13.69     29.71      0.00      0.00     12.00     19.41 
    42.54     13.68     28.57      0.00      0.00     38.00     18.52 
    42.55     13.68     22.81      0.00      0.00     43.00     14.06 
    42.56     13.67     29.74      0.00      0.00      6.00     19.41 
    42.57     13.67     29.74      0.00      0.00     25.00     19.41 
    42.58     13.67     22.82      0.00      0.00     37.00     14.06 
    42.59     13.66     29.75      0.00      0.00     31.00     19.41 
    42.60     13.65     22.85      0.00      0.00     37.00     14.06 
    42.61     13.66     29.76      0.00      0.00     18.00     19.41 
    42.62     13.66     29.75      0.00      0.00     37.00     19.41 
    42.63     13.68     22.81      0.00      0.00     31.00     14.06 
    42.64     13.68     28.57      0.00      0.00     27.00     18.52 
    42.65     13.67     29.74      0.00      0.00     56.00     19.41 
    42.66     13.67     22.82      0.00      0.00     25.00     14.06 
    42.67     13.65     29.76      0.00      0.00     37.00     19.41 
    42.68     13.65     29.77      0.00      0.00     56.00     19.41 
    42.69     13.65     22.85      0.00      0.00     25.00     14.06 
    42.70     13.65     29.76      0.00      0.00     31.00     19.41 
    42.71     13.67     29.74      0.00      0.00     37.00     19.41 
    42.72     13.68     22.81      0.00      0.00     56.00     14.06 
    42.73     13.68     29.72      0.00      0.00     50.00     19.41 
    42.74     13.67     28.58      0.00      0.00     27.00     18.52 
    42.75     13.67     22.82      0.00      0.00     31.00     14.06 
    42.76     13.67     29.74      0.00      0.00     31.00     19.41 
    42.77     13.66     29.75      0.00      0.00     18.00     19.41 
    42.78     13.67     22.82      0.00      0.00     12.00     14.06 
    42.79     13.67     29.74      0.00      0.00     37.00     19.41 
    42.80     13.67     22.82      0.00      0.00     56.00     14.06 
    42.81     13.67     29.73     -0.01      3.47     43.00     19.41 
    42.82     13.67     29.74     -0.02     -3.42     18.00     19.41 
    42.83     13.65     22.85     -0.04     -3.39     37.00     14.06 
    42.84     13.65     29.76     -0.05      2.38     18.00     19.41 
    42.85     13.65     28.61     -0.04      2.37     72.00     18.52 
    42.86     13.66     23.99     -0.04     -3.40      7.00     14.95 
    42.87     13.66     29.75     -0.03      3.51     18.00     19.41 
    42.88     13.67     22.82     -0.01     -4.59     37.00     14.06 
    42.89     13.66     28.60     -0.02      1.18     61.00     18.52 
    42.90     13.65     29.76     -0.01     -1.13     18.00     19.41 
    42.91     13.65     29.76     -0.02      2.34     43.00     19.41 
    42.92     13.65     22.85     -0.02     -4.58     31.00     14.06 
    42.93     13.66     29.76     -0.02      3.49     18.00     19.41 
    42.94     13.65     22.85     -0.03     -4.56     12.00     14.06 
    42.95     13.66     29.76     -0.02      3.49     18.00     19.41 
    42.96     13.65     29.78     -0.03      2.36     37.00     19.41 
    42.97     13.64     22.87     -0.04     -4.54     31.00     14.06 
    42.98     13.64     29.80     -0.04      2.37     25.00     19.41 
    42.99     13.64     29.80     -0.04      1.22     37.00     19.41 
    43.00     13.65     22.86     -0.03     -4.56     18.00     14.06 
    43.01     13.65     29.76     -0.02      1.19     37.00     19.41 
    43.02     13.66     22.84     -0.02     -4.58     25.00     14.06 
    43.03     13.65     29.76     -0.02      1.19     25.00     19.41 
    43.04     13.65     29.76     -0.02      1.18     37.00     19.41 
    43.05     13.64     22.87     -0.03      1.20     37.00     14.06 
    43.06     13.64     29.79     -0.03      1.21     18.00     19.41 
    43.07     13.65     24.00     -0.03     -4.56     35.00     14.95 
    43.08     13.65     29.76     -0.04      1.22      0.00     19.41 
    43.09     13.67     29.73     -0.01      1.18     12.00     19.41 
    43.10     13.67     22.82     -0.01      0.02     43.00     14.06 
    43.11     13.66     29.76     -0.01      1.17     12.00     19.41 
    43.12     13.66     22.83     -0.01     -6.89     43.00     14.06 
    43.13     13.65     29.77     -0.04      6.98     25.00     19.41 
    43.14     13.65     29.78     -0.04      0.07     43.00     19.41 
    43.15     13.65     22.85     -0.06     -5.67     31.00     14.06 
    43.16     13.65     29.78     -0.05      0.08     43.00     19.41 
    43.17     13.65     29.77     -0.04      6.98     56.00     19.41 
    43.18     13.65     22.85     -0.03     -6.86     43.00     14.06 
