#Written by Robertson Geologging WinLogger V1.5/410
~VERSION INFORMATION
#------------------------------------------------------------------------------
 VERS. 2.0 : CWLS LOG ASCII STANDARD - VERSION 2.0
 WRAP. NO  : ONE LINE PER DEPTH STEP
~WELL INFORMATION
#MNEM.UNIT         DATA                                DESCRIPTION OF MNEMONIC
#------------------------------------------------------------------------------
 STRT.M          0.0600                            :   START DEPTH
 STOP.M        195.0000                            :   STOP DEPTH
 STEP.M          0.0100                            :   STEP VALUE
 NULL.        -999.2500                            :   NULL VALUE
 COMP.    Coal Authority                           :   COMPANY NAME
 WELL.    Thrislington Shaft                       :   WELL NAME
 FLD.     N/A                                      :   FIELD NAME
 LOC.     N/A                                      :   LOCATION
 PROV.    N/A                                      :   PROVINCE
 SRVC.    N/A                                      :   SERVICE COMPANY NAME
 DATE.    15 Dec 08                                :   DATE
 UWI.     N/A                                      :   UNIQUE WELL IDENTIFIER
~PARAMETER INFORMATION
#MNEMO.UNIT         VALUE                 DESCRIPTION OF MNEMONIC
#------------------------------------------------------------------------------
~OTHER INFORMATION SECTION
#------------------------------------------------------------------------------
 TCDS 1365
 15,12,2008
~CURVE INFORMATION
#MNEMO.UNIT         API CODE              CURVE DESCRIPTION
#------------------------------------------------------------------------------
 DEPTH.M                                 :   0     Depth
 COND.uS/cm                              :   1     Conductivity@25DegC
 COND.uS/cm                              :   2     Absolute Conductivity
 TEMP.DegC                               :   3     Temperature
 DELT.DegC                               :   4     Delta T
 DELC.uS/cm                              :   5     Delta C
 NGAM.CPS                                :   6     Natural Gamma
#------------------------------------------------------------------------------
~A  DEPTH          COND          COND          TEMP          DELT          DELC          NGAM
# ...
    25.86        356.80        224.09          6.40          0.09         -1.08         79.24
    25.87        353.08        221.75          6.40          0.10         -1.08         77.29
    25.88        356.79        224.09          6.40          0.10         -1.76         76.88
    25.89        356.77        224.09          6.41          0.10          1.93         75.53
    25.90        356.74        224.09          6.41          0.11         -1.83         74.06
    25.91        353.62        222.14          6.41          0.11         -1.21         73.71
    25.92        356.70        224.09          6.41          0.11         -1.86         74.00
    25.93        356.69        224.09          6.41          0.11          1.85         76.18
    25.94        357.30        224.48          6.41          0.11         -1.29         75.41
    25.95        356.66        224.09          6.41          0.12          1.77         76.35
    25.96        356.64        224.09          6.42          0.12         -1.36         76.76
    25.97        353.52        222.14          6.42          0.12         -1.36         77.12
    25.98        356.61        224.09          6.42          0.12         -2.01         79.71
    25.99        356.60        224.09          6.42          0.12          1.74         77.76
    26.00        353.50        222.14          6.42          0.12         -4.48         78.18
    26.01        356.60        224.09          6.42          0.12          1.73         78.94
    26.02        356.59        224.09          6.42          0.12         -2.00         78.65
    26.03        357.19        224.48          6.42          0.12          2.97         78.24
    26.04        353.46        222.14          6.42          0.12         -5.07         79.29
    26.05        353.43        222.14          6.43          0.12         -1.31         81.29
    26.06        353.43        222.14          6.43          0.11         -4.98         81.88
    26.07        357.14        224.48          6.43          0.11          1.88         85.18
    26.08        357.13        224.48          6.43          0.10         -1.16         84.76
    26.09        357.12        224.48          6.43          0.10          2.63         83.47
    26.10        353.39        222.14          6.43          0.09         -4.75         80.53
    26.11        356.47        224.09          6.43          0.08          1.52         78.35
    26.12        353.36        222.14          6.43          0.08         -5.25         79.47
    26.13        356.44        224.09          6.43          0.08          2.23         77.53
    26.14        352.72        221.75          6.44          0.07         -5.79         77.53
    26.15        356.41        224.09          6.44          0.07          1.67         79.00
    26.16        355.78        223.70          6.44          0.07         -2.65         79.71
    26.17        356.38        224.09          6.44          0.07          1.70         79.71
    26.18        352.64        221.75          6.44          0.07         -5.11         78.59
    26.19        356.33        224.09          6.44          0.07          1.69         81.06
    26.20        352.61        221.75          6.44          0.07         -5.11         82.53
    26.21        356.31        224.09          6.45          0.07          2.32         83.06
    26.22        353.21        222.14          6.45          0.07         -3.86         83.65
    26.23        356.29        224.09          6.45          0.07          2.95         85.71
    26.24        353.17        222.14          6.45          0.07         -4.50         82.76
    26.25        356.86        224.48          6.45          0.07          3.52         84.65
    26.26        353.11        222.14          6.46          0.07         -3.94         85.94
    26.27        356.80        224.48          6.46          0.08          3.48         87.41
    26.28        353.06        222.14          6.46          0.08         -3.96         87.41
    26.29        356.76        224.48          6.46          0.08          2.86         87.00
    26.30        352.43        221.75          6.46          0.07         -4.56         88.53
    26.31        356.74        224.48          6.46          0.08          2.87         84.82
    26.32        353.00        222.14          6.46          0.08         -4.57         84.82
    26.33        356.06        224.09          6.47          0.08          2.21         86.65
    26.34        352.94        222.14          6.47          0.08         -4.61         85.94
    26.35        356.62        224.48          6.47          0.08          2.82         88.53
    26.36        352.28        221.75          6.47          0.08         -5.82         84.47
    26.37        355.99        224.09          6.47          0.08          2.23         82.24
    26.38        352.90        222.14          6.47          0.08         -4.57         82.82
    26.39        356.60        224.48          6.47          0.08          2.85         81.35
    26.40        352.27        221.76          6.48          0.08         -4.60         79.65
    26.41        356.58        224.48          6.48          0.08          2.82         80.59
    26.42        352.85        222.14          6.48          0.08         -4.62         80.18
    26.43        356.56        224.48          6.48          0.08          3.41         79.18
    26.44        352.86        222.14          6.48          0.08         -4.63         82.12
    26.45        356.57        224.48          6.48          0.08          2.79         82.82
    26.46        352.89        222.14          6.48          0.08         -4.02         81.41
    26.47        357.23        224.87          6.47          0.08          4.02         83.47
    26.48        352.91        222.14          6.47          0.08         -4.65         86.82
    26.49        356.62        224.48          6.47          0.08          2.77         83.88
    26.50        352.90        222.14          6.47          0.08         -4.04         83.18
    26.51        357.21        224.87          6.48          0.09          3.36         82.88
    26.52        352.88        222.14          6.48          0.09         -4.70         81.76
    26.53        356.59        224.48          6.48          0.09          2.73         81.41
    26.54        352.26        221.76          6.48          0.09         -5.94         83.65
    26.55        356.57        224.48          6.48          0.09          2.73         82.94
    26.56        352.85        222.14          6.48          0.09         -4.69         82.24
    26.57        355.90        224.09          6.48          0.09          1.49         80.65
    26.58        352.17        221.76          6.48          0.09         -2.22         79.35
    26.59        356.47        224.48          6.49          0.09          2.12         76.82
    26.60        352.13        221.76          6.49          0.09         -2.20         75.65
    26.61        355.82        224.09          6.49          0.09          1.50         72.35
    26.62        352.09        221.76          6.49          0.09         -2.19         74.59
    26.63        356.39        224.48          6.49          0.09          2.12         74.59
    26.64        352.66        222.14          6.50          0.09         -4.70         72.94
    26.65        356.35        224.48          6.50          0.09          2.73         72.18
    26.66        352.63        222.14          6.50          0.09         -1.61         74.00
    26.67        356.33        224.48          6.50          0.09          2.72         74.47
    26.68        352.62        222.14          6.50          0.09         -4.70         73.59
    26.69        356.31        224.48          6.50          0.09         -1.01         71.41
    26.70        352.59        222.14          6.50          0.09         -4.11         77.29
    26.71        356.90        224.87          6.50          0.09          0.17         76.06
