~Version Information
 VERS.                2.0:  CWLS LOG ASCII STANDARD -VERSION 2.0
 WRAP.                 NO:  ONE LINE PER DEPTH STEP
~WELL INFORMATION BLOCK
#MNEM.UNIT       DATA		            DESCRIPTION OF MNEMONIC
#---------    -------------            ------------------------
 STRT.M   0.200                          :START DEPTH
 STOP.M   522.140                        :STOP DEPTH
 STEP.M   0.020                          :STEP  DOWN_HOLE  
 NULL.    0                              :NULL VALUE
 COMP.                              IMC  :COMPANY
 WELL.                           Dowdon  :WELL
 FLD .                           Durham  :FIELD
 LOC .    None  None  None               :LOCATION
 CNTY.                      Northumbria  :COUNTY
 STAT.                   None            :STATE
 SRVC.          TRANS                    :SERVICE COMPANY
 DATE.   01/25/00                        :LOG DATE
 UWI .                       	         :UNIQUE WELL ID
 LIC .                                   :LICENSE NUMBER
~Curve Information Block
#MNEM.UNIT      API CODE     Curve Description
#---------    -------------  ------------------------
 DEPT     .M         00 001 00 00          :  1  DEPTH   
 RES(FL)  .OHM-M     00 000 00 00          :  2              RES(FL)
 TEMP     .DEG C     00 660 00 00          :  3                 TEMP
 DEL TEMP .DEG C     00 000 00 00          :  4             DEL TEMP
 SP COND  .US/CM     00 000 00 00          :  5              SP COND
~Parameter Information Block
#MNEM.UNIT   Information     Description
#---------- ---------------  ------------------------
~Other Information
#MNEM.UNIT  Information      Description
#---------- ---------------  ------------------------
 FILE.      ORIGINAL           File Type
 FIID.      9042C              File Type Identifier
 VERS.      1.0                System Version
 SER .      1                  System Serial Number
 TRUK.      0.5                Truck Calibration Number
 TOOL.         870             Tool Serial Number
 TIME.      11:31:             Time
 LAT .          None           Latitude
 LON .          None           Longitude
 LMF .         T.G.L           Log Measured From
 DMF .          None           Driller Measured From
 PD  .          None           Permanent Data
 PDEV.          None           Elevation Permanent Data
 EKB .M         None           Elevation Kelly Bushing
 ELEV.DF        None           Elevation DF
 EGL .M         None           Elevation Ground Level
 DRDP.         36.00           Driller's Depth
 CASD.        11               Casing Diameter
 CASB.         25.00           Casing Bottom
 CASX.       PLASTIC           Casing Type
 CAST.       0.5               Casing Thickness
 TNOC.          None           Time Circulation Stopped
 LOGU.       CENT              Logging Unit
 RECB.             MS/DW       Recorded By
 OSR1.          none           Other Services
 OSR2.          None           Other Services
 OSR3.          None           Other Services
 BS  .MM       11.00           Bit Size
 MST .                         Mean Surface Temperature
 TGRD.        0                Temperature Gradiant
 MAGN.            -6           Magnetic Declination
 MDEN.      2.71               Density Matrix
 MATR.      Limestone          Neutron Matrix
 DTMT.           140           Delta T Matrix
 DTFL.                         Delta T Fluid
 MUDS.               0         Mud Sample Source
 MRS .           0             Mud Resistivity
 MTP .           0             Mud Temperature
 MFRS.                         Resistivity Mud Filtrate
 MFTP.                         Temperature Mud Filtrate
 MCRS.         0               Resistivity Mud Cake
 MCTP.                         Temperature Mud Cake
 FTYP.           H20           Fluid Type
 FD  .K/M3                     Fluid Density
 DFV .S                        Fluid Viscosity
 FPH .                         Fuild PH
 ELCO.        2500             Electron Cutoff
# -------------------------- 
~A DEPTH  RES(FL) TEMP  DEL TEMP SP COND  
# ...
  71.260  134.87   9.0  0.00        74.1  
  71.280  134.87   9.0  0.00        74.1  
  71.300  134.87   9.0  0.00        74.1  
  71.320  134.88   9.0  0.00        74.1  
  71.340  134.88   9.0  -0.00       74.1  
  71.360  134.87   9.0  0.00        74.1  
  71.380  134.87   9.0  -0.00       74.1  
  71.400  134.88   9.0  0.00        74.1  
  71.420  134.89   9.0  0.00        74.1  
  71.440  134.89   9.0  0.00        74.1  
  71.460  134.87   9.0  0.00        74.1  
  71.480  134.87   9.0  0.00        74.1  
  71.500  134.87   9.0  0.00        74.1  
  71.520  134.87   9.0  0.00        74.1  
  71.540  134.88   9.0  0.00        74.1  
  71.560  134.88   9.0  -0.00       74.1  
  71.580  134.88   9.0  0.00        74.1  
  71.600  134.88   9.0  0.00        74.1  
  71.620  134.87   9.0  0.00        74.1  
  71.640  134.87   9.0  0.00        74.1  
  71.660  134.88   9.0  0.00        74.1  
  71.680  134.88   9.0  -0.00       74.1  
  71.700  134.89   9.0  0.00        74.1  
  71.720  134.89   9.0  0.00        74.1  
  71.740  134.89   9.0  0.00        74.1  
  71.760  134.89   9.0  0.00        74.1  
  71.780  134.89   9.0  0.00        74.1  
  71.800  134.89   9.0  0.00        74.1  
  71.820  134.89   9.0  0.00        74.1  
  71.840  134.89   9.0  -0.00       74.1  
  71.860  134.88   9.0  0.00        74.1  
  71.880  134.88   9.0  0.00        74.1  
  71.900  134.89   9.0  0.00        74.1  
  71.920  134.89   9.0  0.00        74.1  
  71.940  134.89   9.0  0.00        74.1  
  71.960  134.89   9.0  0.00        74.1  
  71.980  134.89   9.0  0.00        74.1  
  72.000  134.89   9.0  -0.00       74.1  
  72.020  134.88   9.0  0.00        74.1  
  72.040  134.88   9.0  0.00        74.1  
  72.060  134.89   9.0  0.00        74.1  
  72.080  134.88   9.0  -0.00       74.1  
  72.100  134.88   9.0  0.00        74.1  
  72.120  134.89   9.0  0.00        74.1  
  72.140  134.89   9.0  0.00        74.1  
  72.160  134.89   9.0  -0.00       74.1  
  72.180  134.89   9.0  0.00        74.1  
  72.200  134.89   9.0  -0.00       74.1  
  72.220  134.89   9.0  0.00        74.1  
  72.240  134.89   9.0  0.00        74.1  
  72.260  134.89   9.0  -0.00       74.1  
  72.280  134.90   9.0  0.00        74.1  
  72.300  134.90   9.0  0.00        74.1  
  72.320  134.90   9.0  0.00        74.1  
  72.340  134.90   9.0  0.00        74.1  
  72.360  134.89   9.0  0.00        74.1  
  72.380  134.89   9.0  -0.00       74.1  
  72.400  134.90   9.0  0.00        74.1  
  72.420  134.90   9.0  -0.01       74.1  
  72.440  134.90   9.0  0.00        74.1  
  72.460  134.90   9.0  0.00        74.1  
  72.480  134.89   9.0  0.00        74.1  
  72.500  134.89   9.0  -0.00       74.1  
  72.520  134.90   9.0  0.00        74.1  
  72.540  134.90   9.0  0.00        74.1  
  72.560  134.90   9.0  0.00        74.1  
  72.580  134.90   9.0  -0.01       74.1  
  72.600  134.90   9.0  0.00        74.1  
  72.620  134.90   9.0  0.00        74.1  
  72.640  134.90   9.0  0.00        74.1  
  72.660  134.90   9.0  0.00        74.1  
  72.680  134.91   9.0  0.00        74.1  
  72.700  134.91   9.0  0.00        74.1  
  72.720  134.89   9.0  0.00        74.1  
  72.740  134.89   9.0  0.00        74.1  
  72.760  134.90   9.0  0.00        74.1  
  72.780  134.90   9.0  0.00        74.1  
  72.800  134.90   9.0  0.00        74.1  
  72.820  134.90   9.0  -0.00       74.1  
  72.840  134.89   9.0  0.00        74.1  
  72.860  134.89   8.9  -0.00       74.1  
  72.880  134.89   8.9  0.00        74.1  
  72.900  134.89   8.9  -0.00       74.1  
  72.920  134.90   8.9  0.00        74.1  
  72.940  134.90   8.9  0.00        74.1  
  72.960  134.89   8.9  0.00        74.1  
  72.980  134.89   8.9  -0.00       74.1  
  73.000  134.89   8.9  0.00        74.1  
  73.020  134.89   8.9  -0.00       74.1  
  73.040  134.89   8.9  0.00        74.1  
  73.060  134.89   8.9  0.00        74.1  
  73.080  134.89   8.9  0.00        74.1  
  73.100  134.89   8.9  -0.00       74.1  
  73.120  134.89   8.9  0.00        74.1  
  73.140  134.89   8.9  0.00        74.1  
  73.160  134.89   8.9  0.00        74.1  
  73.180  134.89   8.9  0.00        74.1  
  73.200  134.90   8.9  0.00        74.1  
  73.220  134.90   8.9  0.00        74.1  
  73.240  134.89   8.9  0.00        74.1  
  73.260  134.89   8.9  -0.01       74.1  
  73.280  134.89   8.9  0.00        74.1  
  73.300  134.89   8.9  0.00        74.1  
  73.320  134.89   8.9  0.00        74.1  
  73.340  134.89   8.9  -0.00       74.1  
  73.360  134.88   8.9  0.00        74.1  
  73.380  134.88   8.9  -0.00       74.1  
  73.400  134.88   8.9  0.00        74.1  
  73.420  134.88   8.9  -0.00       74.1  
  73.440  134.89   8.9  0.00        74.1  
  73.460  134.89   8.9  0.00        74.1  
  73.480  134.89   8.9  0.00        74.1  
  73.500  134.89   8.9  -0.00       74.1  
  73.520  134.89   8.9  0.00        74.1  
  73.540  134.89   8.9  0.00        74.1  
  73.560  134.89   8.9  0.00        74.1  
  73.580  134.89   8.9  -0.00       74.1  
  73.600  134.89   8.9  0.00        74.1  
  73.620  134.89   8.9  -0.00       74.1  
  73.640  134.88   8.9  0.00        74.1  
  73.660  134.88   8.9  0.00        74.1  
  73.680  134.89   8.9  0.00        74.1  
  73.700  134.89   8.9  -0.00       74.1  
  73.720  134.89   8.9  0.00        74.1  
  73.740  134.89   8.9  -0.00       74.1  
  73.760  134.88   8.9  0.00        74.1  
  73.780  134.88   8.9  0.00        74.1  
  73.800  134.88   8.9  0.00        74.1  
  73.820  134.88   8.9  -0.00       74.1  
  73.840  134.89   8.9  0.00        74.1  
  73.860  134.89   8.9  0.00        74.1  
  73.880  134.88   8.9  0.00        74.1  
  73.900  134.88   8.9  0.00        74.1  
  73.920  134.88   8.9  0.00        74.1  
  73.940  134.88   8.9  -0.00       74.1  
  73.960  134.89   8.9  0.00        74.1  
  73.980  134.89   8.9  0.00        74.1  
  74.000  134.88   8.9  0.00        74.1  
  74.020  134.88   8.9  0.00        74.1  
  74.040  134.88   8.9  0.00        74.1  
  74.060  134.88   8.9  -0.00       74.1  
  74.080  134.90   8.9  0.00        74.1  
  74.100  134.90   8.9  -0.00       74.1  
  74.120  134.88   8.9  0.00        74.1  
  74.140  134.88   8.9  0.00        74.1  
  74.160  134.88   8.9  0.00        74.1  
  74.180  134.88   8.9  0.00        74.1  
  74.200  134.88   8.9  0.00        74.1  
  74.220  134.88   8.9  0.00        74.1  
  74.240  134.88   8.9  0.00        74.1  
  74.260  134.88   8.9  -0.00       74.1  
  74.280  134.88   8.9  0.00        74.1  
  74.300  134.88   8.9  0.00        74.1  
  74.320  134.89   8.9  0.00        74.1  
  74.340  134.89   8.9  0.00        74.1  
  74.360  134.89   8.9  0.00        74.1  
  74.380  134.89   8.9  0.00        74.1  
  74.400  134.89   8.9  0.00        74.1  
  74.420  134.89   8.9  0.00        74.1  
  74.440  134.89   8.9  0.00        74.1  
  74.460  134.89   8.9  -0.00       74.1  
  74.480  134.89   8.9  0.00        74.1  
  74.500  134.89   8.9  0.00        74.1  
  74.520  134.88   8.9  0.00        74.1  
  74.540  134.88   8.9  0.00        74.1  
  74.560  134.88   8.9  0.00        74.1  
  74.580  134.88   8.9  0.00        74.1  
  74.600  134.89   8.9  0.00        74.1  
  74.620  134.89   8.9  0.00        74.1  
  74.640  134.88   8.9  0.00        74.1  
  74.660  134.88   8.9  0.00        74.1  
  74.680  134.88   8.9  0.00        74.1  
  74.700  134.88   8.9  0.00        74.1  
  74.720  134.89   8.9  0.00        74.1  
  74.740  134.89   8.9  -0.00       74.1  
  74.760  134.88   8.9  0.00        74.1  
  74.780  134.88   8.9  0.00        74.1  
  74.800  134.89   8.9  0.00        74.1  
  74.820  134.89   8.9  0.00        74.1  
  74.840  134.89   8.9  0.00        74.1  
  74.860  134.89   8.9  0.00        74.1  
  74.880  134.89   8.9  0.00        74.1  
  74.900  134.89   8.9  -0.00       74.1  
  74.920  134.88   8.9  0.00        74.1  
  74.940  134.88   8.9  0.00        74.1  
  74.960  134.88   8.9  0.00        74.1  
  74.980  134.88   8.9  0.00        74.1  
