~Version Information
 VERS.                2.0:  CWLS LOG ASCII STANDARD -VERSION 2.0
 WRAP.                 NO:  ONE LINE PER DEPTH STEP
~WELL INFORMATION BLOCK
#MNEM.UNIT       DATA		            DESCRIPTION OF MNEMONIC
#---------    -------------            ------------------------
 STRT.M   0.200                          :START DEPTH
 STOP.M   522.140                        :STOP DEPTH
 STEP.M   0.020                          :STEP  DOWN_HOLE  
 NULL.    0                              :NULL VALUE
 COMP.                              IMC  :COMPANY
 WELL.                           Dowdon  :WELL
 FLD .                           Durham  :FIELD
 LOC .    None  None  None               :LOCATION
 CNTY.                      Northumbria  :COUNTY
 STAT.                   None            :STATE
 SRVC.          TRANS                    :SERVICE COMPANY
 DATE.   01/25/00                        :LOG DATE
 UWI .                       	         :UNIQUE WELL ID
 LIC .                                   :LICENSE NUMBER
~Curve Information Block
#MNEM.UNIT      API CODE     Curve Description
#---------    -------------  ------------------------
 DEPT     .M         00 001 00 00          :  1  DEPTH   
 RES(FL)  .OHM-M     00 000 00 00          :  2              RES(FL)
 TEMP     .DEG C     00 660 00 00          :  3                 TEMP
 DEL TEMP .DEG C     00 000 00 00          :  4             DEL TEMP
 SP COND  .US/CM     00 000 00 00          :  5              SP COND
~Parameter Information Block
#MNEM.UNIT   Information     Description
#---------- ---------------  ------------------------
~Other Information
#MNEM.UNIT  Information      Description
#---------- ---------------  ------------------------
 FILE.      ORIGINAL           File Type
 FIID.      9042C              File Type Identifier
 VERS.      1.0                System Version
 SER .      1                  System Serial Number
 TRUK.      0.5                Truck Calibration Number
 TOOL.         870             Tool Serial Number
 TIME.      11:31:             Time
 LAT .          None           Latitude
 LON .          None           Longitude
 LMF .         T.G.L           Log Measured From
 DMF .          None           Driller Measured From
 PD  .          None           Permanent Data
 PDEV.          None           Elevation Permanent Data
 EKB .M         None           Elevation Kelly Bushing
 ELEV.DF        None           Elevation DF
 EGL .M         None           Elevation Ground Level
 DRDP.         36.00           Driller's Depth
 CASD.        11               Casing Diameter
 CASB.         25.00           Casing Bottom
 CASX.       PLASTIC           Casing Type
 CAST.       0.5               Casing Thickness
 TNOC.          None           Time Circulation Stopped
 LOGU.       CENT              Logging Unit
 RECB.             MS/DW       Recorded By
 OSR1.          none           Other Services
 OSR2.          None           Other Services
 OSR3.          None           Other Services
 BS  .MM       11.00           Bit Size
 MST .                         Mean Surface Temperature
 TGRD.        0                Temperature Gradiant
 MAGN.            -6           Magnetic Declination
 MDEN.      2.71               Density Matrix
 MATR.      Limestone          Neutron Matrix
 DTMT.           140           Delta T Matrix
 DTFL.                         Delta T Fluid
 MUDS.               0         Mud Sample Source
 MRS .           0             Mud Resistivity
 MTP .           0             Mud Temperature
 MFRS.                         Resistivity Mud Filtrate
 MFTP.                         Temperature Mud Filtrate
 MCRS.         0               Resistivity Mud Cake
 MCTP.                         Temperature Mud Cake
 FTYP.           H20           Fluid Type
 FD  .K/M3                     Fluid Density
 DFV .S                        Fluid Viscosity
 FPH .                         Fuild PH
 ELCO.        2500             Electron Cutoff
# -------------------------- 
~A DEPTH  RES(FL) TEMP  DEL TEMP SP COND  
   0.200    0.00   0.0  0.00         0.0  
   0.220    0.00   0.0  0.00         0.0  
   0.240    0.00   0.0  0.00         0.0  
   0.260    0.00   0.0  0.00     -10000.0 
   0.280    0.00   0.0  0.00     -10000.0 
   0.300    0.00   0.0  0.00     -10000.0 
   0.320    0.00   0.0  0.00     -10000.0 
   0.340    0.00   0.0  0.00     -10000.0 
   0.360    0.00   0.0  0.00     -10000.0 
   0.380    0.00   0.0  0.00     -10000.0 
   0.400    0.00   0.0  0.00     -10000.0 
   0.420    0.00   0.0  0.00     -10000.0 
   0.440    0.00   0.0  0.00     -10000.0 
   0.460    0.00   0.0  0.00     -10000.0 
   0.480    0.00   0.0  0.00     -10000.0 
   0.500    0.00   0.0  0.00     -10000.0 
   0.520    0.00   0.0  0.00     -10000.0 
   0.540    0.00   0.0  0.00     -10000.0 
   0.560    0.00   0.0  0.00     -10000.0 
   0.580    0.00   0.0  0.00     -10000.0 
   0.600    0.00   0.0  0.00     -10000.0 
   0.620    0.00   0.0  0.00     -10000.0 
   0.640    0.00   0.0  0.00     -10000.0 
   0.660    0.00   0.0  0.00     -10000.0 
   0.680    0.00   0.0  0.00     -10000.0 
   0.700    0.00   0.0  0.00     -10000.0 
   0.720    0.00   0.0  0.00     -10000.0 
   0.740    0.00   0.0  0.00     -10000.0 
   0.760    0.00   0.0  0.00     -10000.0 
   0.780    0.00   0.0  0.00     -10000.0 
   0.800    0.00   0.0  0.00     -10000.0 
   0.820    0.00   0.0  0.00     -10000.0 
   0.840    0.00   0.0  0.00     -10000.0 
   0.860    0.00   0.0  0.00     -10000.0 
   0.880    0.00   0.0  0.00     -10000.0 
   0.900    0.00   0.0  0.00     -10000.0 
   0.920    0.00   0.0  0.00     -10000.0 
   0.940    0.00   0.0  0.00     -10000.0 
   0.960    0.00   0.0  0.00     -10000.0 
   0.980    0.00   0.0  0.00     -10000.0 
   1.000    0.00   0.0  0.00     -10000.0 
   1.020    0.00   0.0  0.00     -10000.0 
   1.040    0.00   0.0  0.00     -10000.0 
   1.060    0.00   0.0  0.00     -10000.0 
   1.080    0.00   0.0  0.00     -10000.0 
   1.100    0.00   0.0  0.00     -10000.0 
   1.120    0.00   0.0  0.00     -10000.0 
   1.140    0.00   0.0  0.00     -10000.0 
   1.160    0.00   0.0  0.00     -10000.0 
   1.180    0.00   0.0  0.00     -10000.0 
   1.200    0.00   0.0  0.00     -10000.0 
   1.220    0.00   0.0  0.00        76.0  
   1.240    0.00   0.0  0.00        75.9  
   1.260    0.00   0.0  0.00        75.9  
   1.280  131.74   0.0  0.00        75.9  
   1.300  131.76   0.0  0.00        75.9  
   1.320  131.77   0.0  0.00        75.9  
   1.340  131.78   0.0  0.00        75.9  
   1.360  131.77   0.0  -43.18      75.9  
   1.380  131.79   0.0  -0.01       75.9  
   1.400  131.81   0.0  0.00        75.9  
   1.420  131.81   6.8  0.00        75.9  
   1.440  131.83   6.8  -0.00       75.9  
   1.460  131.83   6.8  0.00        75.9  
   1.480  131.83   6.8  -0.00       75.9  
   1.500  131.85   6.8  -0.00       75.8  
   1.520  131.87   6.8  -0.00       75.8  
   1.540  131.85   6.8  -0.00       75.8  
   1.560  131.87   6.8  0.00        75.8  
   1.580  131.89   6.8  -0.00       75.8  
   1.600  131.89   6.8  0.00        75.8  
   1.620  131.91   6.8  0.00        75.8  
   1.640  131.92   6.8  0.00        75.8  
   1.660  131.92   6.8  0.00        75.8  
   1.680  131.94   6.8  0.00        75.8  
   1.700  131.95   6.8  -0.00       75.8  
   1.720  131.95   6.8  0.00        75.8  
   1.740  131.96   6.8  -0.00       75.8  
   1.760  131.98   6.8  0.00        75.8  
   1.780  131.98   6.8  0.00        75.8  
   1.800  131.99   6.8  0.00        75.8  
   1.820  132.01   6.8  0.00        75.8  
   1.840  132.02   6.8  0.00        75.7  
   1.860  132.03   6.8  0.00        75.7  
   1.880  132.05   6.8  0.00        75.7  
   1.900  132.06   6.8  0.00        75.7  
   1.920  132.06   6.8  0.00        75.7  
   1.940  132.08   6.8  0.00        75.7  
   1.960  132.11   6.8  0.00        75.7  
   1.980  132.12   6.8  -0.00       75.7  
   2.000  132.12   6.8  0.00        75.7  
   2.020  132.14   6.8  0.00        75.7  
   2.040  132.13   6.8  0.00        75.7  
   2.060  132.14   6.8  0.00        75.7  
   2.080  132.14   6.8  0.00        75.7  
   2.100  132.15   6.8  0.00        75.7  
   2.120  132.15   6.8  -0.00       75.7  
   2.140  132.17   6.8  0.00        75.7  
   2.160  132.17   6.8  0.00        75.7  
   2.180  132.17   6.8  0.00        75.7  
   2.200  132.18   6.8  -0.00       75.7  
   2.220  132.20   6.8  0.00        75.6  
   2.240  132.19   6.8  -0.00       75.6  
   2.260  132.20   6.8  0.00        75.6  
   2.280  132.21   6.8  0.00        75.6  
   2.300  132.21   6.8  0.00        75.6  
   2.320  132.21   6.8  0.00        75.6  
   2.340  132.23   6.8  0.00        75.6  
   2.360  132.24   6.8  0.00        75.6  
   2.380  132.23   6.8  0.00        75.6  
   2.400  132.22   6.8  0.00        75.6  
   2.420  132.24   6.8  0.00        75.6  
   2.440  132.24   6.8  0.00        75.6  
   2.460  132.25   6.8  0.00        75.6  
   2.480  132.24   6.8  0.00        75.6  
   2.500  132.26   6.8  0.00        75.6  
   2.520  132.26   6.8  0.00        75.6  
   2.540  132.25   6.8  0.00        75.6  
   2.560  132.24   6.8  -0.00       75.6  
   2.580  132.26   6.8  0.00        75.6  
   2.600  132.26   6.8  -0.00       75.6  
   2.620  132.26   6.8  0.00        75.6  
   2.640  132.26   6.8  0.00        75.6  
   2.660  132.26   6.8  0.00        75.6  
   2.680  132.27   6.8  0.00        75.6  
   2.700  132.27   6.8  0.00        75.6  
   2.720  132.27   6.8  0.00        75.6  
   2.740  132.27   6.8  -0.00       75.6  
   2.760  132.25   6.8  0.00        75.6  
   2.780  132.28   6.8  0.00        75.6  
   2.800  132.28   6.8  0.00        75.6  
   2.820  132.30   6.8  0.00        75.6  
   2.840  132.30   6.8  0.00        75.6  
   2.860  132.28   6.8  0.00        75.6  
   2.880  132.28   6.8  0.00        75.6  
   2.900  132.27   6.8  -0.00       75.6  
   2.920  132.27   6.8  0.00        75.6  
   2.940  132.26   6.8  0.00        75.6  
   2.960  132.26   6.8  0.00        75.6  
   2.980  132.28   6.8  0.00        75.6  
   3.000  132.28   6.8  0.00        75.6  
   3.020  132.28   6.8  0.00        75.6  
   3.040  132.28   6.8  0.00        75.6  
   3.060  132.28   6.8  0.00        75.6  
   3.080  132.35   6.8  0.00        75.6  
   3.100  132.35   6.8  0.00        75.6  
   3.120  132.31   6.8  0.00        75.6  
   3.140  132.31   6.8  0.00        75.6  
   3.160  132.30   6.8  0.00        75.6  
   3.180  132.30   6.8  0.00        75.6  
   3.200  132.28   6.8  0.00        75.6  
   3.220  132.28   6.8  0.00        75.6  
   3.240  132.28   6.8  0.00        75.6  
   3.260  132.28   6.9  0.00        75.6  
   3.280  132.29   6.9  0.00        75.6  
   3.300  132.29   6.8  -0.00       75.6  
   3.320  132.48   6.8  0.00        75.5  
   3.340  132.48   6.9  0.00        75.5  
   3.360  132.46   6.9  0.00        75.5  
   3.380  132.46   6.9  0.00        75.5  
   3.400  132.45   6.9  0.00        75.5  
   3.420  132.45   6.9  0.00        75.5  
   3.440  132.45   6.9  0.00        75.5  
   3.460  132.45   6.9  0.00        75.5  
   3.480  132.45   6.9  0.00        75.5  
   3.500  132.45   6.9  0.00        75.5  
   3.520  132.44   6.9  0.00        75.5  
   3.540  132.44   6.9  0.00        75.5  
   3.560  132.46   6.9  0.00        75.5  
   3.580  132.46   6.9  0.00        75.5  
   3.600  132.47   6.9  0.00        75.5  
   3.620  132.47   6.9  0.00        75.5  
   3.640  132.45   6.9  0.00        75.5  
   3.660  132.45   6.9  0.00        75.5  
   3.680  132.47   6.9  0.00        75.5  
   3.700  132.47   6.9  0.00        75.5  
   3.720  132.47   6.9  0.00        75.5  
   3.740  132.47   6.9  0.00        75.5  
   3.760  132.45   6.9  0.00        75.5  
   3.780  132.45   6.9  -0.00       75.5  
   3.800  132.45   6.9  0.00        75.5  
   3.820  132.45   6.9  0.00        75.5  
   3.840  132.41   6.9  0.00        75.5  
   3.860  132.41   6.9  0.00        75.5  
   3.880  132.41   6.9  0.00        75.5  
   3.900  132.41   6.9  0.00        75.5  
   3.920  132.41   6.9  0.00        75.5  
