#Written by Robertson Geologging WinLogger V1.0/370
~VERSION INFORMATION
#------------------------------------------------------------------------------
 VERS. 2.0 : CWLS LOG ASCII STANDARD - VERSION 2.0
 WRAP. NO  : ONE LINE PER DEPTH STEP
~WELL INFORMATION
#MNEM.UNIT         DATA                                DESCRIPTION OF MNEMONIC
#------------------------------------------------------------------------------
 STRT.M         39.9100                            :   START DEPTH
 STOP.M        520.0300                            :   STOP DEPTH
 STEP.M          0.0100                            :   STEP VALUE
 NULL.        -999.2500                            :   NULL VALUE
 COMP.    White Young Gteen                        :   COMPANY NAME
 WELL.    Dawdon  Shaft                            :   WELL NAME
 FLD.     Dawdon                                   :   FIELD NAME
 LOC.     N/A                                      :   LOCATION
 PROV.    N/A                                      :   PROVINCE
 SRVC.    N/A                                      :   SERVICE COMPANY NAME
 DATE.    04 Oct 05                                :   DATE
 UWI.     N/A                                      :   UNIQUE WELL IDENTIFIER
~PARAMETER INFORMATION
#MNEMO.UNIT         VALUE                 DESCRIPTION OF MNEMONIC
#------------------------------------------------------------------------------
~OTHER INFORMATION SECTION
#------------------------------------------------------------------------------
 TCGS1365
~CURVE INFORMATION
#MNEMO.UNIT         API CODE              CURVE DESCRIPTION
#------------------------------------------------------------------------------
 DEPTH.M                                 :   0     Depth
 TEMP.DegC                               :   1     Temperature
 CN25.mS/cm                              :   2     Conductivity@25DegC
 COND.mS/cm                              :   3     Conductivity
 DELT.DegC                               :   4     Delta T
 DELC.mS/cm                              :   5     Delta C
 NGAM.CPS                                :   6     Natural Gamma
#------------------------------------------------------------------------------
~A  DEPTH     TEMP      CN25      COND      DELT      DELC      NGAM      
# ...
   391.34     19.32     79.48     71.93      0.00     -0.00      1.41 
   391.35     19.33     79.48     71.93      0.00     -0.00      0.88 
   391.36     19.33     79.48     71.93      0.00     -0.00      1.35 
   391.37     19.33     79.48     71.93      0.00     -0.01      1.35 
   391.38     19.33     79.48     71.93      0.00     -0.00      1.35 
   391.39     19.32     79.49     71.93      0.00     -0.00      1.35 
   391.40     19.33     79.48     71.93      0.00     -0.01      1.35 
   391.41     19.33     79.48     71.93      0.01     -0.02      1.76 
   391.42     19.33     79.48     71.93      0.01     -0.02      1.76 
   391.43     19.32     79.49     71.93      0.00     -0.01      1.76 
   391.44     19.32     79.50     71.93      0.00     -0.01      1.76 
   391.45     19.32     79.50     71.93     -0.00     -0.00      1.29 
   391.46     19.32     79.50     71.93     -0.00      0.00      1.71 
   391.47     19.32     79.51     71.93     -0.00      0.00      2.18 
   391.48     19.32     79.50     71.93     -0.00      0.00      2.59 
   391.49     19.32     79.50     71.93      0.00     -0.02      2.59 
   391.50     19.32     79.49     71.93      0.01     -0.02      2.59 
   391.51     19.32     79.49     71.93      0.01     -0.03      2.59 
   391.52     19.33     79.48     71.93      0.01     -0.04      2.18 
   391.53     19.33     79.48     71.93      0.01     -0.05      2.53 
   391.54     19.33     79.47     71.93      0.02     -0.05      2.53 
   391.55     19.33     79.47     71.93      0.02     -0.06      2.53 
   391.56     19.33     79.47     71.93      0.02     -0.06      2.94 
   391.57     19.33     79.47     71.93      0.02     -0.06      3.35 
   391.58     19.33     79.46     71.93      0.02     -0.05      3.76 
   391.59     19.33     79.46     71.92      0.02     -0.05      3.76 
   391.60     19.33     79.47     71.93      0.01     -0.04      3.76 
   391.61     19.33     79.47     71.93      0.01     -0.03      3.76 
   391.62     19.33     79.47     71.93      0.01     -0.02      3.76 
   391.63     19.33     79.47     71.93      0.01     -0.02      3.76 
   391.64     19.33     79.48     71.93      0.00     -0.01      3.29 
   391.65     19.32     79.49     71.93      0.00     -0.01      2.88 
   391.66     19.32     79.49     71.93      0.00     -0.02      2.88 
   391.67     19.32     79.49     71.93      0.00     -0.01      3.29 
   391.68     19.32     79.48     71.93      0.00     -0.01      3.71 
   391.69     19.33     79.47     71.93      0.00     -0.02      4.18 
   391.70     19.33     79.47     71.93      0.01     -0.02      3.35 
   391.71     19.33     79.46     71.93      0.01     -0.02      3.35 
   391.72     19.33     79.46     71.93      0.01     -0.02      3.35 
   391.73     19.33     79.46     71.93      0.01     -0.03      3.35 
   391.74     19.33     79.46     71.93      0.01     -0.02      2.94 
   391.75     19.33     79.46     71.93      0.00     -0.02      2.12 
   391.76     19.33     79.46     71.93      0.01     -0.02      2.12 
   391.77     19.33     79.46     71.93      0.00     -0.01      2.12 
   391.78     19.33     79.46     71.93      0.00     -0.01      2.53 
   391.79     19.33     79.47     71.93      0.00     -0.01      2.53 
   391.80     19.33     79.48     71.93      0.00      0.00      2.12 
   391.81     19.32     79.49     71.93     -0.00      0.01      2.12 
   391.82     19.32     79.50     71.93     -0.00      0.01      2.12 
   391.83     19.32     79.50     71.93     -0.00      0.02      2.59 
   391.84     19.32     79.50     71.93     -0.01      0.02      3.00 
   391.85     19.32     79.50     71.93     -0.01      0.02      3.06 
   391.86     19.32     79.50     71.93     -0.01      0.04      2.59 
   391.87     19.32     79.50     71.93     -0.01      0.04      2.59 
   391.88     19.32     79.50     71.93     -0.01      0.04      2.59 
   391.89     19.32     79.50     71.93     -0.01      0.04      2.59 
   391.90     19.32     79.50     71.93     -0.01      0.04      2.18 
   391.91     19.32     79.50     71.93     -0.01      0.04      2.18 
   391.92     19.32     79.49     71.92     -0.01      0.02      2.65 
   391.93     19.32     79.48     71.92     -0.01      0.02      2.65 
   391.94     19.33     79.47     71.92      0.00     -0.00      2.65 
   391.95     19.33     79.47     71.92      0.01     -0.01      2.24 
   391.96     19.33     79.46     71.92      0.01     -0.02      2.24 
   391.97     19.33     79.46     71.93      0.02     -0.05      2.24 
   391.98     19.34     79.45     71.92      0.02     -0.06      2.24 
   391.99     19.34     79.44     71.92      0.02     -0.06      2.24 
   392.00     19.34     79.44     71.93      0.02     -0.07      1.76 
   392.01     19.34     79.44     71.92      0.03     -0.08      1.35 
   392.02     19.34     79.44     71.92      0.03     -0.08      0.88 
   392.03     19.34     79.44     71.93      0.02     -0.07      0.88 
   392.04     19.34     79.44     71.93      0.02     -0.07      1.35 
   392.05     19.34     79.44     71.93      0.02     -0.06      1.76 
   392.06     19.34     79.44     71.93      0.02     -0.06      1.76 
   392.07     19.34     79.44     71.93      0.02     -0.06      2.18 
   392.08     19.34     79.44     71.93      0.02     -0.05      2.18 
   392.09     19.34     79.45     71.93      0.01     -0.05      1.71 
   392.10     19.34     79.44     71.93      0.02     -0.05      1.71 
   392.11     19.34     79.44     71.93      0.02     -0.05      1.71 
   392.12     19.34     79.44     71.93      0.02     -0.05      1.71 
   392.13     19.34     79.44     71.93      0.02     -0.06      2.94 
   392.14     19.34     79.45     71.93      0.02     -0.06      2.94 
   392.15     19.34     79.45     71.93      0.02     -0.06      2.94 
   392.16     19.33     79.46     71.93      0.02     -0.05      2.94 
   392.17     19.33     79.46     71.93      0.02     -0.05      2.94 
   392.18     19.33     79.46     71.93      0.01     -0.05      2.53 
   392.19     19.33     79.46     71.93      0.01     -0.03      2.53 
   392.20     19.33     79.47     71.93      0.01     -0.03      2.53 
   392.21     19.33     79.48     71.93      0.00     -0.02      2.06 
   392.22     19.32     79.48     71.93      0.00     -0.01      1.65 
   392.23     19.32     79.49     71.93     -0.00      0.00      2.06 
   392.24     19.32     79.48     71.93     -0.00      0.00      1.65 
   392.25     19.33     79.48     71.92      0.00     -0.01      1.65 
   392.26     19.33     79.48     71.93      0.00      0.00      2.47 
   392.27     19.33     79.47     71.92      0.00     -0.02      2.47 
   392.28     19.33     79.47     71.93      0.01     -0.02      2.47 
   392.29     19.33     79.47     71.93      0.01     -0.02      2.47 
   392.30     19.33     79.47     71.92      0.01     -0.03      1.24 
   392.31     19.33     79.48     71.93      0.00     -0.01      1.24 
   392.32     19.33     79.47     71.93      0.00     -0.01      1.24 
   392.33     19.33     79.47     71.93      0.00     -0.01      1.24 
   392.34     19.33     79.47     71.92      0.00     -0.01      1.24 
   392.35     19.33     79.46     71.92      0.00     -0.02      1.65 
   392.36     19.33     79.47     71.93      0.00     -0.01      1.65 
   392.37     19.33     79.47     71.93      0.00     -0.01      2.59 
   392.38     19.33     79.48     71.93      0.00     -0.00      2.59 
   392.39     19.32     79.49     71.93     -0.00      0.00      2.59 
   392.40     19.32     79.49     71.93     -0.01      0.01      2.59 
   392.41     19.32     79.50     71.93     -0.01      0.02      2.59 
   392.42     19.32     79.49     71.93     -0.00      0.01      2.59 
   392.43     19.32     79.50     71.93     -0.00      0.01      1.76 
   392.44     19.32     79.50     71.93     -0.00     -0.00      1.76 
   392.45     19.32     79.51     71.93     -0.00      0.00      1.76 
   392.46     19.31     79.52     71.93     -0.00      0.01      1.76 
