#Written by Robertson Geologging WinLogger V1.0/370
~VERSION INFORMATION
#------------------------------------------------------------------------------
 VERS. 2.0 : CWLS LOG ASCII STANDARD - VERSION 2.0
 WRAP. NO  : ONE LINE PER DEPTH STEP
~WELL INFORMATION
#MNEM.UNIT         DATA                                DESCRIPTION OF MNEMONIC
#------------------------------------------------------------------------------
 STRT.M         39.9100                            :   START DEPTH
 STOP.M        520.0300                            :   STOP DEPTH
 STEP.M          0.0100                            :   STEP VALUE
 NULL.        -999.2500                            :   NULL VALUE
 COMP.    White Young Gteen                        :   COMPANY NAME
 WELL.    Dawdon  Shaft                            :   WELL NAME
 FLD.     Dawdon                                   :   FIELD NAME
 LOC.     N/A                                      :   LOCATION
 PROV.    N/A                                      :   PROVINCE
 SRVC.    N/A                                      :   SERVICE COMPANY NAME
 DATE.    04 Oct 05                                :   DATE
 UWI.     N/A                                      :   UNIQUE WELL IDENTIFIER
~PARAMETER INFORMATION
#MNEMO.UNIT         VALUE                 DESCRIPTION OF MNEMONIC
#------------------------------------------------------------------------------
~OTHER INFORMATION SECTION
#------------------------------------------------------------------------------
 TCGS1365
~CURVE INFORMATION
#MNEMO.UNIT         API CODE              CURVE DESCRIPTION
#------------------------------------------------------------------------------
 DEPTH.M                                 :   0     Depth
 TEMP.DegC                               :   1     Temperature
 CN25.mS/cm                              :   2     Conductivity@25DegC
 COND.mS/cm                              :   3     Conductivity
 DELT.DegC                               :   4     Delta T
 DELC.mS/cm                              :   5     Delta C
 NGAM.CPS                                :   6     Natural Gamma
#------------------------------------------------------------------------------
~A  DEPTH     TEMP      CN25      COND      DELT      DELC      NGAM      
# ...
   199.24     15.98     62.77     49.65      0.03     -0.06      0.82 
   199.25     15.98     62.78     49.65      0.02     -0.05      0.82 
   199.26     15.98     62.78     49.65      0.02     -0.05      0.82 
   199.27     15.97     62.79     49.65      0.02     -0.05      0.82 
   199.28     15.97     62.80     49.65      0.01     -0.03      0.82 
   199.29     15.97     62.81     49.65      0.00     -0.01      0.82 
   199.30     15.96     62.81     49.65     -0.00     -0.00      0.82 
   199.31     15.96     62.83     49.65     -0.01      0.01      0.82 
   199.32     15.96     62.83     49.65     -0.01      0.02      0.82 
   199.33     15.96     62.84     49.65     -0.01      0.02      0.82 
   199.34     15.95     62.83     49.65     -0.01      0.01      0.82 
   199.35     15.96     62.84     49.65     -0.00      0.01      0.82 
   199.36     15.96     62.83     49.65     -0.00     -0.00      0.82 
   199.37     15.96     62.83     49.65      0.00      0.00      0.82 
   199.38     15.96     62.82     49.65      0.00     -0.00      0.82 
   199.39     15.96     62.82     49.65      0.00     -0.01      0.82 
   199.40     15.96     62.82     49.65      0.01     -0.01      0.82 
   199.41     15.97     62.81     49.65      0.01     -0.02      0.41 
   199.42     15.97     62.81     49.65      0.01     -0.02      0.41 
   199.43     15.97     62.81     49.65      0.01     -0.03      0.41 
   199.44     15.97     62.80     49.65      0.02     -0.03      0.41 
   199.45     15.97     62.80     49.65      0.01     -0.03      0.88 
   199.46     15.97     62.80     49.65      0.01     -0.03      0.88 
   199.47     15.97     62.81     49.65      0.01     -0.02      0.88 
   199.48     15.97     62.81     49.65      0.01     -0.02      0.88 
   199.49     15.97     62.81     49.65      0.01     -0.02      0.88 
   199.50     15.97     62.80     49.65      0.01     -0.03      0.88 
   199.51     15.97     62.80     49.65      0.01     -0.03      1.29 
   199.52     15.97     62.81     49.65      0.01     -0.03      1.29 
   199.53     15.97     62.81     49.65      0.01     -0.02      1.29 
   199.54     15.97     62.81     49.65      0.01     -0.02      1.29 
   199.55     15.97     62.81     49.65      0.01     -0.02      1.29 
   199.56     15.97     62.81     49.65      0.01     -0.02      1.29 
   199.57     15.97     62.80     49.65      0.01     -0.03      1.71 
   199.58     15.97     62.80     49.65      0.01     -0.03      2.12 
   199.59     15.97     62.80     49.65      0.01     -0.02      2.12 
   199.60     15.97     62.80     49.65      0.00     -0.01      2.12 
   199.61     15.97     62.81     49.65     -0.00      0.01      2.12 
   199.62     15.96     62.82     49.65     -0.01      0.02      1.65 
   199.63     15.96     62.81     49.65     -0.01      0.02      2.06 
   199.64     15.96     62.82     49.65     -0.01      0.02      2.47 
   199.65     15.97     62.81     49.65     -0.00      0.01      2.47 
   199.66     15.97     62.81     49.65     -0.00      0.02      2.47 
   199.67     15.96     62.81     49.65     -0.01      0.01      2.47 
   199.68     15.96     62.82     49.65     -0.01      0.02      2.06 
   199.69     15.96     62.82     49.65     -0.01      0.02      2.06 
   199.70     15.96     62.82     49.65     -0.00      0.02      1.65 
   199.71     15.96     62.81     49.65     -0.00      0.00      1.65 
   199.72     15.97     62.81     49.65      0.00     -0.01      2.06 
   199.73     15.97     62.81     49.65      0.00     -0.01      2.06 
   199.74     15.97     62.81     49.65      0.00     -0.01      1.65 
   199.75     15.96     62.81     49.65      0.00     -0.01      1.24 
   199.76     15.96     62.82     49.65     -0.00      0.01      1.24 
   199.77     15.96     62.83     49.65     -0.01      0.01      1.24 
   199.78     15.96     62.83     49.65     -0.01      0.02      1.24 
   199.79     15.96     62.83     49.65     -0.01      0.02      1.65 
   199.80     15.96     62.83     49.65     -0.01      0.02      1.24 
   199.81     15.96     62.83     49.65     -0.01      0.02      0.82 
   199.82     15.96     62.83     49.65     -0.01      0.02      0.82 
   199.83     15.96     62.83     49.65     -0.00      0.02      0.82 
   199.84     15.96     62.82     49.65     -0.00      0.01      0.82 
   199.85     15.96     62.82     49.65      0.00      0.00      0.82 
   199.86     15.96     62.82     49.65      0.00      0.00      0.82 
   199.87     15.96     62.82     49.65      0.00     -0.00      0.82 
   199.88     15.96     62.82     49.65      0.00      0.00      0.82 
   199.89     15.96     62.82     49.65      0.00     -0.00      0.41 
   199.90     15.97     62.81     49.65      0.00     -0.01      0.41 
   199.91     15.97     62.81     49.65      0.01     -0.01      0.41 
   199.92     15.97     62.80     49.65      0.01     -0.01      0.41 
   199.93     15.97     62.81     49.65      0.01     -0.02      0.41 
   199.94     15.97     62.81     49.65      0.01     -0.01      0.41 
   199.95     15.97     62.81     49.65      0.01     -0.01      0.41 
   199.96     15.97     62.80     49.65      0.01     -0.02      0.00 
   199.97     15.97     62.79     49.65      0.01     -0.04      0.41 
   199.98     15.97     62.79     49.65      0.02     -0.04      0.41 
   199.99     15.98     62.79     49.65      0.02     -0.05      0.41 
   200.00     15.97     62.79     49.65      0.02     -0.05      0.41 
   200.01     15.97     62.80     49.65      0.02     -0.05      0.41 
   200.02     15.97     62.80     49.65      0.01     -0.04      0.41 
   200.03     15.97     62.81     49.65      0.01     -0.03      0.41 
   200.04     15.97     62.82     49.65      0.01     -0.03      0.41 
   200.05     15.96     62.81     49.65      0.01     -0.04      0.41 
   200.06     15.96     62.82     49.65      0.01     -0.04      0.41 
   200.07     15.96     62.82     49.65      0.01     -0.03      0.41 
   200.08     15.96     62.82     49.65      0.01     -0.01      0.41 
   200.09     15.96     62.82     49.65      0.01     -0.02      0.41 
   200.10     15.97     62.81     49.65      0.01     -0.03      0.41 
   200.11     15.97     62.80     49.65      0.01     -0.03      0.82 
   200.12     15.97     62.79     49.65      0.01     -0.03      0.82 
   200.13     15.98     62.78     49.65      0.01     -0.03      0.82 
   200.14     15.98     62.78     49.65      0.01     -0.04      0.41 
   200.15     15.98     62.77     49.65      0.01     -0.03      0.41 
   200.16     15.98     62.77     49.65      0.00     -0.01      0.41 
   200.17     15.98     62.77     49.65      0.00     -0.00      0.41 
   200.18     15.98     62.77     49.65     -0.00     -0.00      0.41 
   200.19     15.98     62.77     49.65     -0.00      0.00      0.41 
   200.20     15.98     62.78     49.65     -0.01      0.01      0.82 
   200.21     15.97     62.79     49.65     -0.01      0.02      0.82 
   200.22     15.97     62.80     49.65     -0.01      0.03      0.82 
   200.23     15.97     62.80     49.65     -0.01      0.03      0.82 
   200.24     15.97     62.80     49.65     -0.01      0.03      0.82 
   200.25     15.97     62.81     49.65     -0.01      0.03      0.82 
   200.26     15.96     62.81     49.65     -0.01      0.03      0.82 
   200.27     15.96     62.82     49.65     -0.01      0.02      0.82 
   200.28     15.96     62.82     49.65     -0.00      0.01      0.41 
   200.29     15.96     62.83     49.65     -0.00      0.01      0.41 
   200.30     15.96     62.83     49.65     -0.00      0.01      0.41 
   200.31     15.96     62.83     49.65     -0.00      0.00      0.41 
   200.32     15.96     62.83     49.65      0.00     -0.00      0.41 
   200.33     15.96     62.83     49.65      0.00     -0.00      0.82 
   200.34     15.96     62.84     49.65      0.00      0.00      0.82 
   200.35     15.96     62.84     49.65     -0.00      0.01      0.82 
   200.36     15.96     62.83     49.65     -0.00      0.00      0.82 
