#Written by Robertson Geologging WinLogger V1.0/370
~VERSION INFORMATION
#------------------------------------------------------------------------------
 VERS. 2.0 : CWLS LOG ASCII STANDARD - VERSION 2.0
 WRAP. NO  : ONE LINE PER DEPTH STEP
~WELL INFORMATION
#MNEM.UNIT         DATA                                DESCRIPTION OF MNEMONIC
#------------------------------------------------------------------------------
 STRT.M         39.9100                            :   START DEPTH
 STOP.M        520.0300                            :   STOP DEPTH
 STEP.M          0.0100                            :   STEP VALUE
 NULL.        -999.2500                            :   NULL VALUE
 COMP.    White Young Gteen                        :   COMPANY NAME
 WELL.    Dawdon  Shaft                            :   WELL NAME
 FLD.     Dawdon                                   :   FIELD NAME
 LOC.     N/A                                      :   LOCATION
 PROV.    N/A                                      :   PROVINCE
 SRVC.    N/A                                      :   SERVICE COMPANY NAME
 DATE.    04 Oct 05                                :   DATE
 UWI.     N/A                                      :   UNIQUE WELL IDENTIFIER
~PARAMETER INFORMATION
#MNEMO.UNIT         VALUE                 DESCRIPTION OF MNEMONIC
#------------------------------------------------------------------------------
~OTHER INFORMATION SECTION
#------------------------------------------------------------------------------
 TCGS1365
~CURVE INFORMATION
#MNEMO.UNIT         API CODE              CURVE DESCRIPTION
#------------------------------------------------------------------------------
 DEPTH.M                                 :   0     Depth
 TEMP.DegC                               :   1     Temperature
 CN25.mS/cm                              :   2     Conductivity@25DegC
 COND.mS/cm                              :   3     Conductivity
 DELT.DegC                               :   4     Delta T
 DELC.mS/cm                              :   5     Delta C
 NGAM.CPS                                :   6     Natural Gamma
#------------------------------------------------------------------------------
~A  DEPTH     TEMP      CN25      COND      DELT      DELC      NGAM      
# ...
   263.65     16.03     62.64     49.64     -0.00      0.00      0.41 
   263.66     16.03     62.65     49.65     -0.00      0.01      0.41 
   263.67     16.03     62.65     49.65     -0.00      0.01      0.41 
   263.68     16.03     62.64     49.65     -0.00      0.01      0.41 
   263.69     16.03     62.64     49.65     -0.00      0.01      0.41 
   263.70     16.03     62.64     49.65     -0.00      0.01      0.41 
   263.71     16.03     62.64     49.65     -0.00      0.00      0.41 
   263.72     16.03     62.64     49.65      0.00     -0.00      0.41 
   263.73     16.03     62.64     49.65      0.00     -0.00      0.82 
   263.74     16.03     62.64     49.65      0.00     -0.00      0.82 
   263.75     16.03     62.64     49.65      0.00     -0.00      0.41 
   263.76     16.03     62.64     49.65     -0.00      0.00      0.41 
   263.77     16.03     62.64     49.65      0.00     -0.00      0.41 
   263.78     16.03     62.63     49.65      0.00     -0.00      0.41 
   263.79     16.03     62.63     49.65      0.00     -0.01      0.41 
   263.80     16.03     62.64     49.65      0.00     -0.00      0.41 
   263.81     16.03     62.64     49.65      0.00     -0.00      1.35 
   263.82     16.03     62.64     49.65      0.00     -0.00      1.35 
   263.83     16.03     62.64     49.65     -0.00      0.00      1.35 
   263.84     16.03     62.64     49.65      0.00     -0.00      1.35 
   263.85     16.03     62.64     49.65      0.00     -0.00      1.35 
   263.86     16.03     62.64     49.65     -0.00      0.00      1.35 
   263.87     16.03     62.64     49.65     -0.00      0.00      1.82 
   263.88     16.03     62.64     49.65     -0.00      0.01      1.82 
   263.89     16.03     62.64     49.65     -0.00      0.01      1.82 
   263.90     16.03     62.64     49.65     -0.00      0.01      1.41 
   263.91     16.03     62.63     49.65      0.00     -0.00      1.82 
   263.92     16.03     62.63     49.65      0.00     -0.01      1.82 
   263.93     16.03     62.63     49.65      0.00     -0.00      1.82 
   263.94     16.03     62.63     49.65      0.00     -0.01      1.82 
   263.95     16.03     62.64     49.65      0.00     -0.01      1.82 
   263.96     16.03     62.64     49.65      0.00     -0.00      1.82 
   263.97     16.03     62.64     49.65      0.00     -0.01      2.29 
   263.98     16.03     62.63     49.65      0.01     -0.01      1.35 
   263.99     16.03     62.63     49.65      0.01     -0.02      1.35 
   264.00     16.03     62.64     49.65      0.01     -0.02      1.35 
   264.01     16.03     62.63     49.65      0.01     -0.02      1.35 
   264.02     16.03     62.63     49.65      0.01     -0.02      1.35 
   264.03     16.03     62.63     49.64      0.00     -0.02      1.35 
   264.04     16.03     62.63     49.64      0.00     -0.02      0.88 
   264.05     16.03     62.62     49.64      0.00     -0.01      0.88 
   264.06     16.03     62.62     49.64      0.00     -0.00      0.88 
   264.07     16.03     62.62     49.64      0.00     -0.00      0.88 
   264.08     16.03     62.62     49.64     -0.00      0.00      0.47 
   264.09     16.03     62.63     49.65     -0.00      0.01      0.47 
   264.10     16.03     62.63     49.65     -0.00      0.01      0.47 
   264.11     16.03     62.63     49.64     -0.00      0.01      0.47 
   264.12     16.03     62.63     49.64     -0.00      0.00      0.47 
   264.13     16.03     62.62     49.64      0.00     -0.00      0.47 
   264.14     16.04     62.63     49.65      0.00     -0.01      0.00 
   264.15     16.03     62.63     49.65      0.01     -0.01      0.00 
   264.16     16.04     62.63     49.65      0.01     -0.02      0.00 
   264.17     16.04     62.63     49.65      0.01     -0.03      0.00 
   264.18     16.04     62.63     49.65      0.01     -0.03      0.00 
   264.19     16.04     62.63     49.65      0.01     -0.03      0.00 
   264.20     16.04     62.63     49.65      0.01     -0.03      0.00 
   264.21     16.04     62.63     49.65      0.01     -0.03      0.00 
   264.22     16.03     62.63     49.65      0.01     -0.03      0.00 
   264.23     16.03     62.63     49.65      0.01     -0.03      0.00 
   264.24     16.03     62.63     49.65      0.01     -0.03      0.00 
   264.25     16.03     62.63     49.65      0.01     -0.03      0.00 
   264.26     16.03     62.63     49.65      0.01     -0.02      0.00 
   264.27     16.03     62.63     49.65      0.01     -0.02      0.00 
   264.28     16.03     62.64     49.65      0.01     -0.01      0.47 
   264.29     16.03     62.64     49.65      0.01     -0.01      0.88 
   264.30     16.03     62.63     49.65      0.01     -0.02      0.88 
   264.31     16.03     62.63     49.65      0.01     -0.02      0.88 
   264.32     16.03     62.63     49.65      0.01     -0.02      0.88 
   264.33     16.03     62.63     49.65      0.01     -0.01      0.88 
   264.34     16.03     62.63     49.65      0.00     -0.01      0.88 
   264.35     16.03     62.63     49.65      0.00     -0.01      0.88 
   264.36     16.03     62.63     49.65      0.00     -0.00      1.29 
   264.37     16.03     62.64     49.65     -0.00      0.00      1.29 
   264.38     16.03     62.64     49.65      0.00      0.01      1.76 
   264.39     16.04     62.63     49.65      0.00     -0.00      1.76 
   264.40     16.04     62.62     49.65      0.00     -0.01      1.76 
   264.41     16.04     62.62     49.65      0.00     -0.01      1.76 
   264.42     16.04     62.62     49.65      0.00     -0.01      1.76 
   264.43     16.04     62.62     49.65      0.00     -0.00      1.76 
   264.44     16.04     62.62     49.65      0.00     -0.00      1.76 
   264.45     16.04     62.62     49.65      0.00     -0.01      1.29 
   264.46     16.04     62.61     49.65      0.01     -0.01      0.88 
   264.47     16.04     62.61     49.65      0.01     -0.02      1.29 
   264.48     16.05     62.60     49.65      0.01     -0.03      1.29 
   264.49     16.04     62.60     49.65      0.01     -0.03      1.29 
   264.50     16.04     62.61     49.65      0.01     -0.02      1.29 
   264.51     16.04     62.60     49.64      0.01     -0.02      1.29 
   264.52     16.04     62.61     49.64      0.01     -0.02      1.29 
   264.53     16.04     62.61     49.64      0.00     -0.02      0.88 
   264.54     16.04     62.61     49.64      0.00     -0.01      0.88 
   264.55     16.04     62.61     49.65      0.01     -0.01      0.41 
   264.56     16.04     62.61     49.65      0.00     -0.01      0.41 
   264.57     16.04     62.61     49.64      0.00     -0.01      0.41 
   264.58     16.04     62.62     49.64      0.00     -0.01      0.41 
   264.59     16.03     62.62     49.64      0.00     -0.00      0.41 
   264.60     16.03     62.63     49.64      0.00     -0.00      0.88 
   264.61     16.03     62.63     49.64      0.00     -0.00      0.88 
   264.62     16.03     62.64     49.65      0.00      0.00      0.88 
   264.63     16.03     62.64     49.65      0.00      0.00      0.88 
   264.64     16.03     62.65     49.65      0.00      0.01      0.47 
   264.65     16.03     62.65     49.65      0.00      0.00      0.47 
   264.66     16.03     62.65     49.65     -0.00      0.00      0.47 
   264.67     16.03     62.65     49.65     -0.00      0.01      0.47 
   264.68     16.02     62.65     49.65     -0.00      0.01      0.47 
   264.69     16.02     62.66     49.65     -0.01      0.01      0.47 
   264.70     16.02     62.65     49.65     -0.01      0.01      0.47 
   264.71     16.02     62.65     49.65     -0.01      0.02      0.47 
   264.72     16.03     62.65     49.65     -0.00      0.01      0.88 
   264.73     16.03     62.65     49.65     -0.00      0.01      0.88 
   264.74     16.03     62.65     49.65     -0.00      0.01      0.88 
   264.75     16.03     62.64     49.65      0.00     -0.00      0.88 
   264.76     16.03     62.63     49.65      0.00     -0.01      0.88 
   264.77     16.03     62.63     49.65      0.00     -0.01      0.41 
