#Written by Robertson Geologging WinLogger V1.0/370
~VERSION INFORMATION
#------------------------------------------------------------------------------
 VERS. 2.0 : CWLS LOG ASCII STANDARD - VERSION 2.0
 WRAP. NO  : ONE LINE PER DEPTH STEP
~WELL INFORMATION
#MNEM.UNIT         DATA                                DESCRIPTION OF MNEMONIC
#------------------------------------------------------------------------------
 STRT.M         39.9100                            :   START DEPTH
 STOP.M        520.0300                            :   STOP DEPTH
 STEP.M          0.0100                            :   STEP VALUE
 NULL.        -999.2500                            :   NULL VALUE
 COMP.    White Young Gteen                        :   COMPANY NAME
 WELL.    Dawdon  Shaft                            :   WELL NAME
 FLD.     Dawdon                                   :   FIELD NAME
 LOC.     N/A                                      :   LOCATION
 PROV.    N/A                                      :   PROVINCE
 SRVC.    N/A                                      :   SERVICE COMPANY NAME
 DATE.    04 Oct 05                                :   DATE
 UWI.     N/A                                      :   UNIQUE WELL IDENTIFIER
~PARAMETER INFORMATION
#MNEMO.UNIT         VALUE                 DESCRIPTION OF MNEMONIC
#------------------------------------------------------------------------------
~OTHER INFORMATION SECTION
#------------------------------------------------------------------------------
 TCGS1365
~CURVE INFORMATION
#MNEMO.UNIT         API CODE              CURVE DESCRIPTION
#------------------------------------------------------------------------------
 DEPTH.M                                 :   0     Depth
 TEMP.DegC                               :   1     Temperature
 CN25.mS/cm                              :   2     Conductivity@25DegC
 COND.mS/cm                              :   3     Conductivity
 DELT.DegC                               :   4     Delta T
 DELC.mS/cm                              :   5     Delta C
 NGAM.CPS                                :   6     Natural Gamma
#------------------------------------------------------------------------------
~A  DEPTH     TEMP      CN25      COND      DELT      DELC      NGAM      
# ...
   326.93     16.65     72.34     59.04      0.05     -0.06      0.41 
   326.94     16.65     72.34     59.04      0.05     -0.06      0.41 
   326.95     16.65     72.35     59.04      0.05     -0.06      0.41 
   326.96     16.64     72.35     59.04      0.04     -0.05      0.41 
   326.97     16.64     72.35     59.04      0.04     -0.05      0.41 
   326.98     16.64     72.35     59.04      0.04     -0.05      0.41 
   326.99     16.64     72.35     59.04      0.04     -0.05      0.41 
   327.00     16.64     72.35     59.04      0.05     -0.06      0.41 
   327.01     16.64     72.35     59.04      0.04     -0.06      0.41 
   327.02     16.64     72.36     59.05      0.04     -0.05      0.00 
   327.03     16.64     72.36     59.05      0.04     -0.03      0.00 
   327.04     16.64     72.37     59.05      0.03     -0.01      0.00 
   327.05     16.64     72.37     59.05      0.03     -0.01      0.00 
   327.06     16.64     72.36     59.05      0.03     -0.02      0.00 
   327.07     16.64     72.36     59.05      0.03     -0.02      0.00 
   327.08     16.64     72.36     59.05      0.03     -0.02      0.00 
   327.09     16.64     72.37     59.05      0.03     -0.01      0.00 
   327.10     16.64     72.36     59.05      0.03     -0.01      0.00 
   327.11     16.64     72.37     59.06      0.03     -0.00      0.41 
   327.12     16.65     72.36     59.06      0.03      0.00      0.41 
   327.13     16.65     72.36     59.06      0.03     -0.00      1.24 
   327.14     16.65     72.35     59.06      0.03     -0.01      1.24 
   327.15     16.65     72.35     59.06      0.03     -0.01      1.24 
   327.16     16.65     72.35     59.06      0.03     -0.01      1.24 
   327.17     16.65     72.35     59.06      0.03     -0.00      1.24 
   327.18     16.65     72.35     59.06      0.03     -0.00      1.24 
   327.19     16.65     72.35     59.06      0.03      0.00      1.24 
   327.20     16.65     72.35     59.06      0.03      0.00      1.24 
   327.21     16.65     72.35     59.07      0.03      0.00      1.24 
   327.22     16.65     72.35     59.06      0.03      0.00      1.71 
   327.23     16.65     72.35     59.07      0.03     -0.01      1.71 
   327.24     16.65     72.35     59.07      0.03     -0.01      1.71 
   327.25     16.66     72.35     59.07      0.04     -0.01      1.71 
   327.26     16.66     72.35     59.07      0.04     -0.02      1.71 
   327.27     16.66     72.35     59.07      0.04     -0.01      1.71 
   327.28     16.66     72.35     59.07      0.04     -0.01      1.29 
   327.29     16.66     72.34     59.07      0.04     -0.02      1.29 
   327.30     16.66     72.34     59.07      0.04     -0.03      0.47 
   327.31     16.66     72.34     59.07      0.04     -0.03      0.47 
   327.32     16.66     72.34     59.07      0.04     -0.03      0.47 
   327.33     16.66     72.34     59.08      0.04     -0.04      0.47 
   327.34     16.66     72.34     59.08      0.04     -0.03      0.47 
   327.35     16.66     72.34     59.08      0.04     -0.03      0.47 
   327.36     16.66     72.35     59.08      0.04     -0.03      0.47 
   327.37     16.66     72.35     59.08      0.04     -0.03      0.47 
   327.38     16.66     72.35     59.08      0.04     -0.04      0.47 
   327.39     16.66     72.35     59.08      0.04     -0.04      0.00 
   327.40     16.66     72.34     59.08      0.04     -0.04      0.00 
   327.41     16.66     72.34     59.08      0.04     -0.04      0.00 
   327.42     16.66     72.34     59.08      0.04     -0.04      0.00 
   327.43     16.66     72.34     59.08      0.04     -0.03      0.00 
   327.44     16.66     72.34     59.08      0.04     -0.03      0.00 
   327.45     16.66     72.34     59.08      0.04     -0.02      0.00 
   327.46     16.66     72.34     59.08      0.04     -0.02      0.00 
   327.47     16.66     72.34     59.08      0.03     -0.02      0.00 
   327.48     16.66     72.35     59.08      0.03     -0.00      0.00 
   327.49     16.66     72.35     59.08      0.03      0.00      0.00 
   327.50     16.66     72.35     59.08      0.03      0.00      0.00 
   327.51     16.66     72.35     59.08      0.03      0.01      0.00 
   327.52     16.66     72.36     59.08      0.03      0.01      0.00 
   327.53     16.66     72.36     59.09      0.03      0.01      0.00 
   327.54     16.66     72.36     59.09      0.02      0.02      0.00 
   327.55     16.66     72.36     59.09      0.02      0.02      0.47 
   327.56     16.66     72.36     59.09      0.02      0.02      0.47 
   327.57     16.66     72.36     59.09      0.02      0.02      0.47 
   327.58     16.66     72.36     59.09      0.02      0.02      0.94 
   327.59     16.66     72.36     59.09      0.02      0.02      0.94 
   327.60     16.66     72.37     59.09      0.02      0.02      0.94 
   327.61     16.66     72.37     59.09      0.02      0.03      0.94 
   327.62     16.66     72.37     59.09      0.02      0.03      1.35 
   327.63     16.66     72.37     59.09      0.02      0.03      1.35 
   327.64     16.66     72.37     59.09      0.03      0.02      1.35 
   327.65     16.66     72.36     59.09      0.03      0.01      1.35 
   327.66     16.66     72.36     59.10      0.03      0.01      1.35 
   327.67     16.67     72.35     59.10      0.03     -0.00      1.35 
   327.68     16.67     72.35     59.10      0.04     -0.01      1.35 
   327.69     16.67     72.35     59.10      0.04     -0.01      1.35 
   327.70     16.67     72.35     59.10      0.04     -0.02      1.35 
   327.71     16.67     72.34     59.10      0.04     -0.03      1.35 
   327.72     16.67     72.34     59.10      0.04     -0.03      0.88 
   327.73     16.67     72.34     59.10      0.04     -0.03      1.35 
   327.74     16.67     72.35     59.11      0.04     -0.02      1.35 
   327.75     16.67     72.35     59.10      0.04     -0.02      0.88 
   327.76     16.67     72.36     59.11      0.03     -0.01      0.88 
   327.77     16.67     72.37     59.11      0.03      0.00      1.29 
   327.78     16.66     72.38     59.11      0.03      0.01      1.29 
   327.79     16.66     72.38     59.11      0.02      0.02      0.88 
   327.80     16.66     72.39     59.11      0.02      0.03      0.88 
   327.81     16.66     72.39     59.11      0.02      0.03      0.88 
   327.82     16.66     72.39     59.11      0.02      0.04      1.29 
   327.83     16.66     72.40     59.11      0.02      0.04      1.29 
   327.84     16.66     72.40     59.11      0.01      0.05      1.29 
   327.85     16.66     72.40     59.11      0.01      0.05      1.29 
   327.86     16.66     72.40     59.12      0.01      0.06      1.29 
   327.87     16.66     72.40     59.12      0.01      0.06      1.29 
   327.88     16.66     72.40     59.12      0.01      0.05      1.29 
   327.89     16.66     72.39     59.12      0.02      0.05      1.29 
   327.90     16.66     72.39     59.12      0.02      0.05      0.82 
   327.91     16.66     72.39     59.12      0.02      0.05      0.82 
   327.92     16.66     72.39     59.12      0.02      0.05      0.82 
   327.93     16.67     72.39     59.12      0.02      0.05      0.82 
   327.94     16.67     72.38     59.12      0.02      0.04      0.41 
   327.95     16.67     72.39     59.13      0.02      0.04      0.41 
   327.96     16.67     72.38     59.13      0.02      0.03      0.41 
   327.97     16.67     72.38     59.13      0.03      0.03      0.41 
   327.98     16.67     72.38     59.13      0.03      0.03      0.41 
   327.99     16.67     72.38     59.13      0.03      0.04      0.00 
   328.00     16.67     72.39     59.14      0.03      0.04      0.00 
   328.01     16.67     72.39     59.14      0.03      0.03      0.00 
   328.02     16.67     72.39     59.14      0.03      0.03      0.00 
   328.03     16.67     72.39     59.14      0.03      0.02      0.00 
   328.04     16.67     72.39     59.14      0.03      0.02      0.00 
   328.05     16.67     72.39     59.14      0.03      0.03      0.00 
