#Written by Robertson Geologging WinLogger V1.0/370
~VERSION INFORMATION
#------------------------------------------------------------------------------
 VERS. 2.0 : CWLS LOG ASCII STANDARD - VERSION 2.0
 WRAP. NO  : ONE LINE PER DEPTH STEP
~WELL INFORMATION
#MNEM.UNIT         DATA                                DESCRIPTION OF MNEMONIC
#------------------------------------------------------------------------------
 STRT.M         39.9100                            :   START DEPTH
 STOP.M        520.0300                            :   STOP DEPTH
 STEP.M          0.0100                            :   STEP VALUE
 NULL.        -999.2500                            :   NULL VALUE
 COMP.    White Young Gteen                        :   COMPANY NAME
 WELL.    Dawdon  Shaft                            :   WELL NAME
 FLD.     Dawdon                                   :   FIELD NAME
 LOC.     N/A                                      :   LOCATION
 PROV.    N/A                                      :   PROVINCE
 SRVC.    N/A                                      :   SERVICE COMPANY NAME
 DATE.    04 Oct 05                                :   DATE
 UWI.     N/A                                      :   UNIQUE WELL IDENTIFIER
~PARAMETER INFORMATION
#MNEMO.UNIT         VALUE                 DESCRIPTION OF MNEMONIC
#------------------------------------------------------------------------------
~OTHER INFORMATION SECTION
#------------------------------------------------------------------------------
 TCGS1365
~CURVE INFORMATION
#MNEMO.UNIT         API CODE              CURVE DESCRIPTION
#------------------------------------------------------------------------------
 DEPTH.M                                 :   0     Depth
 TEMP.DegC                               :   1     Temperature
 CN25.mS/cm                              :   2     Conductivity@25DegC
 COND.mS/cm                              :   3     Conductivity
 DELT.DegC                               :   4     Delta T
 DELC.mS/cm                              :   5     Delta C
 NGAM.CPS                                :   6     Natural Gamma
#------------------------------------------------------------------------------
~A  DEPTH     TEMP      CN25      COND      DELT      DELC      NGAM      
# ...
   359.70     19.35     79.92     72.37      0.03      0.02      3.47 
   359.71     19.34     79.93     72.37      0.02      0.04      3.00 
   359.72     19.34     79.94     72.37      0.02      0.04      3.06 
   359.73     19.33     79.95     72.37      0.01      0.06      3.06 
   359.74     19.33     79.96     72.37      0.01      0.06      3.06 
   359.75     19.33     79.96     72.37      0.01      0.06      3.06 
   359.76     19.33     79.97     72.37      0.01      0.06      2.65 
   359.77     19.33     79.97     72.37      0.01      0.06      2.65 
   359.78     19.33     79.96     72.36      0.01      0.05      2.24 
   359.79     19.33     79.95     72.37      0.01      0.04      2.24 
   359.80     19.33     79.94     72.36      0.01      0.03      2.24 
   359.81     19.34     79.94     72.36      0.01      0.02      2.24 
   359.82     19.34     79.93     72.36      0.01      0.01      1.82 
   359.83     19.34     79.94     72.37      0.02      0.01      1.82 
   359.84     19.34     79.93     72.36      0.02      0.01      1.82 
   359.85     19.34     79.93     72.36      0.02     -0.00      1.82 
   359.86     19.34     79.92     72.36      0.02      0.00      1.82 
   359.87     19.34     79.91     72.36      0.01      0.00      1.35 
   359.88     19.34     79.91     72.36      0.01     -0.00      1.35 
   359.89     19.35     79.91     72.36      0.02     -0.00      0.88 
   359.90     19.34     79.91     72.36      0.01      0.00      0.88 
   359.91     19.35     79.91     72.37      0.01      0.00      0.88 
   359.92     19.35     79.90     72.36      0.01     -0.00      0.88 
   359.93     19.35     79.90     72.36      0.01     -0.01      0.88 
   359.94     19.35     79.90     72.36      0.01     -0.01      0.88 
   359.95     19.35     79.90     72.36      0.01     -0.01      0.88 
   359.96     19.34     79.91     72.36      0.01     -0.00      0.88 
   359.97     19.34     79.91     72.36      0.01      0.00      0.88 
   359.98     19.34     79.91     72.36      0.01     -0.00      0.88 
   359.99     19.34     79.91     72.35      0.01     -0.01      0.88 
   360.00     19.34     79.92     72.36      0.01     -0.01      0.88 
   360.01     19.34     79.91     72.35      0.01     -0.02      0.88 
   360.02     19.34     79.92     72.35      0.01     -0.02      0.41 
   360.03     19.34     79.92     72.36      0.01     -0.01      0.00 
   360.04     19.34     79.92     72.36      0.01     -0.01      0.00 
   360.05     19.34     79.91     72.36      0.01     -0.01      0.00 
   360.06     19.34     79.91     72.36      0.01     -0.01      0.00 
   360.07     19.34     79.91     72.35      0.00     -0.01      0.00 
   360.08     19.34     79.92     72.35      0.00      0.00      0.00 
   360.09     19.34     79.93     72.35     -0.00      0.02      0.47 
   360.10     19.33     79.94     72.35     -0.01      0.03      0.47 
   360.11     19.33     79.94     72.35     -0.01      0.04      0.47 
   360.12     19.33     79.95     72.35     -0.01      0.04      0.47 
   360.13     19.33     79.95     72.36     -0.01      0.04      0.47 
   360.14     19.33     79.94     72.35     -0.01      0.03      0.94 
   360.15     19.33     79.94     72.35     -0.01      0.02      0.94 
   360.16     19.33     79.94     72.35     -0.01      0.02      0.94 
   360.17     19.33     79.94     72.35     -0.01      0.02      0.94 
   360.18     19.33     79.94     72.35     -0.01      0.02      0.94 
   360.19     19.33     79.94     72.35     -0.00      0.01      1.35 
   360.20     19.34     79.92     72.35     -0.00     -0.01      1.82 
   360.21     19.34     79.92     72.35     -0.00      0.00      2.29 
   360.22     19.34     79.92     72.35     -0.01      0.01      2.29 
   360.23     19.34     79.92     72.35     -0.01      0.02      2.29 
   360.24     19.33     79.93     72.35     -0.01      0.03      2.29 
   360.25     19.33     79.93     72.35     -0.02      0.04      2.29 
   360.26     19.33     79.93     72.35     -0.02      0.04      1.82 
   360.27     19.33     79.93     72.35     -0.02      0.04      1.82 
   360.28     19.33     79.93     72.35     -0.02      0.04      1.82 
   360.29     19.33     79.92     72.34     -0.02      0.04      1.82 
   360.30     19.33     79.92     72.34     -0.02      0.03      1.82 
   360.31     19.33     79.93     72.35     -0.02      0.04      1.35 
   360.32     19.33     79.92     72.34     -0.02      0.03      1.35 
   360.33     19.33     79.92     72.34     -0.02      0.03      1.35 
   360.34     19.33     79.92     72.34     -0.02      0.02      1.35 
   360.35     19.34     79.91     72.34     -0.01      0.01      1.35 
   360.36     19.33     79.92     72.34     -0.01      0.02      0.94 
   360.37     19.33     79.94     72.35     -0.02      0.03      0.47 
   360.38     19.33     79.94     72.34     -0.02      0.03      0.00 
   360.39     19.33     79.95     72.34     -0.02      0.03      0.94 
   360.40     19.32     79.95     72.34     -0.02      0.03      0.94 
   360.41     19.32     79.96     72.34     -0.02      0.03      1.41 
   360.42     19.32     79.96     72.34     -0.02      0.02      1.41 
   360.43     19.32     79.96     72.34     -0.01      0.02      1.88 
   360.44     19.32     79.95     72.34     -0.01      0.01      1.88 
   360.45     19.33     79.94     72.34     -0.01      0.00      2.35 
   360.46     19.33     79.93     72.34     -0.01     -0.01      2.76 
   360.47     19.33     79.92     72.34     -0.01     -0.02      2.76 
   360.48     19.34     79.90     72.34     -0.00     -0.02      2.76 
   360.49     19.34     79.89     72.34     -0.00     -0.02      3.24 
   360.50     19.35     79.88     72.34     -0.00     -0.03      3.65 
   360.51     19.35     79.87     72.34     -0.00     -0.04      3.65 
   360.52     19.35     79.87     72.34     -0.00     -0.03      3.65 
   360.53     19.35     79.85     72.33      0.00     -0.04      3.65 
   360.54     19.35     79.85     72.34      0.00     -0.03      4.47 
   360.55     19.35     79.85     72.33      0.00     -0.05      4.47 
   360.56     19.35     79.86     72.33      0.00     -0.04      3.94 
   360.57     19.35     79.87     72.34     -0.00     -0.02      4.41 
   360.58     19.34     79.88     72.34     -0.01     -0.01      3.94 
   360.59     19.34     79.90     72.34     -0.01     -0.00      4.35 
   360.60     19.34     79.90     72.33     -0.01     -0.00      3.88 
   360.61     19.33     79.91     72.33     -0.01      0.00      3.88 
   360.62     19.33     79.92     72.33     -0.01      0.01      3.88 
   360.63     19.33     79.92     72.33     -0.02      0.01      3.47 
   360.64     19.33     79.93     72.33     -0.02      0.03      3.47 
   360.65     19.33     79.93     72.33     -0.02      0.03      3.47 
   360.66     19.33     79.93     72.33     -0.02      0.04      3.00 
   360.67     19.33     79.93     72.33     -0.02      0.03      2.59 
   360.68     19.33     79.92     72.32     -0.02      0.01      2.59 
   360.69     19.33     79.92     72.33     -0.01     -0.00      3.00 
   360.70     19.33     79.91     72.33     -0.01     -0.02      3.00 
   360.71     19.34     79.91     72.33     -0.00     -0.03      2.18 
   360.72     19.34     79.90     72.33      0.00     -0.05      2.18 
   360.73     19.34     79.89     72.33      0.01     -0.07      2.18 
   360.74     19.34     79.89     72.33      0.01     -0.08      1.71 
   360.75     19.34     79.88     72.33      0.01     -0.09      1.71 
   360.76     19.34     79.87     72.33      0.02     -0.09      1.29 
   360.77     19.35     79.87     72.32      0.02     -0.10      1.29 
   360.78     19.35     79.86     72.33      0.02     -0.09      1.29 
   360.79     19.35     79.86     72.33      0.01     -0.08      0.82 
   360.80     19.35     79.87     72.33      0.01     -0.07      0.82 
   360.81     19.34     79.87     72.33      0.01     -0.06      1.24 
   360.82     19.34     79.88     72.33      0.01     -0.06      1.24 
