#Written by Robertson Geologging WinLogger V1.0/370
~VERSION INFORMATION
#------------------------------------------------------------------------------
 VERS. 2.0 : CWLS LOG ASCII STANDARD - VERSION 2.0
 WRAP. NO  : ONE LINE PER DEPTH STEP
~WELL INFORMATION
#MNEM.UNIT         DATA                                DESCRIPTION OF MNEMONIC
#------------------------------------------------------------------------------
 STRT.M         39.9100                            :   START DEPTH
 STOP.M        520.0300                            :   STOP DEPTH
 STEP.M          0.0100                            :   STEP VALUE
 NULL.        -999.2500                            :   NULL VALUE
 COMP.    White Young Gteen                        :   COMPANY NAME
 WELL.    Dawdon  Shaft                            :   WELL NAME
 FLD.     Dawdon                                   :   FIELD NAME
 LOC.     N/A                                      :   LOCATION
 PROV.    N/A                                      :   PROVINCE
 SRVC.    N/A                                      :   SERVICE COMPANY NAME
 DATE.    04 Oct 05                                :   DATE
 UWI.     N/A                                      :   UNIQUE WELL IDENTIFIER
~PARAMETER INFORMATION
#MNEMO.UNIT         VALUE                 DESCRIPTION OF MNEMONIC
#------------------------------------------------------------------------------
~OTHER INFORMATION SECTION
#------------------------------------------------------------------------------
 TCGS1365
~CURVE INFORMATION
#MNEMO.UNIT         API CODE              CURVE DESCRIPTION
#------------------------------------------------------------------------------
 DEPTH.M                                 :   0     Depth
 TEMP.DegC                               :   1     Temperature
 CN25.mS/cm                              :   2     Conductivity@25DegC
 COND.mS/cm                              :   3     Conductivity
 DELT.DegC                               :   4     Delta T
 DELC.mS/cm                              :   5     Delta C
 NGAM.CPS                                :   6     Natural Gamma
#------------------------------------------------------------------------------
~A  DEPTH     TEMP      CN25      COND      DELT      DELC      NGAM      
# ...
   135.96     12.36     27.49     16.10      0.03      0.45      0.41 
   135.97     12.36     27.50     16.10      0.03      0.46      0.41 
   135.98     12.37     27.50     16.11      0.03      0.45      0.41 
   135.99     12.37     27.50     16.11      0.03      0.45      0.41 
   136.00     12.37     27.51     16.12      0.03      0.45      0.41 
   136.01     12.37     27.51     16.12      0.03      0.46      0.41 
   136.02     12.36     27.52     16.12      0.03      0.46      0.41 
   136.03     12.36     27.53     16.13      0.02      0.47      0.41 
   136.04     12.36     27.54     16.13      0.02      0.47      0.41 
   136.05     12.36     27.55     16.14      0.02      0.47      0.41 
   136.06     12.36     27.55     16.14      0.02      0.47      0.41 
   136.07     12.36     27.56     16.14      0.02      0.47      0.00 
   136.08     12.36     27.56     16.14      0.02      0.47      0.00 
   136.09     12.36     27.56     16.15      0.02      0.46      0.00 
   136.10     12.36     27.57     16.15      0.02      0.47      0.00 
   136.11     12.36     27.57     16.16      0.03      0.46      0.00 
   136.12     12.36     27.57     16.16      0.03      0.45      0.00 
   136.13     12.36     27.58     16.16      0.03      0.45      0.00 
   136.14     12.37     27.57     16.17      0.03      0.45      0.00 
   136.15     12.37     27.58     16.17      0.04      0.45      0.00 
   136.16     12.37     27.58     16.18      0.04      0.44      0.00 
   136.17     12.37     27.58     16.18      0.04      0.44      0.00 
   136.18     12.37     27.58     16.18      0.04      0.45      0.00 
   136.19     12.37     27.59     16.19      0.04      0.45      0.00 
   136.20     12.37     27.60     16.19      0.03      0.45      0.00 
   136.21     12.37     27.60     16.19      0.03      0.45      0.00 
   136.22     12.37     27.61     16.20      0.03      0.46      0.00 
   136.23     12.37     27.62     16.20      0.02      0.47      0.00 
   136.24     12.37     27.63     16.20      0.02      0.47      0.00 
   136.25     12.37     27.63     16.21      0.02      0.47      0.00 
   136.26     12.36     27.64     16.21      0.02      0.47      0.00 
   136.27     12.36     27.65     16.22      0.02      0.47      0.00 
   136.28     12.36     27.65     16.22      0.02      0.47      0.00 
   136.29     12.36     27.66     16.22      0.02      0.48      0.00 
   136.30     12.36     27.67     16.23      0.02      0.48      0.00 
   136.31     12.36     27.67     16.23      0.02      0.47      0.00 
   136.32     12.36     27.67     16.24      0.02      0.47      0.00 
   136.33     12.36     27.68     16.24      0.02      0.47      0.00 
   136.34     12.37     27.68     16.24      0.02      0.46      0.00 
   136.35     12.37     27.68     16.25      0.03      0.46      0.00 
   136.36     12.37     27.68     16.25      0.03      0.46      0.00 
   136.37     12.37     27.69     16.25      0.03      0.46      0.00 
   136.38     12.37     27.70     16.26      0.02      0.46      0.00 
   136.39     12.37     27.71     16.26      0.02      0.47      0.00 
   136.40     12.37     27.71     16.27      0.02      0.46      0.00 
   136.41     12.37     27.71     16.27      0.03      0.46      0.00 
   136.42     12.37     27.72     16.28      0.03      0.46      0.00 
   136.43     12.37     27.72     16.28      0.03      0.46      0.00 
   136.44     12.37     27.72     16.28      0.03      0.46      0.00 
   136.45     12.37     27.73     16.29      0.03      0.47      0.00 
   136.46     12.37     27.74     16.29      0.02      0.47      0.00 
   136.47     12.37     27.75     16.30      0.02      0.48      0.00 
   136.48     12.37     27.76     16.30      0.02      0.48      0.00 
   136.49     12.37     27.76     16.30      0.02      0.47      0.00 
   136.50     12.37     27.76     16.31      0.03      0.47      0.00 
   136.51     12.37     27.77     16.31      0.03      0.47      0.00 
   136.52     12.37     27.77     16.32      0.03      0.47      0.00 
   136.53     12.37     27.78     16.32      0.02      0.47      0.00 
   136.54     12.37     27.79     16.32      0.02      0.47      0.00 
   136.55     12.36     27.80     16.33      0.02      0.47      0.00 
   136.56     12.36     27.80     16.33      0.02      0.48      0.00 
   136.57     12.36     27.80     16.33      0.02      0.47      0.00 
   136.58     12.37     27.81     16.34      0.02      0.47      0.00 
   136.59     12.37     27.81     16.34      0.02      0.47      0.00 
   136.60     12.37     27.82     16.35      0.02      0.47      0.00 
   136.61     12.36     27.82     16.35      0.02      0.47      0.00 
   136.62     12.36     27.83     16.35      0.02      0.47      0.00 
   136.63     12.36     27.83     16.35      0.02      0.47      0.00 
   136.64     12.36     27.84     16.36      0.02      0.47      0.00 
   136.65     12.36     27.84     16.36      0.02      0.47      0.00 
   136.66     12.37     27.85     16.37      0.02      0.47      0.00 
   136.67     12.37     27.85     16.37      0.02      0.47      0.00 
   136.68     12.37     27.85     16.38      0.02      0.47      0.00 
   136.69     12.37     27.86     16.38      0.02      0.48      0.00 
   136.70     12.37     27.86     16.38      0.02      0.48      0.00 
   136.71     12.37     27.87     16.39      0.01      0.49      0.00 
   136.72     12.37     27.88     16.39      0.01      0.49      0.00 
   136.73     12.37     27.88     16.40      0.01      0.49      0.00 
   136.74     12.37     27.89     16.40      0.01      0.49      0.00 
   136.75     12.37     27.89     16.40      0.01      0.50      0.41 
   136.76     12.37     27.89     16.41      0.01      0.49      0.41 
   136.77     12.37     27.90     16.41      0.01      0.49      0.41 
   136.78     12.37     27.90     16.41      0.01      0.49      0.41 
   136.79     12.37     27.90     16.42      0.01      0.48      0.41 
   136.80     12.37     27.90     16.42      0.02      0.47      0.41 
   136.81     12.37     27.91     16.42      0.02      0.48      0.41 
   136.82     12.37     27.91     16.43      0.02      0.47      0.41 
   136.83     12.38     27.91     16.43      0.02      0.47      0.41 
   136.84     12.38     27.92     16.43      0.02      0.47      0.41 
   136.85     12.38     27.92     16.44      0.02      0.47      0.41 
   136.86     12.38     27.93     16.44      0.02      0.47      0.41 
   136.87     12.38     27.93     16.45      0.02      0.48      0.41 
   136.88     12.38     27.94     16.45      0.02      0.48      0.41 
   136.89     12.38     27.95     16.46      0.02      0.48      0.41 
   136.90     12.38     27.95     16.46      0.02      0.48      0.41 
   136.91     12.38     27.95     16.47      0.02      0.48      0.41 
   136.92     12.38     27.96     16.47      0.02      0.48      0.00 
   136.93     12.38     27.96     16.47      0.02      0.48      0.00 
   136.94     12.38     27.97     16.48      0.02      0.49      0.47 
   136.95     12.38     27.98     16.48      0.01      0.49      0.47 
   136.96     12.38     27.98     16.48      0.01      0.49      0.47 
   136.97     12.38     27.99     16.49      0.01      0.49      0.47 
   136.98     12.38     28.00     16.49      0.01      0.49      0.47 
   136.99     12.38     28.01     16.50      0.01      0.50      0.47 
   137.00     12.37     28.01     16.50      0.01      0.50      0.47 
   137.01     12.37     28.02     16.51      0.01      0.50      0.47 
   137.02     12.37     28.03     16.51      0.01      0.50      0.47 
   137.03     12.37     28.04     16.52      0.01      0.50      0.47 
   137.04     12.37     28.05     16.52      0.01      0.50      0.47 
   137.05     12.37     28.05     16.52      0.01      0.50      0.47 
   137.06     12.37     28.05     16.53      0.01      0.49      0.88 
   137.07     12.37     28.06     16.53      0.01      0.50      0.88 
   137.08     12.37     28.06     16.53      0.01      0.49      0.88 
