#Written by Robertson Geologging WinLogger V1.0/370
~VERSION INFORMATION
#------------------------------------------------------------------------------
 VERS. 2.0 : CWLS LOG ASCII STANDARD - VERSION 2.0
 WRAP. NO  : ONE LINE PER DEPTH STEP
~WELL INFORMATION
#MNEM.UNIT         DATA                                DESCRIPTION OF MNEMONIC
#------------------------------------------------------------------------------
 STRT.M         39.9100                            :   START DEPTH
 STOP.M        520.0300                            :   STOP DEPTH
 STEP.M          0.0100                            :   STEP VALUE
 NULL.        -999.2500                            :   NULL VALUE
 COMP.    White Young Gteen                        :   COMPANY NAME
 WELL.    Dawdon  Shaft                            :   WELL NAME
 FLD.     Dawdon                                   :   FIELD NAME
 LOC.     N/A                                      :   LOCATION
 PROV.    N/A                                      :   PROVINCE
 SRVC.    N/A                                      :   SERVICE COMPANY NAME
 DATE.    04 Oct 05                                :   DATE
 UWI.     N/A                                      :   UNIQUE WELL IDENTIFIER
~PARAMETER INFORMATION
#MNEMO.UNIT         VALUE                 DESCRIPTION OF MNEMONIC
#------------------------------------------------------------------------------
~OTHER INFORMATION SECTION
#------------------------------------------------------------------------------
 TCGS1365
~CURVE INFORMATION
#MNEMO.UNIT         API CODE              CURVE DESCRIPTION
#------------------------------------------------------------------------------
 DEPTH.M                                 :   0     Depth
 TEMP.DegC                               :   1     Temperature
 CN25.mS/cm                              :   2     Conductivity@25DegC
 COND.mS/cm                              :   3     Conductivity
 DELT.DegC                               :   4     Delta T
 DELC.mS/cm                              :   5     Delta C
 NGAM.CPS                                :   6     Natural Gamma
#------------------------------------------------------------------------------
~A  DEPTH     TEMP      CN25      COND      DELT      DELC      NGAM      
# ...
   232.01     16.01     62.69     49.64      0.00      0.00      0.41 
   232.02     16.01     62.69     49.63     -0.00      0.00      0.00 
   232.03     16.01     62.69     49.63     -0.00      0.01      0.00 
   232.04     16.01     62.68     49.63     -0.00      0.00      0.47 
   232.05     16.01     62.68     49.63     -0.00     -0.00      0.47 
   232.06     16.01     62.68     49.63      0.00     -0.01      0.47 
   232.07     16.01     62.68     49.64      0.00      0.00      0.47 
   232.08     16.01     62.67     49.63      0.00     -0.01      0.47 
   232.09     16.01     62.67     49.63      0.00     -0.01      0.47 
   232.10     16.01     62.67     49.63      0.00     -0.01      0.47 
   232.11     16.01     62.67     49.63      0.01     -0.01      0.47 
   232.12     16.01     62.67     49.63      0.00     -0.02      0.47 
   232.13     16.01     62.68     49.64      0.00     -0.00      0.47 
   232.14     16.01     62.68     49.63      0.00     -0.01      0.47 
   232.15     16.01     62.68     49.63      0.00     -0.00      0.88 
   232.16     16.01     62.68     49.63      0.00     -0.00      0.88 
   232.17     16.01     62.68     49.63      0.00     -0.00      1.35 
   232.18     16.01     62.68     49.63      0.00     -0.01      1.35 
   232.19     16.01     62.68     49.64      0.00     -0.00      1.35 
   232.20     16.01     62.68     49.64     -0.00      0.01      1.35 
   232.21     16.01     62.67     49.63      0.00     -0.00      0.88 
   232.22     16.01     62.67     49.63      0.00     -0.00      1.35 
   232.23     16.01     62.67     49.63      0.00     -0.01      1.35 
   232.24     16.01     62.66     49.63      0.01     -0.03      1.35 
   232.25     16.02     62.66     49.64      0.01     -0.03      1.35 
   232.26     16.02     62.66     49.64      0.01     -0.03      1.35 
   232.27     16.02     62.65     49.63      0.01     -0.03      1.35 
   232.28     16.02     62.66     49.63      0.01     -0.02      1.35 
   232.29     16.01     62.66     49.63      0.01     -0.02      1.76 
   232.30     16.01     62.67     49.63      0.01     -0.01      1.76 
   232.31     16.01     62.67     49.63      0.00     -0.01      1.76 
   232.32     16.01     62.68     49.64      0.00     -0.01      1.35 
   232.33     16.01     62.67     49.63      0.00     -0.00      1.35 
   232.34     16.01     62.67     49.63      0.00     -0.00      0.88 
   232.35     16.01     62.68     49.64     -0.00      0.01      0.88 
   232.36     16.01     62.68     49.64      0.00      0.01      0.88 
   232.37     16.01     62.68     49.64     -0.00      0.00      0.88 
   232.38     16.01     62.68     49.64     -0.00      0.01      0.88 
   232.39     16.01     62.67     49.64     -0.00      0.00      0.41 
   232.40     16.01     62.67     49.64      0.00     -0.00      0.41 
   232.41     16.02     62.66     49.64      0.00     -0.01      0.82 
   232.42     16.02     62.66     49.64      0.01     -0.02      1.29 
   232.43     16.02     62.66     49.64      0.01     -0.02      2.24 
   232.44     16.02     62.67     49.64      0.01     -0.02      2.24 
   232.45     16.02     62.66     49.64      0.01     -0.02      2.24 
   232.46     16.01     62.67     49.64      0.01     -0.02      2.24 
   232.47     16.01     62.67     49.64      0.01     -0.02      2.24 
   232.48     16.01     62.67     49.64      0.01     -0.02      2.24 
   232.49     16.01     62.68     49.64      0.01     -0.01      2.24 
   232.50     16.01     62.68     49.64      0.00     -0.01      2.24 
   232.51     16.01     62.68     49.63      0.00     -0.01      2.24 
   232.52     16.01     62.68     49.63      0.00     -0.01      2.24 
   232.53     16.01     62.68     49.63      0.00     -0.00      2.24 
   232.54     16.01     62.68     49.63      0.00     -0.01      2.24 
   232.55     16.01     62.67     49.63      0.00     -0.00      2.24 
   232.56     16.01     62.68     49.64      0.00     -0.00      2.24 
   232.57     16.01     62.67     49.64      0.00     -0.01      2.24 
   232.58     16.01     62.67     49.64     -0.00      0.00      1.82 
   232.59     16.01     62.67     49.64     -0.00      0.00      1.35 
   232.60     16.01     62.67     49.64      0.00     -0.00      0.82 
   232.61     16.01     62.67     49.64      0.00     -0.00      1.29 
   232.62     16.01     62.68     49.64      0.00      0.00      1.29 
   232.63     16.01     62.68     49.64      0.00     -0.00      0.88 
   232.64     16.01     62.68     49.64     -0.00      0.01      0.88 
   232.65     16.01     62.68     49.64     -0.00      0.01      0.88 
   232.66     16.01     62.68     49.64     -0.00      0.01      0.88 
   232.67     16.01     62.68     49.64     -0.00      0.01      0.88 
   232.68     16.01     62.68     49.64     -0.00      0.01      0.88 
   232.69     16.01     62.68     49.64     -0.00      0.00      0.88 
   232.70     16.01     62.67     49.64     -0.00      0.01      0.88 
   232.71     16.01     62.68     49.64     -0.00      0.01      0.88 
   232.72     16.01     62.68     49.63     -0.00      0.01      0.88 
   232.73     16.01     62.67     49.63     -0.00      0.00      0.88 
   232.74     16.01     62.68     49.64     -0.00      0.00      0.88 
   232.75     16.01     62.67     49.63      0.00     -0.01      0.88 
   232.76     16.02     62.66     49.63      0.01     -0.02      0.88 
   232.77     16.02     62.66     49.63      0.01     -0.02      0.47 
   232.78     16.02     62.66     49.63      0.01     -0.02      0.00 
   232.79     16.02     62.66     49.63      0.01     -0.01      0.00 
   232.80     16.02     62.66     49.64      0.00     -0.00      0.00 
   232.81     16.02     62.66     49.63      0.00     -0.01      0.47 
   232.82     16.02     62.66     49.63      0.00     -0.01      0.47 
   232.83     16.01     62.67     49.64      0.00     -0.00      0.47 
   232.84     16.01     62.67     49.64      0.00      0.00      0.47 
   232.85     16.01     62.67     49.64     -0.00      0.01      0.47 
   232.86     16.01     62.68     49.64     -0.00      0.01      0.47 
   232.87     16.01     62.68     49.64     -0.00      0.01      0.47 
   232.88     16.01     62.69     49.64     -0.01      0.01      0.47 
   232.89     16.01     62.69     49.64     -0.01      0.02      0.47 
   232.90     16.01     62.68     49.64     -0.01      0.01      0.94 
   232.91     16.01     62.68     49.64     -0.00      0.01      0.94 
   232.92     16.01     62.68     49.64     -0.00      0.01      0.94 
   232.93     16.01     62.67     49.64      0.00      0.00      0.94 
   232.94     16.02     62.66     49.64      0.00     -0.01      0.94 
   232.95     16.02     62.66     49.64      0.00     -0.01      1.41 
   232.96     16.02     62.66     49.64      0.01     -0.01      1.41 
   232.97     16.02     62.66     49.64      0.01     -0.01      1.41 
   232.98     16.02     62.66     49.64      0.01     -0.02      0.94 
   232.99     16.01     62.67     49.64      0.01     -0.02      0.94 
   233.00     16.01     62.67     49.64      0.01     -0.02      1.41 
   233.01     16.01     62.67     49.64      0.01     -0.02      1.41 
   233.02     16.01     62.67     49.64      0.01     -0.01      1.41 
   233.03     16.01     62.68     49.64      0.00     -0.01      1.41 
   233.04     16.01     62.68     49.64     -0.00      0.00      1.41 
   233.05     16.01     62.69     49.64     -0.00      0.01      1.41 
   233.06     16.00     62.69     49.64     -0.01      0.01      1.41 
   233.07     16.01     62.69     49.64     -0.01      0.02      0.94 
   233.08     16.01     62.69     49.64     -0.01      0.02      0.94 
   233.09     16.01     62.68     49.63     -0.00      0.01      0.94 
   233.10     16.01     62.68     49.63     -0.00      0.01      0.94 
   233.11     16.01     62.68     49.63     -0.00      0.01      0.94 
   233.12     16.01     62.68     49.63     -0.00     -0.00      0.47 
   233.13     16.01     62.67     49.63      0.00     -0.01      0.47 
