#Written by Robertson Geologging WinLogger V1.0/370
~VERSION INFORMATION
#------------------------------------------------------------------------------
 VERS. 2.0 : CWLS LOG ASCII STANDARD - VERSION 2.0
 WRAP. NO  : ONE LINE PER DEPTH STEP
~WELL INFORMATION
#MNEM.UNIT         DATA                                DESCRIPTION OF MNEMONIC
#------------------------------------------------------------------------------
 STRT.M         39.9100                            :   START DEPTH
 STOP.M        520.0300                            :   STOP DEPTH
 STEP.M          0.0100                            :   STEP VALUE
 NULL.        -999.2500                            :   NULL VALUE
 COMP.    White Young Gteen                        :   COMPANY NAME
 WELL.    Dawdon  Shaft                            :   WELL NAME
 FLD.     Dawdon                                   :   FIELD NAME
 LOC.     N/A                                      :   LOCATION
 PROV.    N/A                                      :   PROVINCE
 SRVC.    N/A                                      :   SERVICE COMPANY NAME
 DATE.    04 Oct 05                                :   DATE
 UWI.     N/A                                      :   UNIQUE WELL IDENTIFIER
~PARAMETER INFORMATION
#MNEMO.UNIT         VALUE                 DESCRIPTION OF MNEMONIC
#------------------------------------------------------------------------------
~OTHER INFORMATION SECTION
#------------------------------------------------------------------------------
 TCGS1365
~CURVE INFORMATION
#MNEMO.UNIT         API CODE              CURVE DESCRIPTION
#------------------------------------------------------------------------------
 DEPTH.M                                 :   0     Depth
 TEMP.DegC                               :   1     Temperature
 CN25.mS/cm                              :   2     Conductivity@25DegC
 COND.mS/cm                              :   3     Conductivity
 DELT.DegC                               :   4     Delta T
 DELC.mS/cm                              :   5     Delta C
 NGAM.CPS                                :   6     Natural Gamma
#------------------------------------------------------------------------------
~A  DEPTH     TEMP      CN25      COND      DELT      DELC      NGAM      
# ...
   422.98     19.36     79.34     71.88     -0.01      0.02      1.29 
   422.99     19.36     79.33     71.88     -0.01      0.02      1.29 
   423.00     19.35     79.34     71.88     -0.01      0.03      1.29 
   423.01     19.35     79.34     71.88     -0.01      0.03      1.29 
   423.02     19.35     79.34     71.88     -0.01      0.03      1.29 
   423.03     19.35     79.34     71.88     -0.01      0.03      1.29 
   423.04     19.35     79.35     71.88     -0.01      0.03      1.29 
   423.05     19.35     79.34     71.88     -0.01      0.02      1.71 
   423.06     19.36     79.33     71.88     -0.01      0.02      1.71 
   423.07     19.36     79.34     71.88     -0.01      0.03      1.71 
   423.08     19.36     79.33     71.88     -0.01      0.02      1.71 
   423.09     19.36     79.32     71.88     -0.01      0.01      2.12 
   423.10     19.36     79.32     71.88     -0.00      0.02      2.12 
   423.11     19.36     79.31     71.88      0.00     -0.01      2.12 
   423.12     19.37     79.30     71.88      0.00     -0.00      1.65 
   423.13     19.37     79.29     71.87      0.00     -0.01      1.24 
   423.14     19.37     79.29     71.88      0.00     -0.01      0.82 
   423.15     19.37     79.28     71.87      0.00     -0.01      0.82 
   423.16     19.37     79.28     71.88     -0.00      0.00      0.82 
   423.17     19.37     79.27     71.88      0.00     -0.00      1.29 
   423.18     19.38     79.27     71.88      0.01     -0.02      1.71 
   423.19     19.38     79.26     71.88      0.01     -0.04      1.71 
   423.20     19.38     79.26     71.88      0.01     -0.04      1.71 
   423.21     19.38     79.25     71.88      0.02     -0.06      1.71 
   423.22     19.38     79.26     71.88      0.02     -0.06      1.29 
   423.23     19.38     79.26     71.88      0.02     -0.05      1.29 
   423.24     19.38     79.27     71.88      0.02     -0.05      1.29 
   423.25     19.38     79.27     71.88      0.02     -0.05      1.29 
   423.26     19.38     79.27     71.88      0.02     -0.06      0.88 
   423.27     19.38     79.26     71.88      0.02     -0.07      0.88 
   423.28     19.38     79.26     71.88      0.02     -0.07      1.35 
   423.29     19.38     79.26     71.88      0.02     -0.06      1.35 
   423.30     19.38     79.25     71.88      0.01     -0.05      1.35 
   423.31     19.38     79.25     71.88      0.01     -0.04      1.35 
   423.32     19.38     79.26     71.88      0.01     -0.03      1.35 
   423.33     19.38     79.26     71.88      0.01     -0.03      1.35 
   423.34     19.38     79.25     71.88      0.02     -0.05      1.35 
   423.35     19.38     79.24     71.88      0.02     -0.07      0.94 
   423.36     19.39     79.25     71.88      0.02     -0.07      0.94 
   423.37     19.38     79.24     71.88      0.02     -0.07      0.94 
   423.38     19.38     79.25     71.88      0.02     -0.07      0.94 
   423.39     19.38     79.26     71.88      0.02     -0.06      1.35 
   423.40     19.38     79.27     71.88      0.02     -0.05      1.35 
   423.41     19.38     79.28     71.88      0.02     -0.06      1.76 
   423.42     19.37     79.28     71.88      0.02     -0.06      1.76 
   423.43     19.37     79.28     71.87      0.02     -0.06      1.76 
   423.44     19.37     79.29     71.88      0.02     -0.04      1.76 
   423.45     19.37     79.29     71.88      0.01     -0.03      1.29 
   423.46     19.37     79.30     71.88      0.00     -0.01      1.71 
   423.47     19.36     79.30     71.88      0.00     -0.01      2.12 
   423.48     19.36     79.31     71.88      0.00      0.00      2.12 
   423.49     19.37     79.30     71.88     -0.00      0.00      2.12 
   423.50     19.37     79.29     71.88     -0.00      0.00      2.12 
   423.51     19.37     79.28     71.88     -0.00     -0.00      1.65 
   423.52     19.37     79.28     71.88     -0.00     -0.00      1.65 
   423.53     19.38     79.27     71.88      0.00     -0.00      2.06 
   423.54     19.38     79.27     71.88      0.00     -0.00      2.53 
   423.55     19.38     79.27     71.88      0.00     -0.01      2.53 
   423.56     19.38     79.27     71.88      0.00     -0.01      2.12 
   423.57     19.38     79.26     71.88      0.01     -0.02      2.12 
   423.58     19.38     79.26     71.88      0.01     -0.02      2.65 
   423.59     19.38     79.26     71.88      0.01     -0.03      2.65 
   423.60     19.38     79.27     71.88      0.01     -0.02      3.06 
   423.61     19.38     79.27     71.88      0.01     -0.02      3.06 
   423.62     19.37     79.28     71.88      0.00     -0.01      3.06 
   423.63     19.37     79.28     71.88      0.00     -0.01      2.65 
   423.64     19.37     79.29     71.88      0.00     -0.01      2.24 
   423.65     19.37     79.28     71.88      0.00     -0.01      2.24 
   423.66     19.37     79.28     71.88      0.01     -0.02      2.24 
   423.67     19.37     79.28     71.88      0.01     -0.02      3.06 
   423.68     19.37     79.29     71.88      0.00     -0.01      3.06 
   423.69     19.37     79.28     71.88      0.00     -0.01      3.06 
   423.70     19.37     79.28     71.88      0.00     -0.00      3.12 
   423.71     19.37     79.28     71.88      0.00     -0.01      2.65 
   423.72     19.38     79.27     71.88      0.01     -0.02      2.65 
   423.73     19.38     79.26     71.88      0.01     -0.03      2.65 
   423.74     19.38     79.26     71.88      0.01     -0.02      2.65 
   423.75     19.38     79.25     71.87      0.01     -0.03      1.71 
   423.76     19.38     79.26     71.88      0.01     -0.02      1.71 
   423.77     19.38     79.26     71.88      0.00     -0.01      1.29 
   423.78     19.38     79.27     71.88      0.00     -0.00      2.12 
   423.79     19.37     79.27     71.87     -0.00      0.00      2.12 
   423.80     19.37     79.28     71.87     -0.00     -0.00      2.12 
   423.81     19.37     79.28     71.87     -0.00      0.00      2.12 
   423.82     19.37     79.28     71.87     -0.00     -0.00      2.12 
   423.83     19.37     79.28     71.87      0.00     -0.01      2.53 
   423.84     19.37     79.28     71.87      0.00     -0.01      1.71 
   423.85     19.37     79.29     71.88      0.00     -0.01      1.71 
   423.86     19.37     79.30     71.88      0.01     -0.02      2.12 
   423.87     19.37     79.29     71.88      0.01     -0.03      1.65 
   423.88     19.37     79.30     71.88      0.01     -0.02      1.65 
   423.89     19.37     79.29     71.88      0.01     -0.03      2.47 
   423.90     19.37     79.29     71.88      0.01     -0.03      2.47 
   423.91     19.37     79.29     71.88      0.01     -0.03      2.47 
   423.92     19.37     79.28     71.88      0.01     -0.04      2.47 
   423.93     19.37     79.28     71.88      0.02     -0.05      2.47 
   423.94     19.37     79.28     71.88      0.02     -0.04      2.88 
   423.95     19.37     79.29     71.88      0.01     -0.04      2.06 
   423.96     19.37     79.30     71.88      0.01     -0.04      2.06 
   423.97     19.37     79.30     71.88      0.01     -0.03      2.06 
   423.98     19.36     79.31     71.88      0.01     -0.02      2.06 
   423.99     19.36     79.31     71.88      0.01     -0.03      2.06 
   424.00     19.36     79.31     71.88      0.01     -0.03      1.65 
   424.01     19.37     79.30     71.88      0.01     -0.04      1.65 
   424.02     19.37     79.30     71.88      0.02     -0.05      1.65 
   424.03     19.37     79.29     71.88      0.02     -0.06      1.24 
   424.04     19.37     79.30     71.88      0.01     -0.04      1.24 
   424.05     19.37     79.29     71.88      0.01     -0.04      1.24 
   424.06     19.37     79.30     71.88      0.01     -0.04      0.41 
   424.07     19.37     79.30     71.88      0.01     -0.03      0.82 
   424.08     19.36     79.31     71.88      0.01     -0.02      0.82 
   424.09     19.36     79.30     71.87      0.00     -0.02      0.82 
   424.10     19.36     79.31     71.88      0.00      0.00      2.06 
