#Written by Robertson Geologging WinLogger V1.0/370
~VERSION INFORMATION
#------------------------------------------------------------------------------
 VERS. 2.0 : CWLS LOG ASCII STANDARD - VERSION 2.0
 WRAP. NO  : ONE LINE PER DEPTH STEP
~WELL INFORMATION
#MNEM.UNIT         DATA                                DESCRIPTION OF MNEMONIC
#------------------------------------------------------------------------------
 STRT.M         39.9100                            :   START DEPTH
 STOP.M        520.0300                            :   STOP DEPTH
 STEP.M          0.0100                            :   STEP VALUE
 NULL.        -999.2500                            :   NULL VALUE
 COMP.    White Young Gteen                        :   COMPANY NAME
 WELL.    Dawdon  Shaft                            :   WELL NAME
 FLD.     Dawdon                                   :   FIELD NAME
 LOC.     N/A                                      :   LOCATION
 PROV.    N/A                                      :   PROVINCE
 SRVC.    N/A                                      :   SERVICE COMPANY NAME
 DATE.    04 Oct 05                                :   DATE
 UWI.     N/A                                      :   UNIQUE WELL IDENTIFIER
~PARAMETER INFORMATION
#MNEMO.UNIT         VALUE                 DESCRIPTION OF MNEMONIC
#------------------------------------------------------------------------------
~OTHER INFORMATION SECTION
#------------------------------------------------------------------------------
 TCGS1365
~CURVE INFORMATION
#MNEMO.UNIT         API CODE              CURVE DESCRIPTION
#------------------------------------------------------------------------------
 DEPTH.M                                 :   0     Depth
 TEMP.DegC                               :   1     Temperature
 CN25.mS/cm                              :   2     Conductivity@25DegC
 COND.mS/cm                              :   3     Conductivity
 DELT.DegC                               :   4     Delta T
 DELC.mS/cm                              :   5     Delta C
 NGAM.CPS                                :   6     Natural Gamma
#------------------------------------------------------------------------------
~A  DEPTH     TEMP      CN25      COND      DELT      DELC      NGAM      
# ...
    71.55     11.50     15.01      6.00     -0.01      0.01      1.35 
    71.56     11.50     14.99      6.00     -0.00      0.00      1.35 
    71.57     11.51     14.99      6.00     -0.00      0.00      0.88 
    71.58     11.51     14.99      6.00      0.00     -0.00      0.88 
    71.59     11.51     14.99      6.00      0.01     -0.01      0.88 
    71.60     11.51     14.99      6.00      0.01     -0.01      0.88 
    71.61     11.51     14.99      6.00      0.01     -0.01      0.88 
    71.62     11.51     14.99      6.00      0.01     -0.01      0.88 
    71.63     11.51     14.99      6.00      0.01     -0.02      0.88 
    71.64     11.51     14.99      6.00      0.01     -0.01      0.88 
    71.65     11.51     14.99      6.00      0.01     -0.00      0.47 
    71.66     11.51     14.99      6.00      0.00     -0.00      0.00 
    71.67     11.51     14.99      6.00     -0.00     -0.00      0.00 
    71.68     11.51     15.00      6.00     -0.00      0.00      0.00 
    71.69     11.51     14.99      6.00     -0.00      0.00      0.00 
    71.70     11.51     15.00      6.00     -0.00      0.00      0.00 
    71.71     11.51     14.99      5.99     -0.00     -0.00      0.00 
    71.72     11.51     14.99      5.99     -0.00     -0.00      0.00 
    71.73     11.51     14.99      6.00     -0.00      0.00      0.00 
    71.74     11.50     14.99      5.99     -0.00      0.00      0.00 
    71.75     11.50     14.99      5.99     -0.01      0.00      0.00 
    71.76     11.50     14.99      5.99     -0.01      0.00      0.00 
    71.77     11.50     14.99      6.00     -0.01      0.00      0.00 
    71.78     11.51     14.99      6.00     -0.00      0.00      0.00 
    71.79     11.51     14.99      6.00     -0.00     -0.00      0.00 
    71.80     11.51     14.99      6.00     -0.00     -0.00      0.00 
    71.81     11.50     14.99      6.00     -0.00      0.00      0.00 
    71.82     11.50     15.00      6.00     -0.01      0.01      0.00 
    71.83     11.50     15.00      6.00     -0.01      0.01      0.00 
    71.84     11.50     15.00      6.00     -0.01      0.01      0.00 
    71.85     11.50     15.00      6.00     -0.01      0.01      0.00 
    71.86     11.50     15.00      6.00     -0.01      0.01      0.00 
    71.87     11.50     15.00      6.00     -0.01      0.00      0.00 
    71.88     11.50     15.00      6.00     -0.00      0.01      0.00 
    71.89     11.50     15.00      6.00     -0.00      0.00      0.00 
    71.90     11.50     15.00      6.00     -0.00      0.00      0.00 
    71.91     11.50     15.01      6.00     -0.00      0.01      0.47 
    71.92     11.50     15.00      6.00     -0.00      0.00      0.88 
    71.93     11.50     15.00      6.00     -0.00      0.01      0.88 
    71.94     11.50     15.00      6.00     -0.00      0.00      0.88 
    71.95     11.50     15.00      6.00     -0.00      0.00      0.88 
    71.96     11.50     15.00      6.00     -0.00      0.01      0.88 
    71.97     11.50     15.00      6.00     -0.01      0.01      0.88 
    71.98     11.50     15.00      6.00     -0.01      0.01      0.88 
    71.99     11.50     15.00      6.00     -0.01      0.01      0.88 
    72.00     11.50     15.00      6.00     -0.01      0.01      0.88 
    72.01     11.50     15.00      6.00     -0.01      0.02      0.88 
    72.02     11.50     15.00      6.00     -0.01      0.01      0.88 
    72.03     11.50     15.00      6.00     -0.01      0.01      0.88 
    72.04     11.50     15.00      6.00     -0.01      0.01      0.88 
    72.05     11.50     15.00      6.00     -0.01      0.01      0.88 
    72.06     11.50     15.00      6.00     -0.01      0.01      0.88 
    72.07     11.50     15.00      6.00     -0.01      0.01      0.88 
    72.08     11.50     15.00      6.00     -0.00      0.00      0.41 
    72.09     11.50     15.01      6.00     -0.00      0.00      0.00 
    72.10     11.50     15.00      6.00     -0.00      0.00      0.00 
    72.11     11.50     15.00      6.00     -0.00      0.00      0.00 
    72.12     11.50     15.00      6.00      0.00     -0.00      0.00 
    72.13     11.50     15.00      6.00      0.00     -0.00      0.00 
    72.14     11.50     15.00      6.00      0.00      0.00      0.00 
    72.15     11.50     15.00      6.00      0.00     -0.00      0.00 
    72.16     11.50     15.00      6.00      0.00     -0.00      0.00 
    72.17     11.50     15.00      6.00     -0.00      0.00      0.00 
    72.18     11.50     15.00      6.00     -0.00      0.00      0.00 
    72.19     11.50     15.00      6.00     -0.00      0.00      0.00 
    72.20     11.50     15.00      6.00     -0.00      0.00      0.00 
    72.21     11.50     15.00      6.00     -0.00      0.00      0.00 
    72.22     11.50     15.00      6.00     -0.00      0.01      0.00 
    72.23     11.50     15.00      6.00     -0.00      0.00      0.00 
    72.24     11.50     15.00      6.00     -0.00      0.00      0.00 
    72.25     11.50     15.00      6.00     -0.00      0.00      0.00 
    72.26     11.50     15.00      6.00     -0.00      0.01      0.00 
    72.27     11.50     15.01      6.00     -0.01      0.01      0.00 
    72.28     11.50     15.00      6.00     -0.00      0.00      0.00 
    72.29     11.50     15.00      6.00     -0.00      0.00      0.00 
    72.30     11.50     15.01      6.00     -0.00      0.01      0.00 
    72.31     11.50     15.00      6.00     -0.00      0.00      0.00 
    72.32     11.50     15.01      6.00     -0.00      0.01      0.00 
    72.33     11.50     15.00      6.00     -0.01      0.00      0.00 
    72.34     11.50     15.00      6.00     -0.01      0.01      0.00 
    72.35     11.50     15.01      6.00     -0.01      0.02      0.00 
    72.36     11.50     15.00      6.00     -0.01      0.01      0.00 
    72.37     11.50     15.00      6.00     -0.01      0.01      0.00 
    72.38     11.50     15.00      6.00     -0.01      0.00      0.00 
    72.39     11.50     15.00      6.00     -0.00      0.01      0.00 
    72.40     11.50     15.00      6.00     -0.01      0.01      0.00 
    72.41     11.50     15.00      6.00     -0.01      0.00      0.00 
    72.42     11.50     15.00      6.00     -0.00      0.01      0.00 
    72.43     11.50     15.00      6.00     -0.00      0.00      0.00 
    72.44     11.50     15.00      6.00      0.00     -0.00      0.00 
    72.45     11.50     15.00      6.00      0.00      0.00      0.00 
    72.46     11.50     15.00      6.00      0.00     -0.01      0.00 
    72.47     11.50     15.00      6.00      0.00     -0.00      0.00 
    72.48     11.50     15.01      6.00      0.00      0.00      0.00 
    72.49     11.49     15.01      6.00      0.00     -0.00      0.00 
    72.50     11.49     15.01      6.00     -0.00      0.00      0.00 
    72.51     11.49     15.01      6.00      0.00     -0.01      0.00 
    72.52     11.49     15.01      6.00      0.00     -0.00      0.00 
    72.53     11.50     15.01      6.00      0.00      0.00      0.00 
    72.54     11.50     15.00      6.00     -0.00     -0.00      0.00 
    72.55     11.50     15.01      6.00     -0.01      0.01      0.00 
    72.56     11.50     15.00      6.00     -0.01      0.01      0.00 
    72.57     11.50     15.00      6.00     -0.01      0.01      0.00 
    72.58     11.50     15.00      6.00     -0.01      0.01      0.00 
    72.59     11.51     14.99      6.00     -0.00      0.00      0.00 
    72.60     11.51     14.99      6.00     -0.00      0.01      0.00 
    72.61     11.51     14.99      6.00     -0.00      0.00      0.00 
    72.62     11.51     14.99      6.00     -0.00      0.00      0.00 
    72.63     11.51     14.99      6.00     -0.00      0.01      0.00 
    72.64     11.51     14.99      6.00     -0.00     -0.00      0.00 
    72.65     11.51     14.99      6.00      0.00      0.00      0.00 
    72.66     11.51     14.99      6.00      0.00     -0.00      0.00 
    72.67     11.51     14.99      6.00      0.00     -0.01      0.00 
