#Written by Robertson Geologging WinLogger V1.0/370
~VERSION INFORMATION
#------------------------------------------------------------------------------
 VERS. 2.0 : CWLS LOG ASCII STANDARD - VERSION 2.0
 WRAP. NO  : ONE LINE PER DEPTH STEP
~WELL INFORMATION
#MNEM.UNIT         DATA                                DESCRIPTION OF MNEMONIC
#------------------------------------------------------------------------------
 STRT.M         39.9100                            :   START DEPTH
 STOP.M        520.0300                            :   STOP DEPTH
 STEP.M          0.0100                            :   STEP VALUE
 NULL.        -999.2500                            :   NULL VALUE
 COMP.    White Young Gteen                        :   COMPANY NAME
 WELL.    Dawdon  Shaft                            :   WELL NAME
 FLD.     Dawdon                                   :   FIELD NAME
 LOC.     N/A                                      :   LOCATION
 PROV.    N/A                                      :   PROVINCE
 SRVC.    N/A                                      :   SERVICE COMPANY NAME
 DATE.    04 Oct 05                                :   DATE
 UWI.     N/A                                      :   UNIQUE WELL IDENTIFIER
~PARAMETER INFORMATION
#MNEMO.UNIT         VALUE                 DESCRIPTION OF MNEMONIC
#------------------------------------------------------------------------------
~OTHER INFORMATION SECTION
#------------------------------------------------------------------------------
 TCGS1365
~CURVE INFORMATION
#MNEMO.UNIT         API CODE              CURVE DESCRIPTION
#------------------------------------------------------------------------------
 DEPTH.M                                 :   0     Depth
 TEMP.DegC                               :   1     Temperature
 CN25.mS/cm                              :   2     Conductivity@25DegC
 COND.mS/cm                              :   3     Conductivity
 DELT.DegC                               :   4     Delta T
 DELC.mS/cm                              :   5     Delta C
 NGAM.CPS                                :   6     Natural Gamma
#------------------------------------------------------------------------------
~A  DEPTH     TEMP      CN25      COND      DELT      DELC      NGAM      
# ...
   167.60     13.37     53.53     37.29      0.02      1.19      0.41 
   167.61     13.38     53.54     37.30      0.02      1.18      0.41 
   167.62     13.38     53.54     37.31      0.03      1.16      0.41 
   167.63     13.38     53.54     37.31      0.03      1.14      0.41 
   167.64     13.38     53.55     37.32      0.03      1.14      0.00 
   167.65     13.38     53.56     37.33      0.04      1.13      0.00 
   167.66     13.38     53.57     37.34      0.03      1.12      0.00 
   167.67     13.38     53.58     37.35      0.04      1.12      0.00 
   167.68     13.39     53.58     37.35      0.04      1.12      0.00 
   167.69     13.39     53.59     37.36      0.03      1.12      0.00 
   167.70     13.39     53.59     37.36      0.03      1.11      0.00 
   167.71     13.39     53.60     37.37      0.03      1.11      0.00 
   167.72     13.39     53.61     37.38      0.03      1.11      0.00 
   167.73     13.39     53.63     37.39      0.03      1.11      0.00 
   167.74     13.39     53.63     37.39      0.03      1.10      0.00 
   167.75     13.39     53.63     37.40      0.03      1.08      0.00 
   167.76     13.39     53.64     37.40      0.03      1.07      0.00 
   167.77     13.39     53.64     37.41      0.04      1.06      0.00 
   167.78     13.39     53.65     37.42      0.04      1.05      0.00 
   167.79     13.39     53.67     37.43      0.04      1.05      0.00 
   167.80     13.39     53.68     37.43      0.04      1.04      0.00 
   167.81     13.39     53.69     37.44      0.04      1.03      0.41 
   167.82     13.39     53.69     37.44      0.04      1.03      0.41 
   167.83     13.39     53.70     37.45      0.04      1.02      0.41 
   167.84     13.39     53.70     37.45      0.04      1.01      0.41 
   167.85     13.39     53.72     37.46      0.03      1.02      0.41 
   167.86     13.39     53.72     37.47      0.03      1.01      0.41 
   167.87     13.39     53.73     37.47      0.03      1.01      0.41 
   167.88     13.39     53.74     37.48      0.03      1.01      0.82 
   167.89     13.39     53.76     37.49      0.03      1.02      0.82 
   167.90     13.39     53.76     37.49      0.02      1.01      0.82 
   167.91     13.39     53.77     37.50      0.02      1.01      0.82 
   167.92     13.38     53.79     37.51      0.02      1.02      0.82 
   167.93     13.38     53.80     37.51      0.02      1.02      0.82 
   167.94     13.38     53.81     37.52      0.01      1.02      0.82 
   167.95     13.38     53.82     37.53      0.01      1.01      0.82 
   167.96     13.38     53.83     37.54      0.01      1.01      0.82 
   167.97     13.38     53.84     37.54      0.01      1.01      0.82 
   167.98     13.38     53.85     37.55      0.02      1.00      0.41 
   167.99     13.38     53.86     37.56      0.02      0.99      0.41 
   168.00     13.38     53.86     37.56      0.02      0.98      0.41 
   168.01     13.38     53.87     37.57      0.02      0.97      0.41 
   168.02     13.39     53.87     37.58      0.02      0.96      0.41 
   168.03     13.39     53.87     37.58      0.03      0.95      0.41 
   168.04     13.39     53.87     37.59      0.03      0.93      0.41 
   168.05     13.39     53.88     37.60      0.03      0.92      0.00 
   168.06     13.40     53.88     37.60      0.04      0.91      0.00 
   168.07     13.40     53.88     37.61      0.04      0.90      0.00 
   168.08     13.40     53.89     37.62      0.04      0.89      0.00 
   168.09     13.40     53.89     37.62      0.04      0.89      0.00 
   168.10     13.40     53.90     37.63      0.04      0.88      0.00 
   168.11     13.41     53.90     37.63      0.04      0.87      0.00 
   168.12     13.41     53.91     37.64      0.04      0.87      0.00 
   168.13     13.41     53.91     37.65      0.05      0.86      0.00 
   168.14     13.41     53.92     37.65      0.04      0.86      0.00 
   168.15     13.41     53.93     37.66      0.04      0.86      0.00 
   168.16     13.41     53.94     37.67      0.04      0.86      0.41 
   168.17     13.40     53.95     37.67      0.04      0.85      0.41 
   168.18     13.40     53.96     37.68      0.04      0.85      0.41 
   168.19     13.40     53.98     37.68      0.04      0.85      0.41 
   168.20     13.40     53.99     37.69      0.04      0.85      0.82 
   168.21     13.40     54.00     37.70      0.03      0.85      0.82 
   168.22     13.40     54.01     37.70      0.03      0.85      0.82 
   168.23     13.40     54.02     37.71      0.03      0.85      0.82 
   168.24     13.40     54.02     37.72      0.04      0.83      0.82 
   168.25     13.40     54.03     37.73      0.04      0.83      0.82 
   168.26     13.41     54.03     37.73      0.04      0.82      0.82 
   168.27     13.41     54.03     37.74      0.04      0.81      0.82 
   168.28     13.41     54.04     37.74      0.04      0.81      0.82 
   168.29     13.41     54.04     37.75      0.04      0.81      0.82 
   168.30     13.41     54.05     37.76      0.04      0.81      0.82 
   168.31     13.42     54.05     37.76      0.04      0.80      0.82 
   168.32     13.42     54.05     37.77      0.05      0.79      0.82 
   168.33     13.42     54.05     37.78      0.05      0.79      0.41 
   168.34     13.42     54.06     37.78      0.05      0.79      0.41 
   168.35     13.42     54.07     37.79      0.04      0.79      0.41 
   168.36     13.42     54.08     37.79      0.04      0.80      0.41 
   168.37     13.42     54.09     37.80      0.04      0.80      0.00 
   168.38     13.42     54.10     37.81      0.04      0.79      0.00 
   168.39     13.42     54.11     37.82      0.04      0.79      0.00 
   168.40     13.42     54.11     37.82      0.04      0.79      0.47 
   168.41     13.42     54.12     37.83      0.04      0.78      0.47 
   168.42     13.42     54.13     37.83      0.04      0.78      0.47 
   168.43     13.42     54.14     37.83      0.04      0.78      0.47 
   168.44     13.41     54.15     37.84      0.04      0.78      0.47 
   168.45     13.41     54.17     37.85      0.04      0.78      0.88 
   168.46     13.41     54.17     37.85      0.04      0.78      0.88 
   168.47     13.41     54.18     37.86      0.04      0.78      0.88 
   168.48     13.41     54.19     37.86      0.04      0.77      1.29 
   168.49     13.41     54.19     37.87      0.04      0.77      1.29 
   168.50     13.41     54.20     37.88      0.04      0.76      1.29 
   168.51     13.41     54.21     37.88      0.04      0.75      1.29 
   168.52     13.41     54.22     37.89      0.05      0.74      1.29 
   168.53     13.41     54.22     37.89      0.05      0.73      1.29 
   168.54     13.41     54.23     37.90      0.05      0.74      1.29 
   168.55     13.42     54.23     37.91      0.05      0.73      1.29 
   168.56     13.42     54.24     37.91      0.05      0.73      1.29 
   168.57     13.42     54.24     37.92      0.05      0.73      0.82 
   168.58     13.42     54.25     37.93      0.05      0.72      0.82 
   168.59     13.42     54.25     37.93      0.05      0.72      0.82 
   168.60     13.42     54.26     37.94      0.05      0.72      0.82 
   168.61     13.42     54.27     37.94      0.04      0.73      0.82 
   168.62     13.42     54.29     37.95      0.03      0.75      0.41 
   168.63     13.41     54.30     37.96      0.03      0.75      0.41 
   168.64     13.41     54.31     37.96      0.03      0.75      0.41 
   168.65     13.41     54.32     37.97      0.03      0.75      0.00 
   168.66     13.41     54.33     37.97      0.03      0.75      0.00 
   168.67     13.41     54.33     37.98      0.03      0.75      0.00 
   168.68     13.41     54.35     37.99      0.02      0.76      0.00 
   168.69     13.41     54.35     37.99      0.02      0.76      0.00 
   168.70     13.41     54.36     38.00      0.02      0.76      0.00 
   168.71     13.41     54.37     38.00      0.03      0.75      0.41 
   168.72     13.41     54.37     38.01      0.03      0.74      0.41 
