#Written by Robertson Geologging WinLogger V1.0/370
~VERSION INFORMATION
#------------------------------------------------------------------------------
 VERS. 2.0 : CWLS LOG ASCII STANDARD - VERSION 2.0
 WRAP. NO  : ONE LINE PER DEPTH STEP
~WELL INFORMATION
#MNEM.UNIT         DATA                                DESCRIPTION OF MNEMONIC
#------------------------------------------------------------------------------
 STRT.M         39.9100                            :   START DEPTH
 STOP.M        520.0300                            :   STOP DEPTH
 STEP.M          0.0100                            :   STEP VALUE
 NULL.        -999.2500                            :   NULL VALUE
 COMP.    White Young Gteen                        :   COMPANY NAME
 WELL.    Dawdon  Shaft                            :   WELL NAME
 FLD.     Dawdon                                   :   FIELD NAME
 LOC.     N/A                                      :   LOCATION
 PROV.    N/A                                      :   PROVINCE
 SRVC.    N/A                                      :   SERVICE COMPANY NAME
 DATE.    04 Oct 05                                :   DATE
 UWI.     N/A                                      :   UNIQUE WELL IDENTIFIER
~PARAMETER INFORMATION
#MNEMO.UNIT         VALUE                 DESCRIPTION OF MNEMONIC
#------------------------------------------------------------------------------
~OTHER INFORMATION SECTION
#------------------------------------------------------------------------------
 TCGS1365
~CURVE INFORMATION
#MNEMO.UNIT         API CODE              CURVE DESCRIPTION
#------------------------------------------------------------------------------
 DEPTH.M                                 :   0     Depth
 TEMP.DegC                               :   1     Temperature
 CN25.mS/cm                              :   2     Conductivity@25DegC
 COND.mS/cm                              :   3     Conductivity
 DELT.DegC                               :   4     Delta T
 DELC.mS/cm                              :   5     Delta C
 NGAM.CPS                                :   6     Natural Gamma
#------------------------------------------------------------------------------
~A  DEPTH     TEMP      CN25      COND      DELT      DELC      NGAM      
# ...
   454.62     21.78     80.24     79.51      0.03     -0.09      2.06 
   454.63     21.79     80.24     79.51      0.03     -0.09      2.06 
   454.64     21.78     80.24     79.51      0.03     -0.09      1.65 
   454.65     21.78     80.25     79.51      0.03     -0.07      1.65 
   454.66     21.78     80.26     79.51      0.02     -0.06      1.24 
   454.67     21.78     80.27     79.51      0.02     -0.04      1.24 
   454.68     21.78     80.26     79.51      0.02     -0.04      1.65 
   454.69     21.78     80.26     79.51      0.02     -0.04      2.47 
   454.70     21.78     80.25     79.51      0.02     -0.05      2.88 
   454.71     21.78     80.25     79.51      0.02     -0.06      2.47 
   454.72     21.78     80.25     79.51      0.02     -0.06      2.47 
   454.73     21.78     80.25     79.51      0.02     -0.07      2.47 
   454.74     21.78     80.26     79.51      0.02     -0.07      2.88 
   454.75     21.78     80.26     79.51      0.03     -0.07      2.47 
   454.76     21.78     80.25     79.51      0.03     -0.08      2.94 
   454.77     21.78     80.24     79.51      0.03     -0.10      2.53 
   454.78     21.78     80.24     79.51      0.04     -0.10      2.53 
   454.79     21.78     80.25     79.51      0.04     -0.10      3.35 
   454.80     21.78     80.24     79.51      0.03     -0.10      3.76 
   454.81     21.78     80.25     79.51      0.03     -0.08      3.76 
   454.82     21.78     80.26     79.51      0.02     -0.07      3.76 
   454.83     21.78     80.26     79.51      0.02     -0.06      4.18 
   454.84     21.77     80.27     79.51      0.02     -0.04      4.18 
   454.85     21.77     80.27     79.51      0.01     -0.04      3.76 
   454.86     21.77     80.27     79.51      0.01     -0.03      2.94 
   454.87     21.77     80.27     79.51      0.01     -0.02      2.53 
   454.88     21.77     80.27     79.51      0.01     -0.01      2.53 
   454.89     21.78     80.26     79.51      0.01     -0.01      2.53 
   454.90     21.78     80.26     79.51      0.00     -0.01      2.53 
   454.91     21.78     80.27     79.51      0.00     -0.01      2.12 
   454.92     21.78     80.27     79.51      0.01     -0.00      2.12 
   454.93     21.78     80.26     79.51      0.01     -0.01      1.65 
   454.94     21.78     80.26     79.51      0.01     -0.01      1.65 
   454.95     21.78     80.25     79.52      0.01     -0.02      1.65 
   454.96     21.78     80.25     79.52      0.02     -0.04      0.82 
   454.97     21.79     80.24     79.52      0.02     -0.04      0.82 
   454.98     21.79     80.23     79.51      0.02     -0.06      1.24 
   454.99     21.79     80.22     79.51      0.03     -0.07      1.65 
   455.00     21.79     80.22     79.52      0.03     -0.07      1.65 
   455.01     21.79     80.21     79.51      0.03     -0.08      1.65 
   455.02     21.79     80.21     79.51      0.03     -0.08      2.06 
   455.03     21.79     80.21     79.51      0.03     -0.08      2.06 
   455.04     21.79     80.22     79.51      0.02     -0.06      2.06 
   455.05     21.79     80.22     79.51      0.02     -0.06      2.88 
   455.06     21.79     80.22     79.51      0.02     -0.06      2.88 
   455.07     21.79     80.22     79.51      0.02     -0.05      2.88 
   455.08     21.79     80.23     79.51      0.02     -0.05      3.29 
   455.09     21.78     80.25     79.51      0.01     -0.04      3.29 
   455.10     21.78     80.25     79.51      0.01     -0.03      4.24 
   455.11     21.78     80.25     79.51      0.01     -0.03      4.24 
   455.12     21.78     80.25     79.51      0.01     -0.01      4.24 
   455.13     21.78     80.24     79.51      0.00     -0.00      4.24 
   455.14     21.79     80.24     79.51      0.00     -0.00      3.82 
   455.15     21.79     80.23     79.51      0.00     -0.01      3.41 
   455.16     21.79     80.24     79.51      0.00     -0.00      3.00 
   455.17     21.79     80.23     79.51      0.01     -0.01      2.59 
   455.18     21.79     80.23     79.51      0.01     -0.02      2.59 
   455.19     21.79     80.22     79.51      0.01     -0.03      2.59 
   455.20     21.80     80.20     79.51      0.02     -0.05      2.59 
   455.21     21.80     80.21     79.51      0.02     -0.05      2.59 
   455.22     21.79     80.21     79.52      0.02     -0.05      1.76 
   455.23     21.79     80.22     79.52      0.02     -0.05      2.18 
   455.24     21.79     80.22     79.52      0.02     -0.06      2.18 
   455.25     21.79     80.22     79.51      0.02     -0.07      1.76 
   455.26     21.79     80.22     79.52      0.03     -0.07      1.76 
   455.27     21.79     80.21     79.51      0.03     -0.07      0.82 
   455.28     21.79     80.22     79.52      0.03     -0.08      0.82 
   455.29     21.80     80.21     79.52      0.03     -0.09      0.82 
   455.30     21.80     80.21     79.52      0.04     -0.10      0.82 
   455.31     21.80     80.20     79.52      0.04     -0.10      0.82 
   455.32     21.80     80.20     79.52      0.04     -0.10      0.82 
   455.33     21.80     80.20     79.52      0.03     -0.09      0.82 
   455.34     21.80     80.21     79.52      0.03     -0.08      0.82 
   455.35     21.79     80.21     79.52      0.02     -0.06      0.82 
   455.36     21.79     80.22     79.52      0.02     -0.05      0.41 
   455.37     21.79     80.22     79.52      0.02     -0.06      0.82 
   455.38     21.80     80.22     79.52      0.02     -0.06      0.82 
   455.39     21.80     80.21     79.52      0.02     -0.06      0.82 
   455.40     21.79     80.22     79.52      0.02     -0.05      0.41 
   455.41     21.79     80.22     79.51      0.01     -0.03      0.41 
   455.42     21.79     80.23     79.51      0.00     -0.01      0.41 
   455.43     21.78     80.24     79.51      0.00     -0.01      0.41 
   455.44     21.78     80.24     79.51      0.01     -0.02      0.41 
   455.45     21.79     80.24     79.51      0.01     -0.03      0.41 
   455.46     21.79     80.22     79.51      0.02     -0.06      1.24 
   455.47     21.79     80.21     79.51      0.03     -0.08      1.65 
   455.48     21.79     80.21     79.51      0.03     -0.08      1.65 
   455.49     21.79     80.21     79.51      0.03     -0.08      2.06 
   455.50     21.79     80.21     79.51      0.03     -0.08      2.06 
   455.51     21.79     80.21     79.51      0.03     -0.08      2.06 
   455.52     21.80     80.21     79.52      0.03     -0.08      2.06 
   455.53     21.80     80.20     79.52      0.03     -0.09      2.88 
   455.54     21.80     80.19     79.51      0.03     -0.09      2.88 
   455.55     21.80     80.19     79.52      0.03     -0.08      3.29 
   455.56     21.80     80.18     79.51      0.03     -0.08      3.29 
   455.57     21.80     80.19     79.52      0.03     -0.08      3.29 
   455.58     21.80     80.20     79.52      0.02     -0.06      3.29 
   455.59     21.80     80.20     79.52      0.02     -0.05      3.71 
   455.60     21.80     80.21     79.52      0.01     -0.04      4.12 
   455.61     21.79     80.22     79.52      0.01     -0.02      4.53 
   455.62     21.79     80.22     79.52      0.01     -0.02      4.94 
   455.63     21.79     80.22     79.51      0.01     -0.02      4.53 
   455.64     21.79     80.22     79.52      0.01     -0.02      4.12 
   455.65     21.79     80.23     79.52      0.01     -0.03      4.12 
   455.66     21.79     80.23     79.52      0.01     -0.03      3.71 
   455.67     21.79     80.25     79.52      0.01     -0.02      4.12 
   455.68     21.78     80.25     79.52      0.00     -0.01      4.12 
   455.69     21.78     80.25     79.52      0.00      0.00      4.12 
   455.70     21.78     80.25     79.52      0.00     -0.00      3.29 
   455.71     21.79     80.24     79.52      0.00     -0.01      2.88 
   455.72     21.79     80.24     79.51      0.01     -0.02      2.47 
   455.73     21.79     80.24     79.52      0.01     -0.02      2.47 
   455.74     21.78     80.25     79.52      0.01     -0.01      3.29 
