#Written by Robertson Geologging WinLogger V1.0/370
~VERSION INFORMATION
#------------------------------------------------------------------------------
 VERS. 2.0 : CWLS LOG ASCII STANDARD - VERSION 2.0
 WRAP. NO  : ONE LINE PER DEPTH STEP
~WELL INFORMATION
#MNEM.UNIT         DATA                                DESCRIPTION OF MNEMONIC
#------------------------------------------------------------------------------
 STRT.M         39.9100                            :   START DEPTH
 STOP.M        520.0300                            :   STOP DEPTH
 STEP.M          0.0100                            :   STEP VALUE
 NULL.        -999.2500                            :   NULL VALUE
 COMP.    White Young Gteen                        :   COMPANY NAME
 WELL.    Dawdon  Shaft                            :   WELL NAME
 FLD.     Dawdon                                   :   FIELD NAME
 LOC.     N/A                                      :   LOCATION
 PROV.    N/A                                      :   PROVINCE
 SRVC.    N/A                                      :   SERVICE COMPANY NAME
 DATE.    04 Oct 05                                :   DATE
 UWI.     N/A                                      :   UNIQUE WELL IDENTIFIER
~PARAMETER INFORMATION
#MNEMO.UNIT         VALUE                 DESCRIPTION OF MNEMONIC
#------------------------------------------------------------------------------
~OTHER INFORMATION SECTION
#------------------------------------------------------------------------------
 TCGS1365
~CURVE INFORMATION
#MNEMO.UNIT         API CODE              CURVE DESCRIPTION
#------------------------------------------------------------------------------
 DEPTH.M                                 :   0     Depth
 TEMP.DegC                               :   1     Temperature
 CN25.mS/cm                              :   2     Conductivity@25DegC
 COND.mS/cm                              :   3     Conductivity
 DELT.DegC                               :   4     Delta T
 DELC.mS/cm                              :   5     Delta C
 NGAM.CPS                                :   6     Natural Gamma
#------------------------------------------------------------------------------
~A  DEPTH     TEMP      CN25      COND      DELT      DELC      NGAM      
# ...
   519.03     23.12     75.92     79.31      0.00     -0.02      1.18 
   519.04     23.11     75.93     79.31      0.00     -0.02      1.18 
   519.05     23.11     75.94     79.31     -0.00     -0.02      1.59 
   519.06     23.10     75.95     79.31     -0.00     -0.01      1.59 
   519.07     23.10     75.96     79.31     -0.00     -0.00      2.00 
   519.08     23.10     75.96     79.31     -0.00     -0.01      2.00 
   519.09     23.10     75.96     79.31      0.00     -0.02      2.00 
   519.10     23.10     75.95     79.31      0.00     -0.03      2.41 
   519.11     23.11     75.95     79.31      0.01     -0.04      2.41 
   519.12     23.11     75.95     79.31      0.01     -0.05      2.41 
   519.13     23.11     75.95     79.31      0.01     -0.05      2.76 
   519.14     23.11     75.95     79.31      0.01     -0.06      2.76 
   519.15     23.11     75.95     79.31      0.01     -0.05      2.76 
   519.16     23.11     75.94     79.31      0.01     -0.05      2.76 
   519.17     23.11     75.94     79.31      0.01     -0.04      3.18 
   519.18     23.11     75.94     79.31      0.01     -0.03      3.18 
   519.19     23.11     75.95     79.31      0.00     -0.02      2.82 
   519.20     23.11     75.95     79.31      0.00     -0.02      2.76 
   519.21     23.11     75.95     79.31      0.00     -0.02      3.18 
   519.22     23.11     75.95     79.31      0.00     -0.01      3.18 
   519.23     23.11     75.94     79.31     -0.00     -0.01      3.59 
   519.24     23.11     75.95     79.31     -0.00      0.01      3.59 
   519.25     23.10     75.95     79.31     -0.01      0.01      3.59 
   519.26     23.10     75.96     79.31     -0.01      0.02      3.59 
   519.27     23.10     75.96     79.31     -0.01      0.02      3.18 
   519.28     23.10     75.96     79.31     -0.01      0.01      3.18 
   519.29     23.10     75.96     79.31     -0.01      0.01      3.18 
   519.30     23.10     75.96     79.31     -0.01      0.01      2.82 
   519.31     23.10     75.96     79.31     -0.01      0.01      3.65 
   519.32     23.10     75.96     79.31     -0.01      0.01      4.47 
   519.33     23.10     75.96     79.31     -0.01      0.00      4.88 
   519.34     23.10     75.96     79.31     -0.00      0.00      4.47 
   519.35     23.10     75.96     79.31     -0.00     -0.01      4.47 
   519.36     23.10     75.95     79.31      0.00     -0.02      4.88 
   519.37     23.11     75.94     79.31      0.01     -0.04      4.53 
   519.38     23.11     75.93     79.31      0.01     -0.05      4.12 
   519.39     23.11     75.92     79.31      0.02     -0.06      3.71 
   519.40     23.11     75.91     79.31      0.02     -0.07      4.12 
   519.41     23.11     75.92     79.31      0.02     -0.06      3.71 
   519.42     23.11     75.92     79.31      0.01     -0.06      4.53 
   519.43     23.11     75.92     79.31      0.01     -0.05      4.53 
   519.44     23.11     75.94     79.31      0.01     -0.03      4.53 
   519.45     23.11     75.94     79.31      0.00     -0.01      4.53 
   519.46     23.11     75.95     79.31     -0.00      0.00      4.94 
   519.47     23.11     75.95     79.31     -0.00     -0.00      4.94 
   519.48     23.11     75.95     79.31      0.00     -0.00      4.12 
   519.49     23.11     75.95     79.31     -0.00     -0.01      3.29 
   519.50     23.11     75.95     79.31      0.00     -0.01      2.47 
   519.51     23.10     75.96     79.32     -0.00     -0.00      2.47 
   519.52     23.11     75.95     79.31     -0.00     -0.00      2.82 
   519.53     23.11     75.95     79.31      0.00     -0.01      2.41 
   519.54     23.11     75.95     79.32      0.00     -0.01      2.82 
   519.55     23.11     75.95     79.31      0.00     -0.02      3.65 
   519.56     23.11     75.95     79.32      0.01     -0.02      4.47 
   519.57     23.10     75.95     79.31      0.01     -0.03      4.47 
   519.58     23.10     75.97     79.32      0.00     -0.01      4.47 
   519.59     23.10     75.98     79.32     -0.00     -0.00      3.65 
   519.60     23.10     75.98     79.32     -0.00      0.01      3.65 
   519.61     23.09     75.99     79.32     -0.01      0.02      3.65 
   519.62     23.09     75.99     79.31     -0.00      0.01      3.65 
   519.63     23.09     75.99     79.31     -0.00     -0.00      3.24 
   519.64     23.09     75.99     79.32     -0.00      0.01      3.59 
   519.65     23.09     75.98     79.31     -0.00     -0.00      4.41 
   519.66     23.09     75.99     79.32     -0.00      0.01      4.41 
   519.67     23.09     75.99     79.32     -0.01      0.01      4.41 
   519.68     23.09     75.99     79.32     -0.01      0.02      5.24 
   519.69     23.09     76.00     79.32     -0.00      0.01      4.88 
   519.70     23.09     76.01     79.32     -0.00      0.02      5.29 
   519.71     23.09     76.01     79.32     -0.00      0.01      4.88 
   519.72     23.09     76.01     79.32     -0.00      0.02      5.29 
   519.73     23.09     76.01     79.32     -0.01      0.03      5.29 
   519.74     23.09     76.02     79.33     -0.01      0.05      5.18 
   519.75     23.09     76.02     79.33     -0.01      0.05      6.41 
   519.76     23.09     76.02     79.33     -0.01      0.06      7.24 
   519.77     23.09     76.01     79.33     -0.01      0.05      7.24 
   519.78     23.09     76.01     79.33     -0.01      0.06      8.06 
   519.79     23.10     76.01     79.34     -0.01      0.05      8.76 
   519.80     23.10     75.99     79.34     -0.01      0.05      8.76 
   519.81     23.10     75.99     79.34     -0.00      0.04      8.41 
   519.82     23.10     75.99     79.34     -0.00      0.04      8.00 
   519.83     23.10     75.99     79.35     -0.00      0.04      8.00 
   519.84     23.11     75.99     79.35      0.00      0.03      8.41 
   519.85     23.11     76.00     79.35      0.00      0.03      7.59 
   519.86     23.11     76.00     79.36      0.01      0.02      8.65 
   519.87     23.10     76.01     79.37      0.01      0.03      8.65 
   519.88     23.10     76.02     79.37      0.01      0.03      8.65 
   519.89     23.10     76.03     79.38      0.01      0.04      7.82 
   519.90     23.10     76.04     79.38      0.00      0.06      7.00 
   519.91     23.10     76.06     79.39      0.00      0.07      6.29 
   519.92     23.09     76.07     79.40     -0.00      0.09      5.06 
   519.93     23.09     76.09     79.41     -0.01      0.12      5.06 
   519.94     23.09     76.11     79.43     -0.01      0.15      5.06 
   519.95     23.09     76.13     79.44     -0.01      0.18      4.65 
   519.96     23.09     76.15     79.47     -0.01      0.20      4.76 
   519.97     23.10     76.17     79.50     -0.01      0.23      5.59 
   519.98     23.10     76.21     79.53     -0.01      0.26      6.00 
   519.99     23.10     76.27     79.61     -0.01      0.33      6.41 
   520.00     23.10     76.32     79.66     -0.01      0.39      7.12 
   520.01     23.11     76.37     79.71     -0.01      0.44      6.71 
   520.02     23.11     76.40     79.75     -0.01      0.48      7.12 
   520.03     23.11     76.44     79.79     -0.00      0.51      6.47 
