#Written by Robertson Geologging WinLogger V1.0/370
~VERSION INFORMATION
#------------------------------------------------------------------------------
 VERS. 2.0 : CWLS LOG ASCII STANDARD - VERSION 2.0
 WRAP. NO  : ONE LINE PER DEPTH STEP
~WELL INFORMATION
#MNEM.UNIT         DATA                                DESCRIPTION OF MNEMONIC
#------------------------------------------------------------------------------
 STRT.M         39.9100                            :   START DEPTH
 STOP.M        520.0300                            :   STOP DEPTH
 STEP.M          0.0100                            :   STEP VALUE
 NULL.        -999.2500                            :   NULL VALUE
 COMP.    White Young Gteen                        :   COMPANY NAME
 WELL.    Dawdon  Shaft                            :   WELL NAME
 FLD.     Dawdon                                   :   FIELD NAME
 LOC.     N/A                                      :   LOCATION
 PROV.    N/A                                      :   PROVINCE
 SRVC.    N/A                                      :   SERVICE COMPANY NAME
 DATE.    04 Oct 05                                :   DATE
 UWI.     N/A                                      :   UNIQUE WELL IDENTIFIER
~PARAMETER INFORMATION
#MNEMO.UNIT         VALUE                 DESCRIPTION OF MNEMONIC
#------------------------------------------------------------------------------
~OTHER INFORMATION SECTION
#------------------------------------------------------------------------------
 TCGS1365
~CURVE INFORMATION
#MNEMO.UNIT         API CODE              CURVE DESCRIPTION
#------------------------------------------------------------------------------
 DEPTH.M                                 :   0     Depth
 TEMP.DegC                               :   1     Temperature
 CN25.mS/cm                              :   2     Conductivity@25DegC
 COND.mS/cm                              :   3     Conductivity
 DELT.DegC                               :   4     Delta T
 DELC.mS/cm                              :   5     Delta C
 NGAM.CPS                                :   6     Natural Gamma
#------------------------------------------------------------------------------
~A  DEPTH     TEMP      CN25      COND      DELT      DELC      NGAM      
# ...
   295.29     16.05     66.90     53.18      0.01      0.94      0.41 
   295.30     16.05     66.93     53.21      0.01      0.97      0.88 
   295.31     16.05     66.95     53.23      0.01      0.99      0.88 
   295.32     16.05     66.98     53.24      0.01      1.01      1.35 
   295.33     16.04     67.01     53.26      0.01      1.04      1.35 
   295.34     16.04     67.03     53.28      0.01      1.06      1.41 
   295.35     16.04     67.06     53.30      0.00      1.10      1.41 
   295.36     16.05     67.08     53.32      0.01      1.11      1.41 
   295.37     16.05     67.10     53.34      0.01      1.13      1.41 
   295.38     16.05     67.12     53.36      0.01      1.14      1.88 
   295.39     16.05     67.14     53.38      0.01      1.15      1.88 
   295.40     16.05     67.16     53.40      0.01      1.17      1.88 
   295.41     16.05     67.18     53.42      0.02      1.19      1.88 
   295.42     16.05     67.19     53.43      0.02      1.20      2.71 
   295.43     16.05     67.21     53.45      0.02      1.22      2.71 
   295.44     16.05     67.24     53.47      0.02      1.25      2.71 
   295.45     16.05     67.26     53.49      0.02      1.27      2.71 
   295.46     16.05     67.29     53.51      0.01      1.29      3.12 
   295.47     16.05     67.31     53.53      0.01      1.32      2.65 
   295.48     16.05     67.34     53.55      0.01      1.35      3.12 
   295.49     16.05     67.36     53.57      0.01      1.38      2.65 
   295.50     16.05     67.39     53.59      0.00      1.41      2.65 
   295.51     16.05     67.42     53.61      0.00      1.43      2.18 
   295.52     16.05     67.44     53.62      0.00      1.45      2.18 
   295.53     16.05     67.46     53.64      0.00      1.46      2.18 
   295.54     16.05     67.48     53.66      0.01      1.47      2.18 
   295.55     16.05     67.49     53.68      0.01      1.48      1.71 
   295.56     16.06     67.50     53.70      0.01      1.49      2.12 
   295.57     16.06     67.52     53.71      0.02      1.50      2.12 
   295.58     16.06     67.54     53.74      0.02      1.51      2.12 
   295.59     16.06     67.56     53.75      0.03      1.52      1.29 
   295.60     16.06     67.57     53.77      0.03      1.53      1.29 
   295.61     16.06     67.59     53.78      0.03      1.55      1.29 
   295.62     16.06     67.61     53.80      0.03      1.57      1.29 
   295.63     16.06     67.64     53.82      0.03      1.59      0.88 
   295.64     16.06     67.66     53.84      0.03      1.61      0.88 
   295.65     16.06     67.69     53.86      0.02      1.65      0.41 
   295.66     16.06     67.71     53.87      0.02      1.67      0.41 
   295.67     16.06     67.73     53.89      0.02      1.69      0.41 
   295.68     16.06     67.76     53.91      0.01      1.72      0.41 
   295.69     16.06     67.77     53.92      0.01      1.75      0.41 
   295.70     16.06     67.80     53.94      0.00      1.77      0.82 
   295.71     16.06     67.82     53.95      0.00      1.80      0.82 
   295.72     16.06     67.84     53.97     -0.00      1.82      0.82 
   295.73     16.06     67.86     53.98     -0.00      1.84      0.41 
   295.74     16.06     67.88     54.00     -0.00      1.86      0.41 
   295.75     16.05     67.90     54.01     -0.01      1.87      0.41 
   295.76     16.05     67.92     54.03     -0.01      1.88      0.41 
   295.77     16.05     67.94     54.04     -0.01      1.90      0.41 
   295.78     16.05     67.96     54.06     -0.00      1.91      0.41 
   295.79     16.05     67.98     54.07     -0.00      1.91      0.41 
   295.80     16.05     67.99     54.08     -0.00      1.92      0.41 
   295.81     16.05     68.00     54.09      0.00      1.93      0.41 
   295.82     16.05     68.02     54.11      0.00      1.93      0.82 
   295.83     16.05     68.03     54.12      0.01      1.94      0.82 
   295.84     16.06     68.04     54.13      0.01      1.94      0.82 
   295.85     16.06     68.05     54.14      0.01      1.95      1.24 
   295.86     16.06     68.06     54.16      0.01      1.95      1.24 
   295.87     16.06     68.07     54.17      0.02      1.96      1.24 
   295.88     16.06     68.08     54.19      0.02      1.97      1.24 
   295.89     16.07     68.09     54.20      0.02      1.97      1.24 
   295.90     16.07     68.10     54.21      0.02      1.97      1.24 
   295.91     16.07     68.12     54.22      0.02      1.99      1.24 
   295.92     16.06     68.14     54.23      0.02      2.00      1.65 
   295.93     16.06     68.15     54.24      0.02      2.01      1.65 
   295.94     16.06     68.17     54.25      0.02      2.02      1.65 
   295.95     16.06     68.19     54.27      0.02      2.02      1.65 
   295.96     16.06     68.20     54.27      0.02      2.03      1.65 
   295.97     16.06     68.21     54.29      0.01      2.04      1.65 
   295.98     16.06     68.23     54.30      0.01      2.04      1.65 
   295.99     16.06     68.23     54.30      0.01      2.04      1.24 
   296.00     16.06     68.25     54.32      0.01      2.05      1.24 
   296.01     16.06     68.27     54.33      0.01      2.05      1.24 
   296.02     16.06     68.27     54.34      0.01      2.05      0.82 
   296.03     16.06     68.28     54.34      0.01      2.05      1.24 
   296.04     16.06     68.29     54.36      0.01      2.04      0.82 
   296.05     16.06     68.30     54.36      0.01      2.03      0.82 
   296.06     16.06     68.31     54.37      0.01      2.02      0.82 
   296.07     16.06     68.33     54.38      0.01      2.00      0.82 
   296.08     16.06     68.34     54.39      0.01      1.99      0.82 
   296.09     16.06     68.35     54.40      0.01      1.98      0.41 
   296.10     16.06     68.36     54.41      0.01      1.96      0.41 
   296.11     16.06     68.37     54.42      0.01      1.94      0.41 
   296.12     16.06     68.37     54.43      0.01      1.92      0.41 
   296.13     16.06     68.38     54.43      0.01      1.90      0.41 
   296.14     16.06     68.40     54.45      0.01      1.89      0.41 
   296.15     16.06     68.42     54.45      0.01      1.87      0.41 
   296.16     16.06     68.43     54.46      0.01      1.86      0.82 
   296.17     16.06     68.44     54.47      0.01      1.83      0.82 
   296.18     16.06     68.44     54.47      0.01      1.82      0.82 
   296.19     16.06     68.45     54.48      0.01      1.79      0.82 
   296.20     16.06     68.46     54.49      0.01      1.78      0.41 
   296.21     16.06     68.47     54.49      0.01      1.77      0.41 
   296.22     16.06     68.48     54.50      0.01      1.74      0.82 
   296.23     16.06     68.50     54.51      0.01      1.73      1.24 
   296.24     16.06     68.50     54.52      0.01      1.70      1.24 
   296.25     16.06     68.49     54.52      0.01      1.68      1.24 
   296.26     16.06     68.49     54.53      0.01      1.65      1.24 
   296.27     16.07     68.49     54.53      0.02      1.62      1.24 
   296.28     16.07     68.50     54.54      0.02      1.61      1.24 
   296.29     16.06     68.52     54.55      0.02      1.59      1.24 
   296.30     16.06     68.53     54.55      0.01      1.58      1.24 
   296.31     16.06     68.54     54.55      0.02      1.56      1.24 
   296.32     16.06     68.54     54.56      0.02      1.53      1.24 
   296.33     16.06     68.55     54.57      0.02      1.52      0.82 
   296.34     16.06     68.56     54.57      0.02      1.50      0.82 
   296.35     16.06     68.57     54.57      0.01      1.49      0.82 
   296.36     16.05     68.58     54.58      0.01      1.48      1.24 
   296.37     16.05     68.59     54.58      0.00      1.47      1.24 
   296.38     16.05     68.61     54.59      0.00      1.47      1.24 
   296.39     16.05     68.61     54.59     -0.00      1.46      0.82 
   296.40     16.05     68.62     54.60     -0.00      1.44      0.41 
   296.41     16.05     68.62     54.60     -0.00      1.43      0.82 
