#Written by Robertson Geologging WinLogger V1.0/370
~VERSION INFORMATION
#------------------------------------------------------------------------------
 VERS. 2.0 : CWLS LOG ASCII STANDARD - VERSION 2.0
 WRAP. NO  : ONE LINE PER DEPTH STEP
~WELL INFORMATION
#MNEM.UNIT         DATA                                DESCRIPTION OF MNEMONIC
#------------------------------------------------------------------------------
 STRT.M         39.9100                            :   START DEPTH
 STOP.M        520.0300                            :   STOP DEPTH
 STEP.M          0.0100                            :   STEP VALUE
 NULL.        -999.2500                            :   NULL VALUE
 COMP.    White Young Gteen                        :   COMPANY NAME
 WELL.    Dawdon  Shaft                            :   WELL NAME
 FLD.     Dawdon                                   :   FIELD NAME
 LOC.     N/A                                      :   LOCATION
 PROV.    N/A                                      :   PROVINCE
 SRVC.    N/A                                      :   SERVICE COMPANY NAME
 DATE.    04 Oct 05                                :   DATE
 UWI.     N/A                                      :   UNIQUE WELL IDENTIFIER
~PARAMETER INFORMATION
#MNEMO.UNIT         VALUE                 DESCRIPTION OF MNEMONIC
#------------------------------------------------------------------------------
~OTHER INFORMATION SECTION
#------------------------------------------------------------------------------
 TCGS1365
~CURVE INFORMATION
#MNEMO.UNIT         API CODE              CURVE DESCRIPTION
#------------------------------------------------------------------------------
 DEPTH.M                                 :   0     Depth
 TEMP.DegC                               :   1     Temperature
 CN25.mS/cm                              :   2     Conductivity@25DegC
 COND.mS/cm                              :   3     Conductivity
 DELT.DegC                               :   4     Delta T
 DELC.mS/cm                              :   5     Delta C
 NGAM.CPS                                :   6     Natural Gamma
#------------------------------------------------------------------------------
~A  DEPTH     TEMP      CN25      COND      DELT      DELC      NGAM      
# ...
   104.32     11.51     15.01      6.01      0.00      0.00      0.41 
   104.33     11.50     15.00      6.00      0.00     -0.00      0.41 
   104.34     11.50     15.01      6.00     -0.00     -0.00      0.41 
   104.35     11.50     15.01      6.00     -0.00      0.00      0.41 
   104.36     11.50     15.01      6.00     -0.00     -0.00      0.41 
   104.37     11.50     15.01      6.01     -0.00      0.00      0.41 
   104.38     11.50     15.01      6.00     -0.00     -0.00      0.82 
   104.39     11.50     15.01      6.01      0.00      0.00      0.82 
   104.40     11.50     15.01      6.00      0.00     -0.00      0.82 
   104.41     11.50     15.01      6.00      0.00     -0.01      0.82 
   104.42     11.50     15.00      6.00      0.00     -0.00      0.82 
   104.43     11.51     15.00      6.00      0.00     -0.01      0.82 
   104.44     11.51     15.00      6.01      0.01     -0.01      0.82 
   104.45     11.51     15.00      6.00      0.01     -0.01      0.82 
   104.46     11.51     15.00      6.01      0.01     -0.01      0.82 
   104.47     11.51     15.00      6.00      0.01     -0.01      0.41 
   104.48     11.51     14.99      6.00      0.01     -0.01      0.41 
   104.49     11.51     14.99      6.00      0.01     -0.01      0.41 
   104.50     11.51     14.99      6.00      0.01     -0.01      0.41 
   104.51     11.51     14.99      6.00      0.01     -0.01      0.41 
   104.52     11.51     14.99      6.00      0.00     -0.01      0.41 
   104.53     11.51     15.00      6.01      0.00     -0.00      0.41 
   104.54     11.51     15.00      6.00     -0.00      0.00      0.41 
   104.55     11.51     15.00      6.00     -0.00      0.00      0.00 
   104.56     11.51     15.00      6.01     -0.01      0.01      0.00 
   104.57     11.51     15.00      6.01     -0.01      0.00      0.00 
   104.58     11.51     15.01      6.01     -0.00      0.01      0.00 
   104.59     11.50     15.00      6.01     -0.00      0.00      0.00 
   104.60     11.50     15.01      6.01     -0.00      0.01      0.00 
   104.61     11.50     15.01      6.01     -0.00      0.01      0.00 
   104.62     11.50     15.01      6.01     -0.00      0.00      0.00 
   104.63     11.50     15.01      6.01     -0.00      0.01      0.00 
   104.64     11.50     15.00      6.01     -0.00      0.00      0.00 
   104.65     11.51     15.01      6.01      0.00      0.00      0.00 
   104.66     11.51     15.00      6.01      0.00      0.00      0.00 
   104.67     11.51     15.01      6.01      0.00     -0.00      0.00 
   104.68     11.51     15.00      6.01      0.00     -0.00      0.00 
   104.69     11.51     15.00      6.01      0.00     -0.01      0.00 
   104.70     11.51     15.00      6.00     -0.00      0.00      0.00 
   104.71     11.50     15.00      6.00     -0.00      0.00      0.00 
   104.72     11.50     15.01      6.01     -0.00      0.00      0.00 
   104.73     11.50     15.00      6.00     -0.00      0.00      0.00 
   104.74     11.50     15.01      6.01      0.00     -0.00      0.00 
   104.75     11.50     15.00      6.00      0.00     -0.00      0.00 
   104.76     11.51     15.00      6.00      0.00     -0.01      0.00 
   104.77     11.51     15.00      6.00      0.00     -0.01      0.41 
   104.78     11.51     15.00      6.00      0.00     -0.01      0.41 
   104.79     11.51     15.01      6.01      0.00      0.00      0.41 
   104.80     11.51     15.00      6.01      0.00     -0.00      0.41 
   104.81     11.51     15.01      6.01      0.00     -0.00      0.41 
   104.82     11.51     15.00      6.01      0.00     -0.00      0.41 
   104.83     11.51     15.00      6.01      0.00     -0.00      0.41 
   104.84     11.51     15.00      6.01      0.00     -0.00      0.41 
   104.85     11.51     15.00      6.01     -0.00      0.00      0.41 
   104.86     11.51     15.01      6.01     -0.00      0.01      0.41 
   104.87     11.51     15.00      6.01     -0.01      0.01      0.41 
   104.88     11.50     15.01      6.01     -0.01      0.01      0.41 
   104.89     11.50     15.00      6.01     -0.01      0.01      0.41 
   104.90     11.50     15.00      6.01     -0.00      0.00      0.41 
   104.91     11.50     15.00      6.01     -0.00      0.00      0.41 
   104.92     11.50     15.00      6.01      0.00     -0.00      0.41 
   104.93     11.51     15.00      6.01      0.00     -0.00      0.41 
   104.94     11.51     15.00      6.01      0.00     -0.00      0.00 
   104.95     11.51     15.00      6.01      0.00     -0.01      0.00 
   104.96     11.51     15.00      6.01      0.01     -0.01      0.00 
   104.97     11.51     15.00      6.01      0.01     -0.01      0.00 
   104.98     11.51     15.00      6.01      0.01     -0.01      0.00 
   104.99     11.51     15.00      6.01      0.01     -0.01      0.00 
   105.00     11.51     15.00      6.01      0.00     -0.00      0.00 
   105.01     11.51     15.00      6.01      0.00     -0.00      0.00 
   105.02     11.51     15.00      6.01     -0.00      0.00      0.00 
   105.03     11.51     15.00      6.01     -0.00      0.00      0.00 
   105.04     11.51     15.00      6.01     -0.00      0.00      0.00 
   105.05     11.51     15.00      6.01     -0.00      0.00      0.00 
   105.06     11.51     15.01      6.01     -0.00      0.01      0.00 
   105.07     11.50     15.01      6.01     -0.01      0.01      0.00 
   105.08     11.50     15.01      6.01     -0.01      0.01      0.00 
   105.09     11.50     15.01      6.01     -0.01      0.01      0.00 
   105.10     11.50     15.01      6.01     -0.01      0.01      0.00 
   105.11     11.50     15.01      6.01     -0.00      0.00      0.00 
   105.12     11.50     15.01      6.01      0.00      0.00      0.00 
   105.13     11.51     15.00      6.01      0.00     -0.00      0.00 
   105.14     11.51     15.00      6.01      0.00     -0.00      0.00 
   105.15     11.51     15.00      6.01      0.00     -0.01      0.00 
   105.16     11.51     15.00      6.01      0.00     -0.00      0.00 
   105.17     11.51     15.00      6.01      0.00     -0.00      0.00 
   105.18     11.51     15.00      6.01      0.00     -0.00      0.00 
   105.19     11.51     15.00      6.01      0.00     -0.00      0.00 
   105.20     11.51     15.00      6.01     -0.00      0.00      0.00 
   105.21     11.51     15.00      6.01     -0.00      0.00      0.00 
   105.22     11.51     15.00      6.01     -0.00      0.00      0.00 
   105.23     11.51     15.00      6.01     -0.01      0.01      0.00 
   105.24     11.51     15.00      6.01     -0.01      0.00      0.00 
   105.25     11.51     15.00      6.01     -0.01      0.01      0.41 
   105.26     11.50     15.01      6.01     -0.01      0.01      0.41 
   105.27     11.50     15.00      6.01     -0.01      0.01      0.41 
   105.28     11.50     15.01      6.01     -0.01      0.01      0.41 
   105.29     11.50     15.01      6.01     -0.01      0.00      0.41 
   105.30     11.50     15.01      6.01     -0.01      0.01      0.41 
   105.31     11.50     15.01      6.01     -0.00      0.00      0.41 
   105.32     11.50     15.01      6.01     -0.00      0.00      0.41 
   105.33     11.50     15.01      6.01     -0.00      0.00      0.41 
   105.34     11.50     15.01      6.01     -0.00      0.00      0.41 
   105.35     11.50     15.01      6.01     -0.00      0.01      0.41 
   105.36     11.50     15.01      6.01     -0.00      0.00      0.41 
   105.37     11.50     15.01      6.01     -0.00      0.01      0.41 
   105.38     11.50     15.01      6.01     -0.01      0.00      0.41 
   105.39     11.50     15.01      6.01     -0.00      0.01      0.41 
   105.40     11.50     15.01      6.01     -0.00      0.00      0.41 
   105.41     11.50     15.01      6.01     -0.00      0.01      0.41 
   105.42     11.50     15.01      6.01     -0.00      0.01      0.00 
   105.43     11.50     15.01      6.01     -0.01      0.00      0.00 
   105.44     11.50     15.01      6.01     -0.01      0.02      0.00 
