#Written by Robertson Geologging WinLogger V1.0/370
~VERSION INFORMATION
#------------------------------------------------------------------------------
 VERS. 2.0 : CWLS LOG ASCII STANDARD - VERSION 2.0
 WRAP. NO  : ONE LINE PER DEPTH STEP
~WELL INFORMATION
#MNEM.UNIT         DATA                                DESCRIPTION OF MNEMONIC
#------------------------------------------------------------------------------
 STRT.M         39.9100                            :   START DEPTH
 STOP.M        520.0300                            :   STOP DEPTH
 STEP.M          0.0100                            :   STEP VALUE
 NULL.        -999.2500                            :   NULL VALUE
 COMP.    White Young Gteen                        :   COMPANY NAME
 WELL.    Dawdon  Shaft                            :   WELL NAME
 FLD.     Dawdon                                   :   FIELD NAME
 LOC.     N/A                                      :   LOCATION
 PROV.    N/A                                      :   PROVINCE
 SRVC.    N/A                                      :   SERVICE COMPANY NAME
 DATE.    04 Oct 05                                :   DATE
 UWI.     N/A                                      :   UNIQUE WELL IDENTIFIER
~PARAMETER INFORMATION
#MNEMO.UNIT         VALUE                 DESCRIPTION OF MNEMONIC
#------------------------------------------------------------------------------
~OTHER INFORMATION SECTION
#------------------------------------------------------------------------------
 TCGS1365
~CURVE INFORMATION
#MNEMO.UNIT         API CODE              CURVE DESCRIPTION
#------------------------------------------------------------------------------
 DEPTH.M                                 :   0     Depth
 TEMP.DegC                               :   1     Temperature
 CN25.mS/cm                              :   2     Conductivity@25DegC
 COND.mS/cm                              :   3     Conductivity
 DELT.DegC                               :   4     Delta T
 DELC.mS/cm                              :   5     Delta C
 NGAM.CPS                                :   6     Natural Gamma
#------------------------------------------------------------------------------
~A  DEPTH     TEMP      CN25      COND      DELT      DELC      NGAM      
# ...
   487.39     22.84     76.91     79.44      0.13     -0.37      5.06 
   487.40     22.84     76.90     79.44      0.13     -0.38      5.06 
   487.41     22.84     76.90     79.44      0.13     -0.39      5.06 
   487.42     22.84     76.88     79.44      0.14     -0.41      4.65 
   487.43     22.85     76.88     79.44      0.14     -0.42      5.06 
   487.44     22.85     76.87     79.44      0.14     -0.43      5.06 
   487.45     22.85     76.87     79.44      0.15     -0.43      5.06 
   487.46     22.85     76.86     79.44      0.15     -0.44      5.06 
   487.47     22.85     76.86     79.44      0.15     -0.44      5.06 
   487.48     22.86     76.85     79.44      0.15     -0.45      4.59 
   487.49     22.86     76.83     79.44      0.16     -0.47      3.76 
   487.50     22.87     76.81     79.45      0.16     -0.48      3.35 
   487.51     22.88     76.79     79.44      0.17     -0.51      3.76 
   487.52     22.88     76.77     79.44      0.18     -0.52      3.29 
   487.53     22.89     76.76     79.45      0.18     -0.53      2.88 
   487.54     22.89     76.75     79.45      0.18     -0.54      2.88 
   487.55     22.90     76.74     79.45      0.19     -0.55      2.47 
   487.56     22.90     76.73     79.45      0.19     -0.57      2.06 
   487.57     22.90     76.73     79.45      0.20     -0.58      2.06 
   487.58     22.90     76.72     79.45      0.20     -0.59      1.65 
   487.59     22.90     76.72     79.45      0.20     -0.59      2.06 
   487.60     22.90     76.72     79.44      0.20     -0.59      1.65 
   487.61     22.90     76.72     79.45      0.20     -0.58      1.65 
   487.62     22.90     76.73     79.45      0.19     -0.56      1.65 
   487.63     22.90     76.72     79.44      0.19     -0.56      1.65 
   487.64     22.90     76.72     79.44      0.19     -0.56      1.24 
   487.65     22.90     76.70     79.44      0.20     -0.57      1.24 
   487.66     22.91     76.69     79.44      0.20     -0.58      1.24 
   487.67     22.91     76.68     79.44      0.20     -0.57      2.06 
   487.68     22.91     76.67     79.44      0.20     -0.57      1.65 
   487.69     22.92     76.66     79.44      0.20     -0.56      1.65 
   487.70     22.92     76.65     79.44      0.20     -0.58      2.06 
   487.71     22.92     76.65     79.44      0.20     -0.59      2.06 
   487.72     22.93     76.63     79.44      0.21     -0.61      2.06 
   487.73     22.93     76.62     79.44      0.21     -0.63      2.06 
   487.74     22.93     76.61     79.44      0.22     -0.64      2.06 
   487.75     22.93     76.60     79.43      0.22     -0.65      2.06 
   487.76     22.94     76.60     79.44      0.22     -0.65      1.65 
   487.77     22.94     76.60     79.43      0.22     -0.67      2.06 
   487.78     22.94     76.59     79.43      0.23     -0.69      2.06 
   487.79     22.94     76.59     79.43      0.23     -0.70      2.06 
   487.80     22.94     76.58     79.43      0.24     -0.72      1.65 
   487.81     22.94     76.58     79.43      0.24     -0.72      1.65 
   487.82     22.94     76.58     79.43      0.23     -0.71      1.65 
   487.83     22.94     76.58     79.43      0.23     -0.69      2.12 
   487.84     22.94     76.59     79.43      0.22     -0.67      1.29 
   487.85     22.94     76.58     79.43      0.22     -0.68      1.29 
   487.86     22.94     76.57     79.43      0.23     -0.68      1.29 
   487.87     22.95     76.56     79.43      0.23     -0.70      0.88 
   487.88     22.95     76.56     79.43      0.23     -0.70      1.29 
   487.89     22.95     76.56     79.43      0.23     -0.69      1.29 
   487.90     22.95     76.54     79.43      0.23     -0.71      1.29 
   487.91     22.96     76.53     79.43      0.24     -0.72      1.29 
   487.92     22.96     76.52     79.43      0.24     -0.75      1.29 
   487.93     22.97     76.50     79.43      0.25     -0.78      1.29 
   487.94     22.97     76.50     79.43      0.26     -0.80      0.88 
   487.95     22.97     76.50     79.43      0.26     -0.80      1.35 
   487.96     22.97     76.50     79.43      0.26     -0.79      1.76 
   487.97     22.97     76.50     79.43      0.25     -0.78      1.76 
   487.98     22.97     76.50     79.43      0.25     -0.76      1.76 
   487.99     22.97     76.49     79.43      0.24     -0.75      1.76 
   488.00     22.97     76.48     79.43      0.24     -0.74      1.29 
   488.01     22.97     76.49     79.43      0.23     -0.71      2.12 
   488.02     22.97     76.50     79.43      0.22     -0.69      2.12 
   488.03     22.96     76.50     79.43      0.21     -0.66      2.12 
   488.04     22.96     76.51     79.43      0.20     -0.63      2.12 
   488.05     22.96     76.51     79.42      0.20     -0.61      1.71 
   488.06     22.96     76.51     79.42      0.19     -0.60      2.12 
   488.07     22.96     76.52     79.42      0.19     -0.58      2.53 
   488.08     22.96     76.53     79.42      0.18     -0.57      2.53 
   488.09     22.95     76.53     79.42      0.18     -0.57      2.94 
   488.10     22.95     76.53     79.42      0.18     -0.57      3.35 
   488.11     22.95     76.52     79.42      0.18     -0.57      3.35 
   488.12     22.96     76.51     79.42      0.18     -0.58      2.88 
   488.13     22.96     76.50     79.42      0.19     -0.58      2.47 
   488.14     22.97     76.48     79.42      0.19     -0.58      2.47 
   488.15     22.97     76.48     79.42      0.18     -0.58      2.47 
   488.16     22.97     76.48     79.42      0.18     -0.57      2.47 
   488.17     22.97     76.47     79.42      0.18     -0.58      2.47 
   488.18     22.97     76.46     79.42      0.19     -0.58      2.06 
   488.19     22.98     76.46     79.42      0.19     -0.58      2.06 
   488.20     22.98     76.45     79.42      0.19     -0.58      2.06 
   488.21     22.98     76.45     79.42      0.18     -0.57      2.06 
   488.22     22.98     76.45     79.42      0.18     -0.56      2.88 
   488.23     22.97     76.46     79.42      0.17     -0.54      2.47 
   488.24     22.97     76.46     79.42      0.16     -0.52      2.06 
   488.25     22.97     76.47     79.42      0.16     -0.50      2.06 
   488.26     22.97     76.47     79.42      0.15     -0.50      2.06 
   488.27     22.97     76.46     79.42      0.15     -0.49      1.65 
   488.28     22.98     76.46     79.42      0.15     -0.49      1.65 
   488.29     22.98     76.46     79.42      0.15     -0.48      2.12 
   488.30     22.98     76.45     79.42      0.15     -0.48      2.12 
   488.31     22.98     76.45     79.41      0.15     -0.48      2.12 
   488.32     22.98     76.45     79.41      0.14     -0.47      2.12 
   488.33     22.98     76.44     79.41      0.14     -0.47      2.12 
   488.34     22.98     76.45     79.41      0.14     -0.46      2.12 
   488.35     22.98     76.44     79.41      0.14     -0.47      1.71 
   488.36     22.98     76.43     79.41      0.14     -0.48      2.18 
   488.37     22.98     76.43     79.41      0.15     -0.48      2.18 
   488.38     22.98     76.43     79.41      0.15     -0.48      2.59 
   488.39     22.98     76.43     79.41      0.14     -0.48      1.76 
   488.40     22.99     76.42     79.41      0.14     -0.48      1.76 
   488.41     22.98     76.42     79.41      0.14     -0.46      2.24 
   488.42     22.98     76.43     79.41      0.14     -0.46      2.24 
   488.43     22.98     76.43     79.41      0.14     -0.45      1.82 
   488.44     22.98     76.44     79.41      0.13     -0.43      2.24 
   488.45     22.98     76.43     79.41      0.13     -0.43      2.24 
   488.46     22.98     76.43     79.41      0.13     -0.42      1.76 
   488.47     22.98     76.43     79.41      0.12     -0.42      1.76 
   488.48     22.98     76.43     79.41      0.12     -0.41      2.18 
   488.49     22.99     76.42     79.41      0.12     -0.40      2.18 
   488.50     22.99     76.41     79.41      0.11     -0.38      2.18 
   488.51     22.99     76.40     79.41      0.11     -0.37      2.18 
