#Written by Robertson Geologging WinLogger V1.0/406
~VERSION INFORMATION
#------------------------------------------------------------------------------
 VERS. 2.0 : CWLS LOG ASCII STANDARD - VERSION 2.0
 WRAP. NO  : ONE LINE PER DEPTH STEP
~WELL INFORMATION
#MNEM.UNIT         DATA                                DESCRIPTION OF MNEMONIC
#------------------------------------------------------------------------------
 STRT.M          0.0600                            :   START DEPTH
 STOP.M         95.0200                            :   STOP DEPTH
 STEP.M          0.0100                            :   STEP VALUE
 NULL.        -999.2500                            :   NULL VALUE
 COMP.    Coal Authority                           :   COMPANY NAME
 WELL.    Ladysmith Shaft                          :   WELL NAME
 FLD.     Ladysmith                                :   FIELD NAME
 LOC.     N/A                                      :   LOCATION
 PROV.    N/A                                      :   PROVINCE
 SRVC.    N/A                                      :   SERVICE COMPANY NAME
 DATE.    20 May 08                                :   DATE
 UWI.     N/A                                      :   UNIQUE WELL IDENTIFIER
~PARAMETER INFORMATION
#MNEMO.UNIT         VALUE                 DESCRIPTION OF MNEMONIC
#------------------------------------------------------------------------------
~OTHER INFORMATION SECTION
#------------------------------------------------------------------------------
 TCDS 1365
~CURVE INFORMATION
#MNEMO.UNIT         API CODE              CURVE DESCRIPTION
#------------------------------------------------------------------------------
 DEPTH.M                                 :   0     Depth
 TEMP.DegC                               :   1     Temperature
 COND.uS/cm                              :   2     Absolute Conductivity
 COND.uS/cm                              :   3     Conductivity@25DegC
 DELT.DegC                               :   4     Delta T
 DELC.uS/cm                              :   5     Delta C
#------------------------------------------------------------------------------
~A  DEPTH     TEMP      COND      COND      DELT      DELC      
# ...
    37.02     12.02   1737.53   2346.54      0.00     -0.31 
    37.03     12.02   1737.53   2346.54      0.01     -0.92 
    37.04     12.03   1729.39   2335.24      0.01    -11.91 
    37.05     12.02   1737.53   2346.54      0.02      9.78 
    37.06     12.01   1733.92   2342.26      0.00     -4.89 
    37.07     12.01   1737.53   2347.46     -0.01      0.61 
    37.08     12.00   1729.39   2336.76     -0.02      1.22 
    37.09     12.01   1737.53   2347.46     -0.02      1.53 
    37.10     12.01   1737.53   2347.15     -0.02      1.22 
    37.11     12.02   1737.53   2346.85     -0.01      5.50 
    37.12     12.01   1729.39   2336.15     -0.01     -4.28 
    37.13     12.00   1737.53   2347.77     -0.01      5.50 
    37.14     12.00   1737.53   2347.77      0.00      0.00 
    37.15     12.00   1729.39   2336.76      0.01     -0.61 
    37.16     12.01   1737.53   2347.15      0.03     -1.84 
    37.17     12.02   1737.53   2346.54      0.03     -1.84 
    37.18     12.02   1733.92   2341.65      0.02     -6.42 
    37.19     12.03   1729.39   2335.24      0.01     -0.91 
    37.20     12.03   1729.39   2335.24      0.00    -11.30 
    37.21     12.02   1737.53   2346.85      0.00      0.00 
    37.22     12.02   1737.53   2346.85      0.00     10.69 
    37.23     12.00   1729.39   2336.76      0.00    -11.00 
    37.24     12.00   1737.53   2348.07      0.00      0.00 
    37.25     12.00   1737.53   2348.07     -0.00     11.31 
    37.26     12.00   1729.39   2336.76     -0.01    -10.39 
    37.27     12.01   1737.53   2347.46     -0.02      6.11 
    37.28     12.01   1737.53   2347.15     -0.01      0.92 
    37.29     12.02   1729.39   2335.85     -0.00    -10.69 
    37.30     12.02   1737.53   2346.85      0.00     10.69 
    37.31     12.03   1737.53   2346.24      0.01     -0.92 
    37.32     12.03   1729.39   2335.24      0.00    -11.30 
    37.33     12.03   1737.53   2346.24      0.00     10.69 
    37.34     12.03   1733.92   2341.35      0.00     -4.89 
    37.35     12.02   1737.53   2346.85      0.00      0.00 
    37.36     12.01   1729.39   2336.15     -0.00      0.30 
    37.37     12.02   1737.53   2346.85      0.00      0.00 
    37.38     12.02   1737.53   2346.85     -0.00      0.31 
    37.39     12.02   1729.39   2335.85     -0.01    -10.39 
    37.40     12.02   1737.53   2346.85      0.00     11.00 
    37.41     12.02   1737.53   2346.85      0.01     -0.61 
    37.42     12.02   1733.92   2341.96      0.01     -5.81 
    37.43     12.02   1729.39   2335.54      0.01     -0.91 
    37.44     12.02   1737.53   2346.85      0.00     -0.31 
    37.45     12.00   1737.53   2347.77     -0.01      0.92 
    37.46     12.00   1729.39   2336.76     -0.02     -9.78 
    37.47     12.00   1737.53   2347.77     -0.02     12.22 
    37.48     12.01   1737.53   2347.15     -0.01      0.92 
    37.49     12.02   1729.39   2335.85     -0.01    -10.39 
    37.50     12.02   1737.53   2346.54     -0.01      5.50 
    37.51     12.02   1737.53   2346.85     -0.00      0.31 
    37.52     12.02   1733.92   2341.96      0.00      6.11 
    37.53     12.02   1737.53   2346.54      0.00     -0.31 
    37.54     12.01   1729.39   2336.15      0.01    -11.61 
    37.55     12.01   1737.53   2347.15      0.01     -0.61 
    37.56     12.01   1737.53   2347.46      0.00     10.70 
    37.57     12.00   1729.39   2337.07      0.00    -11.01 
    37.58     12.00   1737.53   2348.07     -0.01      0.61 
    37.59     12.01   1737.53   2347.46      0.00     11.00 
    37.60     12.02   1729.39   2335.85      0.00    -11.31 
    37.61     12.02   1737.53   2346.85      0.00      0.00 
    37.62     12.02   1729.39   2335.54      0.01     -0.61 
    37.63     12.01   1737.53   2347.15     -0.00      0.31 
    37.64     12.01   1733.92   2342.57     -0.01      0.92 
    37.65     12.01   1737.53   2347.15     -0.01      0.61 
    37.66     12.00   1737.53   2348.07     -0.02      1.22 
    37.67     12.00   1729.39   2336.76     -0.01      0.91 
    37.68     12.01   1737.53   2347.46      0.00      0.00 
    37.69     12.00   1729.39   2336.76     -0.00    -10.70 
    37.70     12.01   1737.53   2347.15      0.00     11.00 
    37.71     12.02   1737.53   2346.85      0.01     -0.92 
    37.72     12.01   1729.39   2336.46      0.00     -6.11 
    37.73     12.01   1737.53   2347.15      0.00     -0.31 
    37.74     12.01   1737.53   2347.46     -0.00      0.31 
    37.75     12.00   1729.39   2336.76      0.00      0.00 
    37.76     12.00   1737.53   2347.77      0.00     -0.31 
    37.77     12.00   1737.53   2347.77      0.00      0.00 
    37.78     12.01   1729.39   2336.46      0.01     -0.61 
    37.79     12.01   1737.53   2347.15      0.00      0.00 
    37.80     12.02   1737.53   2346.54      0.01     -0.92 
    37.81     12.02   1729.39   2335.54      0.01     -0.91 
    37.82     12.03   1737.53   2346.24      0.02     -1.22 
    37.83     12.03   1737.53   2345.93      0.03     -1.84 
    37.84     12.03   1733.92   2341.04      0.02      4.59 
    37.85     12.03   1729.39   2334.93      0.02    -12.52 
    37.86     12.03   1737.53   2346.24      0.01     -0.92 
    37.87     12.03   1729.39   2335.24      0.02     -1.22 
    37.88     12.02   1737.53   2346.85      0.01     -0.92 
    37.89     12.02   1737.53   2346.85      0.01     -0.92 
    37.90     12.01   1729.39   2336.15      0.01    -11.61 
    37.91     12.00   1737.53   2347.77      0.00     11.00 
    37.92     12.00   1737.53   2347.77      0.00      0.00 
    37.93     12.00   1729.39   2337.07     -0.01    -10.39 
    37.94     12.00   1737.53   2347.77      0.00     10.70 
    37.95     12.01   1733.92   2342.26      0.01     -5.50 
    37.96     12.02   1737.53   2346.85      0.01     -0.92 
    37.97     12.02   1729.39   2335.54      0.01     -0.91 
    37.98     12.02   1737.53   2346.54      0.01     -0.61 
    37.99     12.02   1737.53   2346.85      0.00     -0.31 
    38.00     12.01   1729.39   2336.15      0.00      0.00 
    38.01     12.02   1737.53   2346.85     -0.00      0.31 
    38.02     12.02   1729.39   2335.54      0.00    -11.00 
    38.03     12.03   1737.53   2346.24      0.00     11.00 
    38.04     12.03   1737.53   2346.24      0.00     -0.31 
    38.05     12.03   1729.39   2335.24      0.01     -7.02 
    38.06     12.03   1737.53   2346.24      0.02     -1.22 
    38.07     12.02   1737.53   2346.54      0.02      9.78 
    38.08     12.02   1729.39   2335.54      0.01    -11.92 
    38.09     12.02   1737.53   2346.85      0.00     -0.31 
    38.10     12.01   1737.53   2347.15     -0.00      0.31 
    38.11     12.02   1729.39   2335.85      0.00     -0.30 
    38.12     12.03   1737.53   2346.24      0.02     -1.53 
    38.13     12.03   1729.39   2334.93      0.03    -12.83 
    38.14     12.03   1737.53   2345.93      0.03      9.17 
    38.15     12.03   1737.53   2346.24      0.01     -0.92 
    38.16     12.01   1729.39   2336.15     -0.01    -10.39 
    38.17     12.01   1737.53   2347.46     -0.01      5.81 
    38.18     12.00   1737.53   2347.77     -0.02     12.53 
    38.19     12.00   1729.39   2336.76     -0.02      1.52 
    38.20     12.01   1737.53   2347.15     -0.00      0.31 
    38.21     12.01   1729.39   2336.15     -0.00    -10.69 
    38.22     12.02   1737.53   2346.85      0.01     10.09 
    38.23     12.02   1737.53   2346.85      0.02     -1.22 
    38.24     12.00   1729.39   2336.76      0.00    -11.31 
    38.25     12.01   1737.53   2347.46      0.00     10.70 
    38.26     12.01   1737.53   2347.46      0.00      0.00 
    38.27     12.01   1729.39   2336.46     -0.00    -10.70 
    38.28     12.02   1737.53   2346.85      0.00     11.00 
    38.29     12.02   1729.39   2335.85      0.00    -11.00 
    38.30     12.02   1737.53   2346.85     -0.01      0.61 
    38.31     12.02   1737.53   2346.54     -0.00     11.30 
    38.32     12.01   1729.39   2336.15     -0.01    -10.08 
    38.33     12.01   1733.92   2342.57     -0.02      1.22 
