#Written by Robertson Geologging WinLogger V1.5/410
~VERSION INFORMATION
#------------------------------------------------------------------------------
 VERS. 2.0 : CWLS LOG ASCII STANDARD - VERSION 2.0
 WRAP. NO  : ONE LINE PER DEPTH STEP
~WELL INFORMATION
#MNEM.UNIT         DATA                                DESCRIPTION OF MNEMONIC
#------------------------------------------------------------------------------
 STRT.M          0.0600                            :   START DEPTH
 STOP.M         94.0500                            :   STOP DEPTH
 STEP.M          0.0100                            :   STEP VALUE
 NULL.        -999.2500                            :   NULL VALUE
 COMP.    Coal Authority                           :   COMPANY NAME
 WELL.    Ladysmith Shaft                          :   WELL NAME
 FLD.     N/A                                      :   FIELD NAME
 LOC.     N/A                                      :   LOCATION
 PROV.    N/A                                      :   PROVINCE
 SRVC.    N/A                                      :   SERVICE COMPANY NAME
 DATE.    15 Dec 08                                :   DATE
 UWI.     N/A                                      :   UNIQUE WELL IDENTIFIER
~PARAMETER INFORMATION
#MNEMO.UNIT         VALUE                 DESCRIPTION OF MNEMONIC
#------------------------------------------------------------------------------
~OTHER INFORMATION SECTION
#------------------------------------------------------------------------------
 TCDS 1365
 15,12,2008
~CURVE INFORMATION
#MNEMO.UNIT         API CODE              CURVE DESCRIPTION
#------------------------------------------------------------------------------
 DEPTH.M                                 :   0     Depth
 COND.uS/cm                              :   1     Conductivity@25DegC
 COND.uS/cm                              :   2     Absolute Conductivity
 TEMP.DegC                               :   3     Temperature
 DELT.DegC                               :   4     Delta T
 DELC.uS/cm                              :   5     Delta C
 NGAM.CPS                                :   6     Natural Gamma
#------------------------------------------------------------------------------
~A  DEPTH          COND          COND          TEMP          DELT          DELC          NGAM
# ...
    43.06       2323.78       1710.98         11.81          0.00         -0.08          1.24
    43.07       2324.27       1711.40         11.82          0.00          0.98          1.24
    43.08       2323.70       1710.98         11.82          0.00         -0.17          1.24
    43.09       2324.27       1711.40         11.82          0.00          0.95          1.65
    43.10       2324.33       1711.40         11.81          0.00          0.38          2.06
    43.11       2323.84       1710.98         11.81          0.00          0.41          2.06
    43.12       2324.41       1711.40         11.81          0.00          0.41          2.06
    43.13       2324.93       1711.82         11.81          0.00          1.49          1.65
    43.14       2324.35       1711.40         11.81          0.00          0.32          1.65
    43.15       2323.73       1710.98         11.82          0.01          0.24          1.65
    43.16       2324.27       1711.40         11.82          0.01          0.16          1.65
    43.17       2323.75       1710.98         11.81          0.01         -0.44          1.65
    43.18       2323.24       1710.55         11.81          0.01         -0.96          1.65
    43.19       2323.86       1710.98         11.81          0.01         -0.33          1.65
    43.20       2323.32       1710.55         11.81          0.01         -1.48          0.82
    43.21       2323.32       1710.55         11.81          0.00         -0.88          0.82
    43.22       2323.21       1710.55         11.81          0.01         -1.56          0.82
    43.23       2323.18       1710.55         11.81          0.01         -1.56          0.82
    43.24       2322.58       1710.13         11.82          0.01         -2.05          0.82
    43.25       2327.13       1713.51         11.82          0.00          2.64          0.82
    43.26       2327.73       1713.93         11.82          0.00          3.41          0.41
    43.27       2327.19       1713.51         11.81         -0.00          3.57          0.00
    43.28       2327.22       1713.51         11.81         -0.01          3.77          0.41
    43.29       2327.76       1713.93         11.81         -0.01          4.42          0.41
    43.30       2327.13       1713.51         11.82         -0.01          3.88          0.41
    43.31       2327.65       1713.93         11.82         -0.01          4.48          0.41
    43.32       2326.97       1713.51         11.82         -0.01          3.82          0.76
    43.33       2327.57       1713.93         11.82         -0.01          4.51          0.76
    43.34       2327.00       1713.51         11.82         -0.01          4.56          0.76
    43.35       2327.57       1713.93         11.82         -0.01          4.53          0.76
    43.36       2323.04       1710.55         11.82         -0.01          0.58          0.76
    43.37       2323.07       1710.55         11.82         -0.01         -0.05          0.76
    43.38       2323.07       1710.55         11.82         -0.01         -0.62          0.76
    43.39       2323.64       1710.98         11.82         -0.01          0.53          0.76
    43.40       2323.07       1710.55         11.82         -0.01         -0.62          1.18
    43.41       2323.04       1710.55         11.82         -0.01         -0.07          1.53
    43.42       2323.07       1710.55         11.82         -0.01         -0.10          1.53
    43.43       2323.64       1710.98         11.82         -0.01          0.53          1.53
    43.44       2323.04       1710.55         11.82         -0.01         -0.10          1.53
    43.45       2327.60       1713.93         11.82         -0.01          3.93          1.53
    43.46       2324.14       1711.40         11.82         -0.01          1.13          1.53
    43.47       2328.72       1714.77         11.82         -0.01          5.17          1.53
    43.48       2328.72       1714.77         11.82         -0.01          5.85          1.53
    43.49       2328.75       1714.77         11.82         -0.01          5.85          1.18
    43.50       2328.75       1714.77         11.82         -0.01          5.79          1.53
    43.51       2329.35       1715.19         11.82         -0.01          6.23          1.94
    43.52       2329.46       1715.19         11.82         -0.01          5.63          1.94
    43.53       2329.48       1715.19         11.81         -0.01          6.17          1.94
    43.54       2329.54       1715.19         11.81         -0.01          5.55          1.94
    43.55       2326.76       1713.09         11.81         -0.01          3.23          1.94
    43.56       2326.82       1713.09         11.81         -0.00          3.09          1.94
    43.57       2330.36       1715.62         11.81         -0.00          6.50          1.53
    43.58       2326.38       1712.66         11.81         -0.00          2.38          1.18
    43.59       2325.78       1712.24         11.81          0.00          1.67          1.18
    43.60       2326.27       1712.66         11.81          0.00          2.13          1.18
    43.61       2325.61       1712.24         11.81          0.00          4.33          1.18
    43.62       2324.96       1711.82         11.81          0.00         -0.22          0.76
    43.63       2325.36       1712.24         11.82          0.00          3.78          0.76
    43.64       2325.31       1712.24         11.82          0.00          3.29          0.76
    43.65       2324.68       1711.82         11.82          0.00          3.29          1.12
    43.66       2324.57       1711.82         11.82          0.00          2.66          1.12
    43.67       2320.54       1708.87         11.82          0.00         -1.29          0.76
    43.68       2319.85       1708.45         11.82          0.00         -2.03          0.35
    43.69       2319.74       1708.45         11.82          0.01         -2.14          0.35
    43.70       2320.29       1708.87         11.82          0.01         -1.59          0.35
    43.71       2319.69       1708.45         11.82          0.01         -1.65          0.35
    43.72       2320.20       1708.87         11.83          0.01         -4.56          0.35
    43.73       2320.18       1708.87         11.83          0.01         -0.01          0.76
    43.74       2320.18       1708.87         11.83          0.01         -3.58          0.76
    43.75       2320.15       1708.87         11.83          0.01         -3.14          0.76
    43.76       2320.15       1708.87         11.83          0.01         -3.80          0.76
    43.77       2323.61       1711.40         11.83          0.02          0.17          0.76
    43.78       2320.18       1708.87         11.83          0.01         -3.23          0.76
    43.79       2320.23       1708.87         11.83          0.01         -3.09          0.76
    43.80       2320.31       1708.87         11.82          0.01         -2.98          0.76
    43.81       2320.37       1708.87         11.82          0.01         -2.90          0.76
    43.82       2320.40       1708.87         11.82          0.01         -3.47          0.41
    43.83       2320.40       1708.87         11.82          0.01         -2.98          0.41
    43.84       2320.91       1709.29         11.82          0.01         -3.09          0.41
    43.85       2320.31       1708.87         11.82          0.01         -3.12          0.41
    43.86       2320.26       1708.87         11.82          0.01         -3.77          0.41
    43.87       2320.26       1708.87         11.82          0.01         -3.17          0.82
    43.88       2316.86       1706.34         11.82          0.01         -7.12          0.82
    43.89       2319.69       1708.45         11.82          0.01         -4.34          1.65
    43.90       2320.26       1708.87         11.82          0.01         -3.80          1.24
    43.91       2319.60       1708.45         11.83          0.02         -3.88          1.24
