#Written by Robertson Geologging WinLogger V1.5/410
~VERSION INFORMATION
#------------------------------------------------------------------------------
 VERS. 2.0 : CWLS LOG ASCII STANDARD - VERSION 2.0
 WRAP. NO  : ONE LINE PER DEPTH STEP
~WELL INFORMATION
#MNEM.UNIT         DATA                                DESCRIPTION OF MNEMONIC
#------------------------------------------------------------------------------
 STRT.M          2.0200                            :   START DEPTH
 STOP.M         91.0000                            :   STOP DEPTH
 STEP.M          0.0100                            :   STEP VALUE
 NULL.        -999.2500                            :   NULL VALUE
 COMP.    IWS                                      :   COMPANY NAME
 WELL.    LADYSMITH                                :   WELL NAME
 FLD.     DURHAM                                   :   FIELD NAME
 LOC.     N/A                                      :   LOCATION
 PROV.    N/A                                      :   PROVINCE
 SRVC.    N/A                                      :   SERVICE COMPANY NAME
 DATE.    16 Dec 09                                :   DATE
 UWI.     N/A                                      :   UNIQUE WELL IDENTIFIER
~PARAMETER INFORMATION
#MNEMO.UNIT         VALUE                 DESCRIPTION OF MNEMONIC
#------------------------------------------------------------------------------
~OTHER INFORMATION SECTION
#------------------------------------------------------------------------------
 TCDS 1365
~CURVE INFORMATION
#MNEMO.UNIT         API CODE              CURVE DESCRIPTION
#------------------------------------------------------------------------------
 DEPTH.M                                 :   0     Depth
 TEMP.DegC                               :   1     Temperature
 COND.uS/cm                              :   2     Conductivity@25DegC
 COND.uS/cm                              :   3     Absolute Conductivity
 DELT.DegC                               :   4     Delta T
 DELC.uS/cm                              :   5     Delta C
#------------------------------------------------------------------------------
~A  DEPTH          TEMP          COND          COND          DELT          DELC
# ...
    84.02         11.81       2217.71       1632.78          0.00         -0.21
    84.03         11.81       2213.10       1629.42          0.01         -4.36
    84.04         11.81       2217.60       1632.78          0.01         -0.01
    84.05         11.81       2217.60       1632.78          0.01          5.07
    84.06         11.81       2213.05       1629.42          0.01         -4.62
    84.07         11.81       2218.23       1633.20          0.01          0.59
    84.08         11.81       2213.67       1629.84          0.01          0.69
    84.09         11.81       2218.20       1633.20          0.01          0.69
    84.10         11.81       2218.12       1633.20          0.01          0.64
    84.11         11.82       2213.48       1629.84          0.01         -3.40
    84.12         11.82       2217.96       1633.20          0.01          1.10
    84.13         11.82       2217.94       1633.20          0.01          6.26
    84.14         11.82       2217.39       1632.78          0.01          0.69
    84.15         11.82       2217.37       1632.78          0.01          0.77
    84.16         11.82       2212.84       1629.42          0.00         -4.20
    84.17         11.82       2217.37       1632.78          0.00          0.49
    84.18         11.82       2217.29       1632.78          0.00          5.13
    84.19         11.82       2217.23       1632.78         -0.00          0.65
    84.20         11.82       2217.23       1632.78         -0.00          0.70
    84.21         11.82       2212.19       1629.00         -0.00          0.21
    84.22         11.82       2216.80       1632.36         -0.00         -0.33
    84.23         11.82       2216.90       1632.36         -0.00         -0.31
    84.24         11.82       2212.32       1629.00         -0.00         -4.92
    84.25         11.82       2217.39       1632.78         -0.00          0.13
    84.26         11.82       2212.86       1629.42         -0.00          0.73
    84.27         11.82       2217.37       1632.78         -0.00          0.60
    84.28         11.82       2217.39       1632.78          0.00          0.49
    84.29         11.82       2212.37       1629.00          0.00         -4.64
    84.30         11.81       2217.06       1632.36          0.00         -0.08
    84.31         11.81       2212.58       1629.00          0.00          0.57
    84.32         11.81       2217.76       1632.78         -0.00          1.22
    84.33         11.81       2217.79       1632.78         -0.00          1.24
    84.34         11.81       2213.23       1629.42         -0.00          1.24
    84.35         11.81       2217.84       1632.78         -0.00          0.70
    84.36         11.81       2217.89       1632.78         -0.00          5.34
    84.37         11.81       2217.32       1632.36         -0.00         -0.36
    84.38         11.81       2217.30       1632.36         -0.00         -0.36
    84.39         11.81       2212.74       1629.00         -0.00          0.16
    84.40         11.81       2217.84       1632.78         -0.00          0.60
    84.41         11.81       2217.76       1632.78          0.00          5.02
    84.42         11.81       2217.66       1632.78          0.00         -0.29
    84.43         11.82       2217.52       1632.78          0.01         -0.42
    84.44         11.82       2212.29       1629.00          0.01         -1.07
    84.45         11.82       2216.80       1632.36          0.01         -1.07
    84.46         11.82       2216.82       1632.36          0.01         -1.04
    84.47         11.82       2212.35       1629.00          0.01         -5.60
    84.48         11.82       2217.52       1632.78          0.01         -0.50
    84.49         11.81       2217.60       1632.78          0.01          4.65
    84.50         11.81       2217.63       1632.78          0.01         -0.37
    84.51         11.81       2217.63       1632.78          0.00         -0.21
    84.52         11.81       2213.10       1629.42          0.00         -4.61
    84.53         11.81       2217.68       1632.78         -0.00          0.08
    84.54         11.81       2217.76       1632.78         -0.00          4.79
    84.55         11.81       2217.79       1632.78         -0.01          0.32
    84.56         11.81       2217.81       1632.78         -0.01          0.39
    84.57         11.81       2213.26       1629.42         -0.01          1.04
    84.58         11.81       2217.76       1632.78         -0.01          1.02
    84.59         11.81       2217.76       1632.78         -0.01          5.65
    84.60         11.81       2213.23       1629.42         -0.01         -3.93
    84.61         11.81       2217.84       1632.78         -0.01          0.71
    84.62         11.81       2213.34       1629.42         -0.01          0.74
    84.63         11.81       2217.95       1632.78         -0.01          0.71
    84.64         11.81       2218.00       1632.78         -0.01          5.76
    84.65         11.81       2213.49       1629.42         -0.01         -3.49
    84.66         11.80       2218.73       1633.20         -0.01          1.64
    84.67         11.80       2218.73       1633.20         -0.01          6.12
    84.68         11.80       2218.75       1633.20         -0.01          0.94
    84.69         11.80       2218.75       1633.20         -0.01          5.55
    84.70         11.80       2214.19       1629.84         -0.01         -3.54
    84.71         11.80       2218.80       1633.20         -0.01          1.07
    84.72         11.80       2218.83       1633.20         -0.01          6.22
    84.73         11.80       2218.83       1633.20         -0.01          1.61
    84.74         11.80       2218.83       1633.20         -0.01          6.20
    84.75         11.80       2214.25       1629.84         -0.01         -3.43
    84.76         11.81       2218.70       1633.20         -0.01          1.15
    84.77         11.81       2218.59       1633.20         -0.01          5.65
    84.78         11.81       2213.98       1629.84         -0.01         -3.49
    84.79         11.81       2218.44       1633.20         -0.01          1.02
    84.80         11.81       2218.36       1633.20         -0.01          0.89
    84.81         11.81       2217.71       1632.78         -0.00          0.18
    84.82         11.81       2217.58       1632.78          0.00          4.53
    84.83         11.82       2212.92       1629.42          0.00         -5.34
    84.84         11.82       2217.44       1632.78          0.00         -0.81
    84.85         11.82       2217.42       1632.78          0.00         -0.86
    84.86         11.82       2217.44       1632.78          0.00         -0.86
    84.87         11.82       2217.50       1632.78          0.00          4.27
    84.88         11.82       2217.52       1632.78          0.00         -0.29
    84.89         11.82       2217.50       1632.78          0.01         -0.34
    84.90         11.82       2217.50       1632.78          0.01          4.11
    84.91         11.82       2212.40       1629.00          0.01         -5.57
    84.92         11.82       2217.50       1632.78          0.01          4.03
    84.93         11.82       2217.47       1632.78          0.01         -0.53
    84.94         11.82       2217.44       1632.78          0.01         -0.47
    84.95         11.82       2217.34       1632.78          0.01          4.63
    84.96         11.82       2212.65       1629.42          0.01         -4.57
    84.97         11.82       2217.08       1632.78          0.01          4.44
    84.98         11.82       2217.00       1632.78          0.01         -0.74
    84.99         11.82       2212.42       1629.42          0.01         -5.34
    85.00         11.82       2217.08       1632.78          0.01          3.87
    85.01         11.82       2212.55       1629.42          0.01         -5.16
