#Written by Robertson Geologging WinLogger V1.0/406
~VERSION INFORMATION
#------------------------------------------------------------------------------
 VERS. 2.0 : CWLS LOG ASCII STANDARD - VERSION 2.0
 WRAP. NO  : ONE LINE PER DEPTH STEP
~WELL INFORMATION
#MNEM.UNIT         DATA                                DESCRIPTION OF MNEMONIC
#------------------------------------------------------------------------------
 STRT.M          0.0600                            :   START DEPTH
 STOP.M         95.0200                            :   STOP DEPTH
 STEP.M          0.0100                            :   STEP VALUE
 NULL.        -999.2500                            :   NULL VALUE
 COMP.    Coal Authority                           :   COMPANY NAME
 WELL.    Ladysmith Shaft                          :   WELL NAME
 FLD.     Ladysmith                                :   FIELD NAME
 LOC.     N/A                                      :   LOCATION
 PROV.    N/A                                      :   PROVINCE
 SRVC.    N/A                                      :   SERVICE COMPANY NAME
 DATE.    20 May 08                                :   DATE
 UWI.     N/A                                      :   UNIQUE WELL IDENTIFIER
~PARAMETER INFORMATION
#MNEMO.UNIT         VALUE                 DESCRIPTION OF MNEMONIC
#------------------------------------------------------------------------------
~OTHER INFORMATION SECTION
#------------------------------------------------------------------------------
 TCDS 1365
~CURVE INFORMATION
#MNEMO.UNIT         API CODE              CURVE DESCRIPTION
#------------------------------------------------------------------------------
 DEPTH.M                                 :   0     Depth
 TEMP.DegC                               :   1     Temperature
 COND.uS/cm                              :   2     Absolute Conductivity
 COND.uS/cm                              :   3     Conductivity@25DegC
 DELT.DegC                               :   4     Delta T
 DELC.uS/cm                              :   5     Delta C
#------------------------------------------------------------------------------
~A  DEPTH     TEMP      COND      COND      DELT      DELC      
# ...
    50.22     12.02   1744.77   2356.32     -0.01     10.69 
    50.23     12.03   1737.53   2346.24     -0.02     -4.88 
    50.24     12.03   1744.77   2356.01     -0.01      6.72 
    50.25     12.03   1737.53   2346.24     -0.00      0.31 
    50.26     12.04   1737.53   2345.32      0.01    -10.69 
    50.27     12.03   1744.77   2355.70      0.00      9.47 
    50.28     12.04   1737.53   2345.32      0.00     -0.31 
    50.29     12.04   1740.25   2349.29      0.00     -6.41 
    50.30     12.04   1737.53   2345.62      0.01     -0.61 
    50.31     12.05   1744.77   2354.78      0.02     -1.53 
    50.32     12.04   1737.53   2345.32      0.01     -0.92 
    50.33     12.03   1744.77   2356.01     -0.01     10.39 
    50.34     12.03   1737.53   2346.24     -0.02     -8.55 
    50.35     12.02   1737.53   2346.54     -0.02      1.53 
    50.36     12.02   1744.77   2356.62     -0.02     11.31 
    50.37     12.03   1737.53   2346.24     -0.01     -9.16 
    50.38     12.02   1737.53   2346.54     -0.01      0.61 
    50.39     12.02   1744.77   2356.62     -0.00     10.08 
    50.40     12.02   1737.53   2346.85     -0.00     -9.47 
    50.41     12.02   1744.77   2356.32     -0.01     10.39 
    50.42     12.03   1737.53   2346.24     -0.01      0.92 
    50.43     12.03   1737.53   2346.24     -0.02     -8.55 
    50.44     12.04   1744.77   2355.40     -0.01      6.72 
    50.45     12.03   1740.25   2349.90     -0.01      4.28 
    50.46     12.03   1742.06   2352.34     -0.00     -3.36 
    50.47     12.03   1740.25   2349.59      0.00      3.36 
    50.48     12.03   1737.53   2345.93     -0.00      0.31 
    50.49     12.04   1737.53   2345.62     -0.00     -9.47 
    50.50     12.04   1744.77   2355.40     -0.00     10.08 
    50.51     12.04   1737.53   2345.32     -0.00     -3.36 
    50.52     12.04   1737.53   2345.62     -0.00      0.31 
    50.53     12.04   1744.77   2355.09      0.00     -0.31 
    50.54     12.03   1737.53   2345.93     -0.00      0.31 
    50.55     12.03   1744.77   2355.70      0.00      9.77 
    50.56     12.04   1737.53   2345.32      0.01    -10.39 
    50.57     12.05   1744.77   2354.78      0.02      8.55 
    50.58     12.05   1737.53   2345.01      0.02    -11.31 
    50.59     12.06   1737.53   2344.40      0.04     -2.45 
    50.60     12.05   1744.77   2354.48      0.03      7.63 
    50.61     12.05   1737.53   2344.71      0.02    -11.00 
    50.62     12.06   1744.77   2354.17      0.02      8.55 
    50.63     12.05   1740.25   2348.68      0.00      3.36 
    50.64     12.05   1737.53   2345.01      0.01    -10.38 
    50.65     12.04   1737.53   2345.62      0.00      0.00 
    50.66     12.02   1744.77   2356.32     -0.02      1.53 
    50.67     12.02   1737.53   2346.54     -0.02      1.22 
    50.68     12.01   1744.77   2356.93     -0.04     12.22 
    50.69     12.02   1737.53   2346.85     -0.02     -8.24 
    50.70     12.03   1737.53   2345.93     -0.01      0.61 
    50.71     12.05   1744.77   2354.78      0.01     -0.61 
    50.72     12.05   1737.53   2345.01      0.02     -1.22 
    50.73     12.05   1740.25   2348.37      0.03      1.83 
    50.74     12.06   1744.77   2354.17      0.04     -2.46 
    50.75     12.04   1737.53   2345.32      0.02     -1.53 
    50.76     12.05   1737.53   2344.71      0.02     -1.53 
    50.77     12.05   1744.77   2354.78      0.01     -0.92 
    50.78     12.05   1737.53   2345.01      0.02     -1.22 
    50.79     12.05   1737.53   2344.71      0.02    -11.00 
    50.80     12.04   1740.25   2348.98      0.01      2.75 
    50.81     12.04   1744.77   2355.09      0.01      8.85 
    50.82     12.03   1737.53   2346.24     -0.00     -9.47 
    50.83     12.02   1744.77   2356.32     -0.01     10.39 
    50.84     12.02   1737.53   2346.54     -0.01      0.92 
    50.85     12.03   1737.53   2346.24     -0.01     -9.16 
    50.86     12.03   1744.77   2355.70      0.00      5.80 
    50.87     12.04   1737.53   2345.62      0.01     -0.61 
    50.88     12.04   1744.77   2355.09      0.02     -1.54 
    50.89     12.03   1737.53   2345.93      0.02     -1.22 
    50.90     12.03   1737.53   2346.24      0.00     -0.31 
    50.91     12.02   1744.77   2356.32     -0.00      0.31 
    50.92     12.02   1737.53   2346.85     -0.02      1.22 
    50.93     12.02   1744.77   2356.32     -0.02      1.23 
    50.94     12.04   1737.53   2345.62     -0.00      0.31 
    50.95     12.04   1737.53   2345.62      0.00     -3.66 
    50.96     12.05   1744.77   2354.78      0.01      8.85 
    50.97     12.05   1737.53   2344.71      0.02    -11.00 
    50.98     12.05   1744.77   2354.48      0.02      8.55 
    50.99     12.06   1737.53   2344.10      0.03     -1.83 
    51.00     12.05   1737.53   2345.01      0.02    -11.00 
    51.01     12.05   1744.77   2354.48      0.01      8.85 
    51.02     12.05   1737.53   2345.01      0.01     -0.92 
    51.03     12.03   1744.77   2355.70     -0.01      0.61 
    51.04     12.03   1737.53   2346.24     -0.01     -2.75 
    51.05     12.03   1737.53   2346.24     -0.01      0.92 
    51.06     12.03   1744.77   2355.70      0.00     -0.31 
    51.07     12.05   1737.53   2344.71      0.03     -1.83 
    51.08     12.05   1744.77   2354.78      0.02      8.24 
    51.09     12.04   1737.53   2345.32      0.01    -10.69 
    51.10     12.05   1744.77   2354.78      0.00      9.46 
    51.11     12.03   1737.53   2345.93     -0.02      1.22 
    51.12     12.05   1737.53   2344.71      0.00     -9.77 
    51.13     12.05   1744.77   2354.48      0.00      9.46 
    51.14     12.05   1737.53   2344.71      0.01     -4.28 
    51.15     12.06   1740.25   2348.06      0.03     -8.25 
    51.16     12.05   1744.77   2354.48      0.03      7.63 
    51.17     12.05   1737.53   2345.01      0.03     -1.83 
    51.18     12.05   1744.77   2354.78      0.02     -1.53 
    51.19     12.04   1737.53   2345.32      0.02     -1.22 
    51.20     12.05   1744.77   2354.48      0.02      8.24 
    51.21     12.05   1729.39   2333.72      0.03    -22.60 
    51.22     12.05   1737.53   2344.71      0.02     -1.53 
    51.23     12.05   1744.77   2354.48      0.02     -1.53 
    51.24     12.05   1737.53   2344.71      0.02     -1.53 
    51.25     12.06   1744.77   2353.86      0.02      8.54 
    51.26     12.07   1737.53   2343.79      0.03    -11.91 
    51.27     12.05   1740.25   2348.37      0.01      3.05 
    51.28     12.03   1744.77   2355.70     -0.00      6.41 
    51.29     12.03   1737.53   2346.24     -0.01      0.61 
    51.30     12.01   1744.77   2356.93     -0.03      2.15 
    51.31     12.03   1737.53   2346.24     -0.01      0.92 
    51.32     12.03   1744.77   2355.70      0.00     -0.31 
    51.33     12.03   1737.53   2346.24      0.00      0.00 
    51.34     12.04   1737.53   2345.32      0.02     -1.22 
    51.35     12.05   1744.77   2354.48      0.03     -2.15 
    51.36     12.06   1737.53   2344.10      0.03     -2.14 
    51.37     12.06   1740.25   2347.76      0.04      1.22 
    51.38     12.05   1744.77   2354.78      0.03     -1.84 
    51.39     12.04   1737.53   2345.32      0.02     -1.53 
    51.40     12.02   1744.77   2356.32      0.00      0.00 
    51.41     12.02   1737.53   2346.85     -0.01      0.61 
    51.42     12.03   1737.53   2346.24      0.00      0.00 
    51.43     12.03   1744.77   2355.70     -0.00      0.31 
    51.44     12.04   1740.25   2349.29      0.01     -0.61 
    51.45     12.04   1737.53   2345.32      0.01     -7.03 
    51.46     12.04   1744.77   2355.09      0.01      5.49 
    51.47     12.03   1737.53   2345.93      0.00      0.00 
    51.48     12.02   1744.77   2356.32     -0.01     10.69 
    51.49     12.03   1737.53   2346.24     -0.01     -9.16 
    51.50     12.03   1744.77   2356.01     -0.01     10.69 
    51.51     12.04   1737.53   2345.62      0.00      0.00 
    51.52     12.06   1744.77   2354.17      0.01     -0.92 
    51.53     12.05   1740.25   2348.68      0.01      2.75 
