#Written by Robertson Geologging WinLogger V1.0/406
~VERSION INFORMATION
#------------------------------------------------------------------------------
 VERS. 2.0 : CWLS LOG ASCII STANDARD - VERSION 2.0
 WRAP. NO  : ONE LINE PER DEPTH STEP
~WELL INFORMATION
#MNEM.UNIT         DATA                                DESCRIPTION OF MNEMONIC
#------------------------------------------------------------------------------
 STRT.M          0.0600                            :   START DEPTH
 STOP.M         95.0200                            :   STOP DEPTH
 STEP.M          0.0100                            :   STEP VALUE
 NULL.        -999.2500                            :   NULL VALUE
 COMP.    Coal Authority                           :   COMPANY NAME
 WELL.    Ladysmith Shaft                          :   WELL NAME
 FLD.     Ladysmith                                :   FIELD NAME
 LOC.     N/A                                      :   LOCATION
 PROV.    N/A                                      :   PROVINCE
 SRVC.    N/A                                      :   SERVICE COMPANY NAME
 DATE.    20 May 08                                :   DATE
 UWI.     N/A                                      :   UNIQUE WELL IDENTIFIER
~PARAMETER INFORMATION
#MNEMO.UNIT         VALUE                 DESCRIPTION OF MNEMONIC
#------------------------------------------------------------------------------
~OTHER INFORMATION SECTION
#------------------------------------------------------------------------------
 TCDS 1365
~CURVE INFORMATION
#MNEMO.UNIT         API CODE              CURVE DESCRIPTION
#------------------------------------------------------------------------------
 DEPTH.M                                 :   0     Depth
 TEMP.DegC                               :   1     Temperature
 COND.uS/cm                              :   2     Absolute Conductivity
 COND.uS/cm                              :   3     Conductivity@25DegC
 DELT.DegC                               :   4     Delta T
 DELC.uS/cm                              :   5     Delta C
#------------------------------------------------------------------------------
~A  DEPTH     TEMP      COND      COND      DELT      DELC      
     0.06     15.69    142.49    175.09      0.00      0.00 
     0.07     15.70    142.49    175.07      0.00      0.00 
     0.08     15.69    142.49    175.11      0.00      0.00 
     0.09     15.68    142.49    175.15      0.00      0.00 
     0.10     15.68    142.49    175.15      0.00      0.00 
     0.11     15.68    142.49    175.15      0.00      0.00 
     0.12     15.67    142.49    175.17      0.00      0.00 
     0.13     15.67    134.46    165.30      0.00      0.00 
     0.14     15.69    142.49    175.11      0.00      0.00 
     0.15     15.68    142.49    175.13      0.00      0.00 
     0.16     15.68    142.49    175.13      0.00      0.00 
     0.17     15.69    142.49    175.11      0.00      0.00 
     0.18     15.69    142.49    175.11      0.00      0.00 
     0.19     15.68    142.49    175.15      0.00      0.00 
     0.20     15.68    142.49    175.15      0.00      0.00 
     0.21     15.68    142.49    175.13      0.00      0.00 
     0.22     15.68    142.49    175.15      0.00      0.00 
     0.23     15.69    142.49    175.09      0.00      0.00 
     0.24     15.70    142.49    175.05      0.00      0.00 
     0.25     15.71    142.49    175.02      0.00      0.00 
     0.26     15.71    142.49    175.02      0.00      0.00 
     0.27     15.71    142.49    175.02      0.00      0.00 
     0.28     15.71    142.49    175.02      0.00      0.00 
     0.29     15.70    133.57    164.08      0.00      0.00 
     0.30     15.70    142.49    175.07      0.00      0.00 
     0.31     15.70    142.49    175.07      0.00      0.00 
     0.32     15.69    142.49    175.09      0.00      0.00 
     0.33     15.69    142.49    175.09      0.00      0.00 
     0.34     15.69    142.49    175.09      0.00      0.00 
     0.35     15.70    142.49    175.05      0.00      0.00 
     0.36     15.70    142.49    175.07      0.00      0.00 
     0.37     15.69    142.49    175.09      0.00      0.00 
     0.38     15.70    142.49    175.07      0.00      0.00 
     0.39     15.68    142.49    175.13      0.00      0.00 
     0.40     15.69    142.49    175.11      0.00      0.00 
     0.41     15.69    142.49    175.11      0.00      0.00 
     0.42     15.68    142.49    175.13      0.00      0.00 
     0.43     15.68    142.49    175.13      0.00      0.00 
     0.44     15.68    142.49    175.13      0.00      0.00 
     0.45     15.68    134.46    165.28      0.00      0.00 
     0.46     15.68    142.49    175.13      0.00      0.00 
     0.47     15.69    142.49    175.09      0.00      0.00 
     0.48     15.70    142.49    175.05      0.00      0.00 
     0.49     15.71    142.49    175.02      0.00      0.00 
     0.50     15.71    142.49    175.02      0.00      0.00 
     0.51     15.70    142.49    175.07      0.00      0.00 
     0.52     15.70    142.49    175.07      0.00      0.00 
     0.53     15.70    142.49    175.05      0.00      0.00 
     0.54     15.70    142.49    175.07      0.00      0.00 
     0.55     15.71    142.49    175.02      0.00      0.00 
     0.56     15.70    142.49    175.05      0.00      0.00 
     0.57     15.71    142.49    175.02      0.00      0.00 
     0.58     15.70    142.49    175.05      0.00      0.00 
     0.59     15.71    142.49    175.00      0.00      0.00 
     0.60     15.72    134.46    165.10      0.00      0.00 
     0.61     15.72    142.49    174.98      0.00      0.00 
     0.62     15.73    142.49    174.90      0.00      0.00 
     0.63     15.72    142.49    174.96      0.00      0.00 
     0.64     15.71    142.49    175.00      0.00      0.00 
     0.65     15.72    142.49    174.98      0.00      0.00 
     0.66     15.71    142.49    175.02      0.00      0.00 
     0.67     15.72    142.49    174.98      0.00      0.00 
     0.68     15.72    142.49    174.96      0.00      0.00 
     0.69     15.72    142.49    174.96      0.00      0.00 
     0.70     15.71    142.49    175.00      0.00      0.00 
     0.71     15.71    142.49    175.02      0.00      0.00 
     0.72     15.70    142.49    175.07      0.00      0.00 
     0.73     15.70    142.49    175.07      0.00      0.00 
     0.74     15.70    142.49    175.07      0.00      0.00 
     0.75     15.68    142.49    175.13      0.00      0.00 
     0.76     15.69    134.46    165.24      0.00      0.00 
     0.77     15.69    142.49    175.11      0.00      0.00 
     0.78     15.70    142.49    175.07      0.00      0.00 
     0.79     15.71    142.49    175.00      0.00      0.00 
     0.80     15.70    142.49    175.07      0.00      0.00 
     0.81     15.68    142.49    175.13     -0.01      8.83 
     0.82     15.68    142.49    175.15     -0.01      0.06 
     0.83     15.68    142.49    175.15      0.00      0.00 
     0.84     15.69    142.49    175.11      0.01     -0.06 
     0.85     15.71    142.49    175.02      0.03     -0.15 
     0.86     15.71    142.49    175.02      0.04     -0.17 
     0.87     15.71    142.49    175.02      0.03     -0.15 
     0.88     15.72    142.49    174.98      0.04     -0.19 
     0.89     15.73    138.03    169.42      0.06     -5.73 
     0.90     15.74    142.49    174.88      0.05     -0.23 
     0.91     15.73    142.49    174.90      0.04     -0.19 
     0.92     15.73    142.49    174.94      0.02     -0.08 
     0.93     15.69    142.49    175.09     -0.00      0.02 
     0.94     15.69    142.49    175.11     -0.00      0.02 
     0.95     15.69    142.49    175.09      0.00     -0.02 
     0.96     15.70    142.49    175.05      0.02      9.77 
     0.97     15.71    142.49    175.00      0.03     -0.15 
     0.98     15.71    142.49    175.00      0.04     -0.17 
     0.99     15.71    142.49    175.00      0.04     -0.17 
     1.00     15.71    142.49    175.02      0.03     -0.12 
     1.01     15.70    134.46    165.18      0.03     -9.99 
     1.02     15.70    142.49    175.07      0.01     -0.06 
     1.03     15.69    142.49    175.11     -0.00      0.02 
     1.04     15.70    142.49    175.07      0.00      0.00 
     1.05     15.70    142.49    175.07      0.00     -0.02 
     1.06     15.69    142.49    175.11     -0.01      0.04 
     1.07     15.69    142.49    175.11      0.00      0.00 
     1.08     15.69    142.49    175.11      0.01     -0.04 
     1.09     15.69    142.49    175.11      0.01     -0.04 
     1.10     15.69    142.49    175.09      0.01     -0.06 
     1.11     15.69    142.49    175.11      0.01     -0.06 
     1.12     15.68    142.49    175.15      0.00      9.85 
     1.13     15.67    142.49    175.17     -0.01      0.06 
     1.14     15.68    142.49    175.13      0.00      0.00 
     1.15     15.69    142.49    175.11      0.00     -0.02 
     1.16     15.69    134.46    165.22      0.00     -9.89 
     1.17     15.71    142.49    175.00      0.02     -0.10 
     1.18     15.70    142.49    175.05      0.02     -0.10 
     1.19     15.71    142.49    175.02      0.03     -0.12 
     1.20     15.70    142.49    175.07      0.01     -0.06 
     1.21     15.69    142.49    175.11      0.01     -0.04 
     1.22     15.69    142.49    175.09      0.00      0.00 
     1.23     15.69    142.49    175.11     -0.01      0.06 
     1.24     15.69    142.49    175.09     -0.01      0.06 
     1.25     15.69    142.49    175.09     -0.01      0.06 
     1.26     15.69    142.49    175.09     -0.01      0.06 
     1.27     15.69    142.49    175.11     -0.02      0.08 
     1.28     15.70    142.49    175.07     -0.00     10.98 
     1.29     15.70    142.49    175.07      0.00      0.00 
     1.30     15.70    142.49    175.05      0.00     -0.02 
     1.31     15.71    142.49    175.00      0.02     -0.08 
     1.32     15.69    134.46    165.22      0.00     -9.87 
     1.33     15.70    142.49    175.05      0.01     -0.04 
     1.34     15.70    142.49    175.07     -0.00      0.02 
     1.35     15.70    142.49    175.07      0.00      0.00 
     1.36     15.71    142.49    175.02      0.01     -0.06 
     1.37     15.71    142.49    175.02      0.01     -0.04 
