#Written by Robertson Geologging WinLogger V1.5/410
~VERSION INFORMATION
#------------------------------------------------------------------------------
 VERS. 2.0 : CWLS LOG ASCII STANDARD - VERSION 2.0
 WRAP. NO  : ONE LINE PER DEPTH STEP
~WELL INFORMATION
#MNEM.UNIT         DATA                                DESCRIPTION OF MNEMONIC
#------------------------------------------------------------------------------
 STRT.M          2.0200                            :   START DEPTH
 STOP.M         91.0000                            :   STOP DEPTH
 STEP.M          0.0100                            :   STEP VALUE
 NULL.        -999.2500                            :   NULL VALUE
 COMP.    IWS                                      :   COMPANY NAME
 WELL.    LADYSMITH                                :   WELL NAME
 FLD.     DURHAM                                   :   FIELD NAME
 LOC.     N/A                                      :   LOCATION
 PROV.    N/A                                      :   PROVINCE
 SRVC.    N/A                                      :   SERVICE COMPANY NAME
 DATE.    16 Dec 09                                :   DATE
 UWI.     N/A                                      :   UNIQUE WELL IDENTIFIER
~PARAMETER INFORMATION
#MNEMO.UNIT         VALUE                 DESCRIPTION OF MNEMONIC
#------------------------------------------------------------------------------
~OTHER INFORMATION SECTION
#------------------------------------------------------------------------------
 TCDS 1365
~CURVE INFORMATION
#MNEMO.UNIT         API CODE              CURVE DESCRIPTION
#------------------------------------------------------------------------------
 DEPTH.M                                 :   0     Depth
 TEMP.DegC                               :   1     Temperature
 COND.uS/cm                              :   2     Conductivity@25DegC
 COND.uS/cm                              :   3     Absolute Conductivity
 DELT.DegC                               :   4     Delta T
 DELC.uS/cm                              :   5     Delta C
#------------------------------------------------------------------------------
~A  DEPTH          TEMP          COND          COND          DELT          DELC
# ...
    37.02         11.55       1786.07       1305.78         -0.00         11.10
    37.03         11.55       1788.34       1307.45         -0.01         11.74
    37.04         11.56       1785.41       1305.36         -0.01          8.92
    37.05         11.56       1789.36       1308.29         -0.01         12.95
    37.06         11.56       1787.64       1307.03         -0.01          8.94
    37.07         11.56       1785.30       1305.36         -0.01          8.92
    37.08         11.56       1785.22       1305.36         -0.01         10.57
    37.09         11.56       1783.37       1304.10         -0.00          4.63
    37.10         11.57       1787.26       1307.03          0.00         10.74
    37.11         11.57       1784.26       1304.94          0.01          7.73
    37.12         11.57       1786.47       1306.61          0.01          7.58
    37.13         11.57       1786.45       1306.61          0.01          9.78
    37.14         11.57       1784.11       1304.94          0.01          7.49
    37.15         11.57       1786.93       1307.03          0.01          8.06
    37.16         11.57       1782.86       1304.10          0.01          8.00
    37.17         11.57       1784.49       1305.36          0.01          8.02
    37.18         11.58       1786.72       1307.03          0.01         10.29
    37.19         11.58       1786.70       1307.03          0.01         10.31
    37.20         11.58       1788.44       1308.29          0.01         12.18
    37.21         11.57       1786.79       1307.03          0.00         10.67
    37.22         11.57       1786.85       1307.03          0.00         12.56
    37.23         11.57       1786.87       1307.03          0.00         10.89
    37.24         11.57       1786.87       1307.03         -0.00          6.92
    37.25         11.57       1786.83       1307.03          0.00          8.51
    37.26         11.57       1783.98       1304.94          0.00          7.83
    37.27         11.57       1786.36       1306.61          0.00          6.11
    37.28         11.57       1786.43       1306.61          0.01         10.04
    37.29         11.57       1788.25       1307.87          0.01          9.49
    37.30         11.57       1786.60       1306.61          0.00          6.09
    37.31         11.57       1786.62       1306.61          0.00          7.83
    37.32         11.57       1788.34       1307.87          0.00          5.50
    37.33         11.57       1786.58       1306.61          0.01          6.03
    37.34         11.57       1788.27       1307.87          0.01          9.47
    37.35         11.57       1788.21       1307.87          0.01          9.36
    37.36         11.57       1790.48       1309.55          0.01         13.96
    37.37         11.57       1790.46       1309.55          0.01         11.67
    37.38         11.57       1788.10       1307.87          0.01          9.29
    37.39         11.57       1790.92       1309.97          0.01          8.15
    37.40         11.57       1786.87       1307.03          0.01          4.12
    37.41         11.57       1788.55       1308.29          0.01          9.72
    37.42         11.58       1788.48       1308.29          0.02          7.85
    37.43         11.58       1786.72       1307.03          0.02         10.04
    37.44         11.58       1788.40       1308.29          0.02          9.33
    37.45         11.58       1788.33       1308.29          0.02          7.57
    37.46         11.58       1786.64       1307.03          0.02          7.68
    37.47         11.58       1788.38       1308.29          0.02          5.41
    37.48         11.58       1788.35       1308.29          0.02          7.72
    37.49         11.58       1790.65       1309.97          0.02         10.03
    37.50         11.58       1787.78       1307.87          0.02          8.87
    37.51         11.58       1791.77       1310.81          0.02         11.14
    37.52         11.58       1790.03       1309.55          0.02          7.17
    37.53         11.58       1790.07       1309.55          0.01         11.31
    37.54         11.58       1791.79       1310.81          0.01          9.12
    37.55         11.58       1787.80       1307.87          0.01          3.52
    37.56         11.58       1790.77       1309.97          0.01          8.23
    37.57         11.57       1788.53       1308.29          0.01          8.25
    37.58         11.57       1788.57       1308.29          0.01          8.30
    37.59         11.57       1791.48       1310.39          0.01          8.89
    37.60         11.57       1789.21       1308.71          0.00          6.64
    37.61         11.57       1789.23       1308.71          0.00          9.02
    37.62         11.57       1787.57       1307.45          0.00          9.13
    37.63         11.57       1789.38       1308.71         -0.00          9.21
    37.64         11.57       1789.42       1308.71         -0.00          5.22
    37.65         11.57       1787.76       1307.45         -0.00          5.22
    37.66         11.57       1791.82       1310.39          0.00         13.18
    37.67         11.57       1788.91       1308.29          0.00          8.51
    37.68         11.57       1792.88       1311.22          0.00         10.14
    37.69         11.57       1791.12       1309.97          0.00          8.38
    37.70         11.57       1788.23       1307.87          0.00          3.78
    37.71         11.57       1792.26       1310.81          0.00          9.51
    37.72         11.57       1790.52       1309.55          0.01          7.68
    37.73         11.57       1792.22       1310.81          0.01          7.57
    37.74         11.57       1792.22       1310.81          0.01          7.57
    37.75         11.57       1792.22       1310.81          0.01          9.25
    37.76         11.57       1792.24       1310.81          0.01         11.61
    37.77         11.57       1792.26       1310.81          0.01          7.70
    37.78         11.57       1792.26       1310.81          0.01          9.42
    37.79         11.57       1790.54       1309.55          0.01          6.00
    37.80         11.57       1792.26       1310.81          0.01          7.72
    37.81         11.57       1792.22       1310.81          0.01          9.38
    37.82         11.57       1790.48       1309.55          0.01          9.95
    37.83         11.57       1792.22       1310.81          0.01          7.77
    37.84         11.57       1792.20       1310.81          0.00          9.59
    37.85         11.57       1790.44       1309.55          0.00          7.89
    37.86         11.57       1790.37       1309.55          0.00          6.17
    37.87         11.57       1791.96       1310.81          0.01          7.77
    37.88         11.58       1790.14       1309.55          0.01          7.57
    37.89         11.58       1790.07       1309.55          0.01          5.77
    37.90         11.58       1791.75       1310.81          0.01          7.42
    37.91         11.58       1790.05       1309.55          0.01          9.67
    37.92         11.58       1790.09       1309.55          0.01          5.09
    37.93         11.58       1791.83       1310.81          0.01          6.79
    37.94         11.58       1790.16       1309.55          0.01          5.09
    37.95         11.58       1790.20       1309.55          0.01          5.07
    37.96         11.57       1791.94       1310.81          0.01          6.72
    37.97         11.57       1790.27       1309.55          0.02          4.94
    37.98         11.57       1790.33       1309.55          0.02          4.92
    37.99         11.57       1792.11       1310.81          0.02          2.07
    38.00         11.57       1795.06       1312.90          0.02          8.99
    38.01         11.57       1791.16       1309.97          0.01          5.09
