#Written by Robertson Geologging WinLogger V1.5/410
~VERSION INFORMATION
#------------------------------------------------------------------------------
 VERS. 2.0 : CWLS LOG ASCII STANDARD - VERSION 2.0
 WRAP. NO  : ONE LINE PER DEPTH STEP
~WELL INFORMATION
#MNEM.UNIT         DATA                                DESCRIPTION OF MNEMONIC
#------------------------------------------------------------------------------
 STRT.M          0.0600                            :   START DEPTH
 STOP.M         94.0500                            :   STOP DEPTH
 STEP.M          0.0100                            :   STEP VALUE
 NULL.        -999.2500                            :   NULL VALUE
 COMP.    Coal Authority                           :   COMPANY NAME
 WELL.    Ladysmith Shaft                          :   WELL NAME
 FLD.     N/A                                      :   FIELD NAME
 LOC.     N/A                                      :   LOCATION
 PROV.    N/A                                      :   PROVINCE
 SRVC.    N/A                                      :   SERVICE COMPANY NAME
 DATE.    15 Dec 08                                :   DATE
 UWI.     N/A                                      :   UNIQUE WELL IDENTIFIER
~PARAMETER INFORMATION
#MNEMO.UNIT         VALUE                 DESCRIPTION OF MNEMONIC
#------------------------------------------------------------------------------
~OTHER INFORMATION SECTION
#------------------------------------------------------------------------------
 TCDS 1365
 15,12,2008
~CURVE INFORMATION
#MNEMO.UNIT         API CODE              CURVE DESCRIPTION
#------------------------------------------------------------------------------
 DEPTH.M                                 :   0     Depth
 COND.uS/cm                              :   1     Conductivity@25DegC
 COND.uS/cm                              :   2     Absolute Conductivity
 TEMP.DegC                               :   3     Temperature
 DELT.DegC                               :   4     Delta T
 DELC.uS/cm                              :   5     Delta C
 NGAM.CPS                                :   6     Natural Gamma
#------------------------------------------------------------------------------
~A  DEPTH          COND          COND          TEMP          DELT          DELC          NGAM
# ...
    55.96       2307.22       1699.19         11.82         -0.00          3.13          0.71
    55.97       2310.60       1701.71         11.82         -0.00          3.51          0.71
    55.98       2306.57       1698.77         11.82          0.00          2.83          0.71
    55.99       2310.00       1701.29         11.82          0.00          2.69          0.71
    56.00       2309.48       1700.87         11.82          0.00          2.12          0.71
    56.01       2306.62       1698.77         11.82          0.00         -1.28          1.12
    56.02       2309.45       1700.87         11.82          0.00          5.04          0.76
    56.03       2309.40       1700.87         11.82          0.00          5.06          0.76
    56.04       2308.15       1700.03         11.83          0.00          0.46          0.76
    56.05       2308.04       1700.03         11.83          0.00          3.24          0.76
    56.06       2305.12       1697.93         11.83          0.00          0.33          0.76
    56.07       2307.93       1700.03         11.83          0.00          3.18          0.76
    56.08       2307.90       1700.03         11.83          0.00          2.64          0.76
    56.09       2309.01       1700.87         11.83          0.00          3.78          0.76
    56.10       2309.04       1700.87         11.83          0.00          4.38          0.76
    56.11       2305.07       1697.93         11.83          0.00          0.35          0.76
    56.12       2308.55       1700.45         11.83          0.00          3.76          0.76
    56.13       2305.81       1698.35         11.83          0.00         -1.93          0.41
    56.14       2305.94       1698.35         11.83          0.00         -1.82          0.41
    56.15       2306.05       1698.35         11.82          0.00         -1.71          0.41
    56.16       2306.11       1698.35         11.82         -0.00         -1.63          0.82
    56.17       2306.11       1698.35         11.82         -0.00         -1.03          0.82
    56.18       2303.25       1696.24         11.82         -0.00         -3.92          0.76
    56.19       2303.25       1696.24         11.82         -0.00         -3.92          0.76
    56.20       2302.19       1695.40         11.82         -0.00         -4.95          1.47
    56.21       2298.82       1692.88         11.82         -0.01         -8.21          1.82
    56.22       2303.42       1696.24         11.82         -0.01         -3.53          1.82
    56.23       2300.07       1693.72         11.82         -0.01         -6.80          1.82
    56.24       2300.07       1693.72         11.82         -0.01         -3.94          1.82
    56.25       2299.44       1693.30         11.82         -0.01         -8.00          1.82
    56.26       2300.61       1694.14         11.82         -0.01         -2.23          2.18
    56.27       2297.18       1691.61         11.82         -0.01         -9.09          2.53
    56.28       2300.64       1694.14         11.82         -0.01         -2.72          2.53
    56.29       2299.55       1693.30         11.82         -0.01         -7.21          2.53
    56.30       2299.58       1693.30         11.82         -0.01         -3.75          2.53
    56.31       2300.69       1694.14         11.82         -0.01         -5.49          2.53
    56.32       2299.50       1693.30         11.82         -0.01         -7.29          2.88
    56.33       2299.47       1693.30         11.82         -0.01         -7.34          2.47
    56.34       2299.36       1693.30         11.82         -0.01         -7.54          2.88
    56.35       2299.30       1693.30         11.82         -0.01         -6.42          3.24
    56.36       2296.42       1691.19         11.82         -0.01         -9.28          3.24
    56.37       2299.79       1693.72         11.82         -0.01         -7.02          2.53
    56.38       2299.77       1693.72         11.82         -0.01         -6.45          2.18
    56.39       2296.25       1691.19         11.82         -0.00        -10.01          2.18
    56.40       2300.14       1694.14         11.83         -0.00         -6.15          2.18
    56.41       2296.66       1691.61         11.83         -0.00        -12.52          2.18
    56.42       2296.63       1691.61         11.83         -0.00         -9.69          2.18
    56.43       2297.77       1692.45         11.83          0.00         -8.57          1.82
    56.44       2297.18       1692.03         11.83          0.00         -8.11          1.82
    56.45       2297.15       1692.03         11.83          0.00         -8.17          1.82
    56.46       2297.12       1692.03         11.83          0.00         -9.42          1.82
    56.47       2299.98       1694.14         11.83          0.01         -6.13          1.82
    56.48       2296.58       1691.61         11.83          0.01         -9.70          1.82
    56.49       2296.60       1691.61         11.83          0.01        -10.38          1.47
    56.50       2300.14       1694.14         11.83          0.01         -6.95          1.47
    56.51       2297.34       1692.03         11.83          0.01         -9.83          1.06
    56.52       2297.34       1692.03         11.83          0.01         -9.86          0.35
    56.53       2297.39       1692.03         11.82          0.01         -9.86          0.35
    56.54       2300.25       1694.14         11.82          0.01         -7.03          0.35
    56.55       2297.42       1692.03         11.82          0.01         -9.81          0.35
    56.56       2297.53       1692.03         11.82          0.01         -9.70          0.35
    56.57       2301.02       1694.56         11.82          0.01         -9.04          0.35
    56.58       2298.19       1692.45         11.82          0.01         -8.93          0.35
    56.59       2297.10       1691.61         11.82          0.00        -12.85          0.76
    56.60       2300.61       1694.14         11.82          0.00         -5.91          0.76
    56.61       2297.23       1691.61         11.82          0.00        -12.66          0.41
    56.62       2297.32       1691.61         11.82         -0.00        -11.92          0.41
    56.63       2297.37       1691.61         11.82         -0.00         -8.96          0.76
    56.64       2300.75       1694.14         11.82         -0.00         -8.93          0.76
    56.65       2296.72       1691.19         11.82         -0.00         -9.53          0.76
    56.66       2296.72       1691.19         11.82         -0.00        -13.55          0.76
    56.67       2300.12       1693.72         11.82         -0.00         -6.69          0.76
    56.68       2296.69       1691.19         11.82         -0.00        -10.67          0.76
    56.69       2295.52       1690.35         11.82         -0.00        -15.30          1.12
    56.70       2299.99       1693.72         11.82         -0.00         -7.92          1.12
    56.71       2296.45       1691.19         11.82         -0.00        -14.21          1.12
    56.72       2295.19       1690.35         11.82         -0.00        -11.97          1.12
    56.73       2298.54       1692.88         11.82          0.00         -9.17          1.12
    56.74       2297.40       1692.03         11.82          0.00        -13.17          1.12
    56.75       2293.94       1689.51         11.83          0.00        -13.22          1.12
    56.76       2298.51       1692.88         11.83          0.00        -12.03          1.06
    56.77       2297.40       1692.03         11.82         -0.00         -9.09          1.06
    56.78       2293.97       1689.51         11.82         -0.00        -15.86          1.41
    56.79       2297.48       1692.03         11.82         -0.00         -8.95          1.41
    56.80       2298.73       1692.88         11.82         -0.00         -7.81          1.06
    56.81       2295.39       1690.35         11.82         -0.00        -14.07          1.06
