#Written by Robertson Geologging WinLogger V1.0/406
~VERSION INFORMATION
#------------------------------------------------------------------------------
 VERS. 2.0 : CWLS LOG ASCII STANDARD - VERSION 2.0
 WRAP. NO  : ONE LINE PER DEPTH STEP
~WELL INFORMATION
#MNEM.UNIT         DATA                                DESCRIPTION OF MNEMONIC
#------------------------------------------------------------------------------
 STRT.M          0.0600                            :   START DEPTH
 STOP.M         95.0200                            :   STOP DEPTH
 STEP.M          0.0100                            :   STEP VALUE
 NULL.        -999.2500                            :   NULL VALUE
 COMP.    Coal Authority                           :   COMPANY NAME
 WELL.    Ladysmith Shaft                          :   WELL NAME
 FLD.     Ladysmith                                :   FIELD NAME
 LOC.     N/A                                      :   LOCATION
 PROV.    N/A                                      :   PROVINCE
 SRVC.    N/A                                      :   SERVICE COMPANY NAME
 DATE.    20 May 08                                :   DATE
 UWI.     N/A                                      :   UNIQUE WELL IDENTIFIER
~PARAMETER INFORMATION
#MNEMO.UNIT         VALUE                 DESCRIPTION OF MNEMONIC
#------------------------------------------------------------------------------
~OTHER INFORMATION SECTION
#------------------------------------------------------------------------------
 TCDS 1365
~CURVE INFORMATION
#MNEMO.UNIT         API CODE              CURVE DESCRIPTION
#------------------------------------------------------------------------------
 DEPTH.M                                 :   0     Depth
 TEMP.DegC                               :   1     Temperature
 COND.uS/cm                              :   2     Absolute Conductivity
 COND.uS/cm                              :   3     Conductivity@25DegC
 DELT.DegC                               :   4     Delta T
 DELC.uS/cm                              :   5     Delta C
#------------------------------------------------------------------------------
~A  DEPTH     TEMP      COND      COND      DELT      DELC      
# ...
    56.82     12.04   1744.77   2355.09      0.00      0.00 
    56.83     12.05   1744.77   2354.78     -0.00      0.31 
    56.84     12.05   1744.77   2354.78     -0.01      0.61 
    56.85     12.04   1737.53   2345.32     -0.01     -8.85 
    56.86     12.04   1744.77   2355.40     -0.01     10.69 
    56.87     12.03   1744.77   2355.70     -0.03      1.84 
    56.88     12.03   1744.77   2355.70     -0.03     -0.60 
    56.89     12.03   1744.77   2356.01     -0.03     11.61 
    56.90     12.02   1744.77   2356.32     -0.04      2.45 
    56.91     12.03   1744.77   2356.01     -0.03      2.15 
    56.92     12.04   1744.77   2355.40     -0.02      7.33 
    56.93     12.06   1746.58   2356.30      0.01      1.52 
    56.94     12.07   1744.77   2353.56      0.03     -1.84 
    56.95     12.06   1744.77   2354.17      0.02     -1.53 
    56.96     12.06   1737.53   2344.40      0.02    -10.99 
    56.97     12.05   1751.11   2363.33      0.00     18.32 
    56.98     12.05   1740.25   2348.37     -0.00     -5.80 
    56.99     12.06   1744.77   2353.86      0.01     -0.61 
    57.00     12.06   1744.77   2353.86      0.01     -0.61 
    57.01     12.06   1744.77   2354.17      0.00      0.00 
    57.02     12.05   1744.77   2354.78     -0.00     10.08 
    57.03     12.05   1744.77   2354.78      0.00      0.00 
    57.04     12.05   1744.77   2354.78      0.00     -0.31 
    57.05     12.06   1744.77   2354.17      0.02     -1.23 
    57.06     12.07   1744.77   2353.56      0.03     -1.84 
    57.07     12.06   1744.77   2353.86      0.02      8.54 
    57.08     12.06   1744.77   2353.86      0.01     -0.92 
    57.09     12.05   1744.77   2354.48      0.00     -0.31 
    57.10     12.04   1744.77   2355.09      0.01     -0.61 
    57.11     12.05   1744.77   2354.78      0.02     -1.23 
    57.12     12.05   1744.77   2354.78      0.02      8.55 
    57.13     12.05   1744.77   2354.78      0.01     -9.47 
    57.14     12.04   1744.77   2355.09     -0.01     10.38 
    57.15     12.04   1744.77   2355.09     -0.02      1.23 
    57.16     12.04   1744.77   2355.09     -0.03      1.84 
    57.17     12.06   1737.53   2344.40     -0.01     -8.85 
    57.18     12.07   1746.58   2356.00      0.00      2.44 
    57.19     12.07   1744.77   2353.25      0.01      9.15 
    57.20     12.08   1744.77   2352.64      0.03     -2.15 
    57.21     12.07   1744.77   2353.56      0.01     -0.92 
    57.22     12.07   1744.77   2353.56      0.02     -1.23 
    57.23     12.06   1744.77   2353.86      0.01     -0.61 
    57.24     12.05   1744.77   2354.78     -0.01      6.72 
    57.25     12.05   1744.77   2354.78     -0.00      0.31 
    57.26     12.04   1744.77   2355.40     -0.02      1.23 
    57.27     12.03   1744.77   2355.70     -0.00      0.31 
    57.28     12.03   1744.77   2355.70     -0.00     10.08 
    57.29     12.03   1744.77   2355.70     -0.00      0.31 
    57.30     12.04   1744.77   2355.09      0.01     -0.61 
    57.31     12.04   1744.77   2355.09     -0.00      0.31 
    57.32     12.05   1744.77   2354.48      0.00      0.00 
    57.33     12.06   1744.77   2353.86      0.01      5.19 
    57.34     12.06   1744.77   2353.86      0.01     -0.61 
    57.35     12.06   1744.77   2353.86      0.02     -1.23 
    57.36     12.06   1744.77   2354.17      0.02     -1.23 
    57.37     12.05   1744.77   2354.78      0.02      8.55 
    57.38     12.03   1744.77   2355.70      0.00     -0.31 
    57.39     12.04   1744.77   2355.40      0.00     -0.31 
    57.40     12.03   1744.77   2355.70     -0.01      0.61 
    57.41     12.04   1744.77   2355.09     -0.01      6.72 
    57.42     12.05   1744.77   2354.78      0.00      0.00 
    57.43     12.05   1744.77   2354.78      0.00     -0.31 
    57.44     12.06   1744.77   2354.17      0.01     -0.92 
    57.45     12.05   1744.77   2354.78     -0.00      0.31 
    57.46     12.05   1744.77   2354.78     -0.02      1.23 
    57.47     12.04   1744.77   2355.09     -0.03      2.15 
    57.48     12.03   1744.77   2355.70     -0.05      9.17 
    57.49     12.03   1744.77   2355.70     -0.03      1.84 
    57.50     12.04   1744.77   2355.40     -0.01      0.92 
    57.51     12.05   1744.77   2354.78      0.01     -0.61 
    57.52     12.06   1744.77   2354.17      0.03     -2.15 
    57.53     12.07   1744.77   2353.56      0.04      7.32 
    57.54     12.07   1744.77   2353.56      0.03     -2.15 
    57.55     12.07   1740.25   2347.45      0.03     -7.94 
    57.56     12.06   1744.77   2354.17      0.00     -0.31 
    57.57     12.05   1744.77   2354.78     -0.01     -1.52 
    57.58     12.04   1744.77   2355.09     -0.01     10.38 
    57.59     12.04   1744.77   2355.09      0.00      0.00 
    57.60     12.05   1744.77   2354.48      0.02     -1.23 
    57.61     12.05   1744.77   2354.78      0.01     -0.92 
    57.62     12.06   1744.77   2354.17      0.02     -1.23 
    57.63     12.06   1746.58   2356.61      0.01      1.52 
    57.64     12.05   1744.77   2354.48      0.01      5.49 
    57.65     12.05   1744.77   2354.48      0.00     -0.31 
    57.66     12.05   1744.77   2354.48     -0.00      0.31 
    57.67     12.06   1744.77   2353.86      0.00     -0.31 
    57.68     12.07   1744.77   2353.25      0.01     -0.61 
    57.69     12.08   1746.58   2355.08      0.03      0.29 
    57.70     12.08   1744.77   2352.64      0.04     -2.76 
    57.71     12.06   1744.77   2353.86      0.02     -1.53 
    57.72     12.05   1744.77   2354.48      0.02     -1.23 
    57.73     12.04   1744.77   2355.09      0.00     -0.31 
    57.74     12.05   1744.77   2354.78      0.01      9.16 
    57.75     12.05   1744.77   2354.48      0.01     -0.61 
    57.76     12.05   1746.58   2356.92      0.00     -0.31 
    57.77     12.06   1744.77   2354.17      0.01     -0.61 
    57.78     12.04   1744.77   2355.40     -0.00      0.31 
    57.79     12.04   1744.77   2355.09      0.00      9.47 
    57.80     12.05   1744.77   2354.78      0.01     -0.92 
    57.81     12.04   1744.77   2355.09      0.00      0.00 
    57.82     12.06   1744.77   2354.17      0.01     -0.61 
    57.83     12.06   1744.77   2354.17      0.01     -0.61 
    57.84     12.07   1744.77   2353.25      0.03      7.93 
    57.85     12.07   1744.77   2353.25      0.03     -2.15 
    57.86     12.08   1746.58   2355.38      0.04     -0.32 
    57.87     12.07   1744.77   2353.56      0.03     -2.15 
    57.88     12.06   1744.77   2354.17      0.03     -1.84 
    57.89     12.05   1744.77   2354.48      0.03     -1.84 
    57.90     12.05   1744.77   2354.78      0.02     -1.23 
    57.91     12.06   1744.77   2354.17      0.02     -1.23 
    57.92     12.06   1744.77   2353.86      0.00     -2.44 
    57.93     12.08   1746.58   2355.38      0.01      1.83 
    57.94     12.07   1744.77   2353.25      0.01     -0.92 
    57.95     12.07   1744.77   2353.56      0.01      9.15 
    57.96     12.06   1744.77   2353.86      0.01     -9.47 
    57.97     12.06   1744.77   2354.17      0.00      5.80 
    57.98     12.06   1744.77   2353.86      0.00      0.00 
    57.99     12.05   1744.77   2354.48     -0.01      0.61 
    58.00     12.07   1744.77   2353.56      0.01     -0.61 
    58.01     12.08   1744.77   2352.94      0.03     -1.84 
    58.02     12.08   1752.01   2362.71      0.03      7.92 
    58.03     12.08   1740.25   2346.84      0.03     -7.94 
    58.04     12.07   1744.77   2353.56      0.01     -0.61 
    58.05     12.05   1744.77   2354.48     -0.01      0.92 
    58.06     12.05   1744.77   2354.78     -0.01      0.92 
    58.07     12.04   1744.77   2355.40     -0.02      1.53 
    58.08     12.04   1752.01   2365.17     -0.01     10.69 
    58.09     12.03   1744.77   2355.70     -0.01      0.61 
    58.10     12.04   1744.77   2355.40     -0.01      0.61 
    58.11     12.05   1744.77   2354.78      0.00      0.00 
    58.12     12.06   1744.77   2354.17      0.01     -0.61 
    58.13     12.06   1744.77   2353.86      0.02     -1.23 
