#Written by Robertson Geologging WinLogger V1.5/410
~VERSION INFORMATION
#------------------------------------------------------------------------------
 VERS. 2.0 : CWLS LOG ASCII STANDARD - VERSION 2.0
 WRAP. NO  : ONE LINE PER DEPTH STEP
~WELL INFORMATION
#MNEM.UNIT         DATA                                DESCRIPTION OF MNEMONIC
#------------------------------------------------------------------------------
 STRT.M          0.0100                            :   START DEPTH
 STOP.M         89.0000                            :   STOP DEPTH
 STEP.M          0.0100                            :   STEP VALUE
 NULL.        -999.2500                            :   NULL VALUE
 COMP.    IWS                                      :   COMPANY NAME
 WELL.    Ladysmith                                :   WELL NAME
 FLD.     N/A                                      :   FIELD NAME
 LOC.     N/A                                      :   LOCATION
 PROV.    N/A                                      :   PROVINCE
 SRVC.    N/A                                      :   SERVICE COMPANY NAME
 DATE.    01 Feb 11                                :   DATE
 UWI.     N/A                                      :   UNIQUE WELL IDENTIFIER
~PARAMETER INFORMATION
#MNEMO.UNIT         VALUE                 DESCRIPTION OF MNEMONIC
#------------------------------------------------------------------------------
~OTHER INFORMATION SECTION
#------------------------------------------------------------------------------
 1365
~CURVE INFORMATION
#MNEMO.UNIT         API CODE              CURVE DESCRIPTION
#------------------------------------------------------------------------------
 DEPTH.M                                 :   0     Depth
 CN25.uS/cm                              :   1     Conductivity@25DegC
 TEMP.DegC                               :   2     Temperature
 DELT.DegC                               :   3     Delta T
 DELC.uS/cm                              :   4     Delta C
#------------------------------------------------------------------------------
~A  DEPTH          CN25          TEMP          DELT          DELC
# ...
    29.29       2015.96         11.76          0.00          6.75
    29.30       2014.68         11.76          0.01          5.39
    29.31       2014.53         11.76          0.01          5.19
    29.32       2014.48         11.76          0.01          5.02
    29.33       2014.39         11.77          0.01          0.88
    29.34       2015.53         11.77          0.01          2.05
    29.35       2014.36         11.77          0.01          3.74
    29.36       2013.17         11.77          0.01          2.60
    29.37       2014.26         11.77          0.02          4.85
    29.38       2013.10         11.77          0.02          2.52
    29.39       2014.26         11.77          0.02          3.66
    29.40       2013.17         11.77          0.02         -1.44
    29.41       2013.27         11.76          0.01         -1.32
    29.42       2013.34         11.76          0.01          1.63
    29.43       2013.34         11.76          0.01          2.81
    29.44       2013.37         11.76          0.01          2.79
    29.45       2012.23         11.76          0.01          1.63
    29.46       2013.39         11.76          0.01         -1.25
    29.47       2016.86         11.76          0.01          2.12
    29.48       2015.70         11.76          0.01         -0.23
    29.49       2016.84         11.76          0.02          4.80
    29.50       2012.84         11.76          0.02          0.76
    29.51       2016.19         11.76          0.02          5.21
    29.52       2017.31         11.76          0.02          6.35
    29.53       2016.10         11.77          0.02          1.16
    29.54       2017.16         11.77          0.02          1.09
    29.55       2015.95         11.77          0.02         -0.10
    29.56       2017.02         11.77          0.02          4.94
    29.57       2015.80         11.77          0.02          4.89
    29.58       2012.31         11.77          0.02          1.47
    29.59       2013.43         11.77          0.02          2.66
    29.60       2012.26         11.77          0.02         -2.38
    29.61       2016.25         11.77          0.02          2.83
    29.62       2012.88         11.77          0.02         -1.61
    29.63       2012.91         11.77          0.02         -1.54
    29.64       2012.98         11.77          0.01          2.60
    29.65       2013.03         11.77          0.01          0.46
    29.66       2013.05         11.77          0.01          4.55
    29.67       2013.10         11.77          0.01         -1.65
    29.68       2013.17         11.77          0.01          1.22
    29.69       2013.32         11.76          0.01          1.32
    29.70       2013.46         11.76          0.00          2.61
    29.71       2016.93         11.76          0.00          6.13
    29.72       2012.92         11.76          0.00          2.21
    29.73       2016.22         11.76          0.00          5.60
    29.74       2016.10         11.77          0.00          6.67
    29.75       2013.15         11.77          0.00         -0.22
    29.76       2013.15         11.77          0.00          3.25
    29.77       2016.57         11.77          0.00          2.68
    29.78       2012.53         11.77          0.00          2.11
    29.79       2015.93         11.77          0.00          1.57
    29.80       2016.92         11.77          0.01          2.56
    29.81       2012.76         11.77          0.01         -1.63
    29.82       2010.43         11.77          0.01         -4.00
    29.83       2016.68         11.78          0.01          2.19
    29.84       2010.50         11.77          0.01         -4.00
    29.85       2010.63         11.77          0.01         -3.93
    29.86       2016.94         11.77          0.01          2.32
    29.87       2012.91         11.77          0.01         -1.82
    29.88       2012.88         11.77          0.01          2.08
    29.89       2016.85         11.77          0.01          2.62
    29.90       2013.38         11.77          0.01          3.17
    29.91       2013.45         11.77          0.01          0.98
    29.92       2016.33         11.77          0.01          6.68
    29.93       2016.33         11.77          0.01          6.64
    29.94       2012.95         11.77          0.01          3.19
    29.95       2015.83         11.77          0.02          5.94
    29.96       2014.76         11.77          0.02          4.83
    29.97       2012.55         11.77          0.02          2.57
    29.98       2015.50         11.77          0.01          5.47
    29.99       2015.57         11.76          0.01          1.62
    30.00       2014.51         11.76          0.01          3.98
    30.01       2015.70         11.76          0.01          1.22
    30.02       2014.58         11.76          0.01          3.63
    30.03       2014.60         11.76          0.01          0.85
    30.04       2013.51         11.76          0.00         -0.17
    30.05       2014.65         11.76          0.00          1.04
    30.06       2014.60         11.76          0.00          1.12
    30.07       2017.95         11.76         -0.00          4.61
    30.08       2016.76         11.76         -0.00          3.54
    30.09       2016.76         11.76         -0.00          3.62
    30.10       2013.32         11.76         -0.00          0.17
    30.11       2014.41         11.76         -0.00          1.21
    30.12       2013.29         11.76         -0.00          0.02
    30.13       2016.67         11.77          0.00          3.32
    30.14       2016.69         11.76          0.00          2.23
    30.15       2017.83         11.76          0.00          4.56
    30.16       2016.62         11.77          0.00          2.23
    30.17       2016.59         11.77          0.00          3.37
    30.18       2014.22         11.77          0.00         -0.27
    30.19       2014.12         11.77          0.01         -0.49
    30.20       2017.42         11.77          0.01          2.76
    30.21       2017.27         11.77          0.02          2.52
    30.22       2017.15         11.78          0.02          2.40
    30.23       2017.03         11.78          0.02          2.30
    30.24       2013.61         11.78          0.02         -2.23
    30.25       2014.77         11.78          0.02          0.02
    30.26       2013.71         11.78          0.02         -2.23
    30.27       2013.78         11.78          0.02         -1.02
    30.28       2017.27         11.77          0.02          1.31
    30.29       2016.20         11.77          0.01          1.53
    30.30       2017.44         11.77          0.01          2.91
    30.31       2014.17         11.77          0.01         -0.32
    30.32       2014.31         11.77          0.00         -0.07
    30.33       2014.46         11.76         -0.00         -1.07
    30.34       2014.60         11.76         -0.00          0.24
    30.35       2018.07         11.76         -0.01          4.90
    30.36       2016.91         11.76         -0.01          2.65
    30.37       2017.95         11.76         -0.01          4.85
    30.38       2017.88         11.76         -0.00          3.62
    30.39       2014.41         11.76         -0.00          1.24
    30.40       2015.53         11.77          0.00          2.26
    30.41       2014.36         11.77          0.00          1.02
    30.42       2017.66         11.77          0.00          4.32
    30.43       2017.54         11.77          0.01          4.17
    30.44       2016.30         11.77          0.01          4.08
    30.45       2017.32         11.77          0.01          3.93
    30.46       2013.78         11.78          0.01         -3.08
    30.47       2014.85         11.78          0.02         -0.85
    30.48       2013.66         11.78          0.02         -3.18
    30.49       2017.08         11.78          0.02          4.23
    30.50       2018.27         11.78          0.01          2.07
