#Written by Robertson Geologging WinLogger V1.5/410
~VERSION INFORMATION
#------------------------------------------------------------------------------
 VERS. 2.0 : CWLS LOG ASCII STANDARD - VERSION 2.0
 WRAP. NO  : ONE LINE PER DEPTH STEP
~WELL INFORMATION
#MNEM.UNIT         DATA                                DESCRIPTION OF MNEMONIC
#------------------------------------------------------------------------------
 STRT.M          2.0200                            :   START DEPTH
 STOP.M         91.0000                            :   STOP DEPTH
 STEP.M          0.0100                            :   STEP VALUE
 NULL.        -999.2500                            :   NULL VALUE
 COMP.    IWS                                      :   COMPANY NAME
 WELL.    LADYSMITH                                :   WELL NAME
 FLD.     DURHAM                                   :   FIELD NAME
 LOC.     N/A                                      :   LOCATION
 PROV.    N/A                                      :   PROVINCE
 SRVC.    N/A                                      :   SERVICE COMPANY NAME
 DATE.    16 Dec 09                                :   DATE
 UWI.     N/A                                      :   UNIQUE WELL IDENTIFIER
~PARAMETER INFORMATION
#MNEMO.UNIT         VALUE                 DESCRIPTION OF MNEMONIC
#------------------------------------------------------------------------------
~OTHER INFORMATION SECTION
#------------------------------------------------------------------------------
 TCDS 1365
~CURVE INFORMATION
#MNEMO.UNIT         API CODE              CURVE DESCRIPTION
#------------------------------------------------------------------------------
 DEPTH.M                                 :   0     Depth
 TEMP.DegC                               :   1     Temperature
 COND.uS/cm                              :   2     Conductivity@25DegC
 COND.uS/cm                              :   3     Absolute Conductivity
 DELT.DegC                               :   4     Delta T
 DELC.uS/cm                              :   5     Delta C
#------------------------------------------------------------------------------
~A  DEPTH          TEMP          COND          COND          DELT          DELC
# ...
    78.02         11.80       2217.95       1632.36          0.00          0.36
    78.03         11.80       2217.95       1632.36          0.00          5.51
    78.04         11.80       2213.42       1629.00          0.00         -3.52
    78.05         11.80       2218.06       1632.36         -0.00          6.29
    78.06         11.80       2213.61       1629.00         -0.00          1.87
    78.07         11.79       2218.24       1632.36         -0.00          1.35
    78.08         11.79       2213.74       1629.00         -0.00          1.32
    78.09         11.79       2213.74       1629.00         -0.00         -3.94
    78.10         11.79       2218.89       1632.78          0.00          5.62
    78.11         11.79       2213.76       1629.00          0.00          0.46
    78.12         11.79       2218.84       1632.78          0.00          4.94
    78.13         11.79       2213.69       1629.00          0.00         -0.21
    78.14         11.79       2213.63       1629.00          0.00         -5.37
    78.15         11.80       2218.17       1632.36          0.00          4.27
    78.16         11.80       2213.58       1629.00          0.01         -5.47
    78.17         11.80       2218.06       1632.36          0.01          4.06
    78.18         11.80       2213.50       1629.00          0.01         -0.55
    78.19         11.80       2218.06       1632.36          0.01         -0.61
    78.20         11.80       2218.06       1632.36          0.01          3.95
    78.21         11.80       2212.96       1628.59          0.01         -5.63
    78.22         11.80       2218.09       1632.36          0.01          3.98
    78.23         11.80       2213.55       1629.00          0.01         -5.14
    78.24         11.79       2218.79       1632.78          0.01          4.68
    78.25         11.79       2218.87       1632.78          0.01          4.71
    78.26         11.79       2213.82       1629.00          0.01         -5.47
    78.27         11.79       2218.40       1632.36          0.01          4.24
    78.28         11.79       2213.27       1628.59          0.01         -6.07
    78.29         11.79       2217.78       1631.94          0.01          3.54
    78.30         11.79       2217.70       1631.94          0.01          3.52
    78.31         11.79       2212.49       1628.17          0.01         -6.15
    78.32         11.80       2217.49       1631.94          0.01          3.49
    78.33         11.80       2212.26       1628.17          0.01         -6.15
    78.34         11.80       2216.68       1631.52          0.01          2.95
    78.35         11.80       2216.50       1631.52          0.01         -1.82
    78.36         11.81       2211.84       1628.17          0.01         -1.88
    78.37         11.81       2216.88       1631.94          0.01          3.17
    78.38         11.81       2212.33       1628.59          0.01         -6.51
    78.39         11.81       2217.48       1632.36          0.01          3.82
    78.40         11.81       2217.53       1632.36          0.01         -1.23
    78.41         11.80       2212.49       1628.59          0.01         -1.15
    78.42         11.80       2217.74       1632.36          0.01          4.08
    78.43         11.80       2212.80       1628.59          0.01         -5.50
    78.44         11.80       2218.03       1632.36          0.00          4.27
    78.45         11.80       2218.11       1632.36          0.00         -0.24
    78.46         11.80       2213.58       1629.00          0.00          0.39
    78.47         11.80       2218.17       1632.36          0.00          0.44
    78.48         11.79       2213.69       1629.00         -0.00         -3.96
    78.49         11.79       2218.32       1632.36         -0.00          5.29
    78.50         11.79       2213.87       1629.00         -0.01         -4.22
    78.51         11.79       2213.95       1629.00         -0.01          0.53
    78.52         11.79       2219.13       1632.78         -0.01          0.61
    78.53         11.79       2214.03       1629.00         -0.01          0.06
    78.54         11.79       2219.16       1632.78         -0.01          5.16
    78.55         11.79       2219.21       1632.78         -0.01          0.55
    78.56         11.79       2214.70       1629.42         -0.01          0.50
    78.57         11.78       2219.37       1632.78         -0.01         -0.12
    78.58         11.78       2214.81       1629.42         -0.00         -0.28
    78.59         11.79       2219.24       1632.78          0.00          3.96
    78.60         11.79       2214.52       1629.42          0.01         -5.47
    78.61         11.79       2218.89       1632.78          0.01          4.01
    78.62         11.80       2218.74       1632.78          0.01         -0.79
    78.63         11.80       2213.53       1629.00          0.01         -0.87
    78.64         11.80       2218.60       1632.78          0.01         -0.33
    78.65         11.80       2213.37       1629.00          0.02         -5.56
    78.66         11.80       2213.27       1629.00          0.02         -1.08
    78.67         11.80       2217.72       1632.36          0.02         -1.13
    78.68         11.80       2212.49       1628.59          0.02         -1.67
    78.69         11.80       2217.02       1631.94          0.02         -1.57
    78.70         11.80       2211.92       1628.17          0.01         -6.51
    78.71         11.80       2216.53       1631.52          0.01          3.33
    78.72         11.80       2216.60       1631.52          0.01         -1.72
    78.73         11.80       2212.07       1628.17          0.01         -1.10
    78.74         11.80       2217.20       1631.94          0.01         -1.10
    78.75         11.80       2212.62       1628.59          0.01         -0.50
    78.76         11.80       2217.69       1632.36          0.01          4.65
    78.77         11.80       2217.64       1632.36          0.01          0.15
    78.78         11.80       2212.54       1628.59          0.01          0.25
    78.79         11.80       2217.67       1632.36          0.00          0.85
    78.80         11.80       2213.16       1629.00          0.00          0.90
    78.81         11.80       2218.34       1632.78          0.00          6.06
    78.82         11.80       2218.34       1632.78          0.00          0.93
    78.83         11.80       2213.21       1629.00          0.00          0.33
    78.84         11.80       2217.82       1632.36          0.00         -0.16
    78.85         11.80       2212.70       1628.59          0.00         -0.70
    78.86         11.80       2217.31       1631.94          0.00         -1.27
    78.87         11.80       2217.41       1631.94          0.00         -1.19
    78.88         11.80       2212.93       1628.59          0.00         -0.65
    78.89         11.80       2218.14       1632.36          0.00         -0.68
    78.90         11.80       2213.61       1629.00          0.00         -0.11
    78.91         11.80       2218.11       1632.36          0.00         -0.21
    78.92         11.80       2218.03       1632.36          0.00         -0.29
    78.93         11.80       2213.42       1629.00          0.00         -0.26
    78.94         11.80       2218.50       1632.78          0.00          0.36
    78.95         11.80       2213.91       1629.42          0.00          0.39
    78.96         11.80       2219.09       1633.20          0.00          1.03
    78.97         11.80       2219.07       1633.20          0.00          1.03
    78.98         11.80       2213.94       1629.42          0.00          1.06
    78.99         11.80       2218.52       1632.78          0.00          0.57
    79.00         11.80       2213.37       1629.00          0.00          0.57
    79.01         11.80       2217.98       1632.36         -0.00          0.03
