#Written by Robertson Geologging WinLogger V1.5/410
~VERSION INFORMATION
#------------------------------------------------------------------------------
 VERS. 2.0 : CWLS LOG ASCII STANDARD - VERSION 2.0
 WRAP. NO  : ONE LINE PER DEPTH STEP
~WELL INFORMATION
#MNEM.UNIT         DATA                                DESCRIPTION OF MNEMONIC
#------------------------------------------------------------------------------
 STRT.M          0.0100                            :   START DEPTH
 STOP.M         89.0000                            :   STOP DEPTH
 STEP.M          0.0100                            :   STEP VALUE
 NULL.        -999.2500                            :   NULL VALUE
 COMP.    IWS                                      :   COMPANY NAME
 WELL.    Ladysmith                                :   WELL NAME
 FLD.     N/A                                      :   FIELD NAME
 LOC.     N/A                                      :   LOCATION
 PROV.    N/A                                      :   PROVINCE
 SRVC.    N/A                                      :   SERVICE COMPANY NAME
 DATE.    01 Feb 11                                :   DATE
 UWI.     N/A                                      :   UNIQUE WELL IDENTIFIER
~PARAMETER INFORMATION
#MNEMO.UNIT         VALUE                 DESCRIPTION OF MNEMONIC
#------------------------------------------------------------------------------
~OTHER INFORMATION SECTION
#------------------------------------------------------------------------------
 1365
~CURVE INFORMATION
#MNEMO.UNIT         API CODE              CURVE DESCRIPTION
#------------------------------------------------------------------------------
 DEPTH.M                                 :   0     Depth
 CN25.uS/cm                              :   1     Conductivity@25DegC
 TEMP.DegC                               :   2     Temperature
 DELT.DegC                               :   3     Delta T
 DELC.uS/cm                              :   4     Delta C
#------------------------------------------------------------------------------
~A  DEPTH          CN25          TEMP          DELT          DELC
# ...
    70.77       2242.19         12.00          0.01         -1.05
    70.78       2242.24         12.00          0.01         -0.40
    70.79       2246.29         12.00          0.01          3.65
    70.80       2243.00         12.00          0.00          0.35
    70.81       2243.13         11.99          0.00         -3.43
    70.82       2247.15         11.99         -0.00          4.56
    70.83       2247.15         11.99         -0.00          4.62
    70.84       2243.78         11.99         -0.00          1.27
    70.85       2243.72         11.99         -0.00          1.27
    70.86       2247.69         11.99         -0.00          5.29
    70.87       2243.72         11.99         -0.00          1.38
    70.88       2243.62         12.00         -0.00         -2.62
    70.89       2247.58         12.00         -0.00          4.75
    70.90       2243.62         12.00         -0.00          0.84
    70.91       2243.56         12.00         -0.00          0.81
    70.92       2247.48         12.00         -0.00          4.75
    70.93       2243.43         12.00         -0.00          0.75
    70.94       2243.37         12.00         -0.00          0.73
    70.95       2247.23         12.00         -0.00          0.67
    70.96       2247.26         12.00         -0.00          4.13
    70.97       2243.29         12.00         -0.00          0.21
    70.98       2247.29         12.00         -0.00          4.21
    70.99       2247.40         12.00         -0.00          4.83
    71.00       2243.48         12.00         -0.00          0.84
    71.01       2247.48         12.00         -0.00          4.72
    71.02       2247.42         12.00         -0.00          0.59
    71.03       2243.45         12.00          0.00          0.51
    71.04       2243.51         12.00          0.00          0.51
    71.05       2247.50         12.00          0.00          4.45
    71.06       2243.67         11.99         -0.00          1.16
    71.07       2243.75         11.99         -0.00          1.19
    71.08       2247.77         11.99         -0.00          5.18
    71.09       2243.86         11.99         -0.00         -2.70
    71.10       2243.86         11.99         -0.00          0.75
    71.11       2247.74         11.99         -0.00          4.70
    71.12       2243.72         11.99         -0.00         -3.27
    71.13       2243.75         11.99         -0.00          0.73
    71.14       2247.12         11.99         -0.00          4.05
    71.15       2247.12         11.99         -0.00          4.05
    71.16       2243.21         11.99         -0.00         -3.86
    71.17       2247.12         11.99         -0.00          3.51
    71.18       2247.02         12.00         -0.00          3.53
    71.19       2243.00         12.00         -0.00         -4.43
    71.20       2246.86         12.00         -0.00          3.43
    71.21       2246.77         12.00          0.00          3.29
    71.22       2242.83         12.00          0.00         -4.05
    71.23       2242.83         12.00          0.00         -0.05
    71.24       2246.77         12.00          0.00          3.97
    71.25       2243.37         12.00         -0.00          0.67
    71.26       2243.37         12.00         -0.00         -3.21
    71.27       2247.31         12.00         -0.00          4.75
    71.28       2243.40         12.00         -0.00          0.81
    71.29       2243.45         12.00         -0.00         -2.59
    71.30       2247.42         12.00         -0.00          5.29
    71.31       2243.48         12.00         -0.00          1.35
    71.32       2243.51         12.00         -0.00         -2.56
    71.33       2247.45         12.00         -0.00          4.80
    71.34       2247.42         12.00         -0.00          4.83
    71.35       2243.48         12.00         -0.01          0.89
    71.36       2246.91         12.00         -0.01          0.94
    71.37       2246.94         12.00         -0.01          4.91
    71.38       2242.97         12.00         -0.01          0.97
    71.39       2246.86         12.00         -0.01          0.97
    71.40       2246.77         12.00         -0.01          4.34
    71.41       2242.73         12.00         -0.01          0.46
    71.42       2246.69         12.00         -0.01          0.54
    71.43       2246.72         12.00         -0.01          4.61
    71.44       2242.83         12.00         -0.01          0.78
    71.45       2246.29         12.00         -0.01          0.81
    71.46       2246.23         12.00         -0.01          0.75
    71.47       2242.78         12.00         -0.01          0.64
    71.48       2246.07         12.00         -0.01          3.96
    71.49       2246.02         12.00         -0.01         -0.06
    71.50       2242.05         12.00         -0.01         -0.08
    71.51       2246.02         12.00         -0.01          3.86
    71.52       2246.02         12.00         -0.01         -0.22
    71.53       2241.97         12.00         -0.00         -0.38
    71.54       2245.78         12.01          0.00          3.32
    71.55       2245.54         12.01          0.01         -1.00
    71.56       2241.95         12.01          0.01         -1.34
    71.57       2245.24         12.02          0.02          1.81
    71.58       2245.21         12.02          0.02          1.73
    71.59       2241.87         12.02          0.02         -5.69
    71.60       2245.86         12.01          0.02          2.27
    71.61       2245.91         12.01          0.02          2.24
    71.62       2241.98         12.01          0.02         -5.72
    71.63       2246.02         12.01          0.02          2.30
    71.64       2246.13         12.01          0.02          2.41
    71.65       2242.32         12.01          0.01         -5.29
    71.66       2246.53         12.00          0.01          2.94
    71.67       2246.72         12.00          0.00          3.32
    71.68       2243.45         12.00         -0.00         -3.21
    71.69       2247.45         12.00         -0.01          0.89
    71.70       2247.40         12.00         -0.01          4.91
    71.71       2243.43         12.00         -0.01          0.92
    71.72       2246.88         12.00         -0.01          1.00
    71.73       2246.99         12.00         -0.01          5.04
    71.74       2243.10         11.99         -0.01          1.08
    71.75       2246.53         11.99         -0.01          0.48
    71.76       2246.50         11.99         -0.01          4.32
    71.77       2242.51         12.00         -0.00          0.27
    71.78       2245.91         12.00         -0.00         -0.38
    71.79       2245.96         11.99         -0.00          2.97
    71.80       2242.08         11.99         -0.00         -1.05
    71.81       2245.56         11.99         -0.00         -1.59
    71.82       2245.56         11.99         -0.00         -1.59
    71.83       2242.08         11.99         -0.00         -1.70
    71.84       2245.99         11.99          0.00          2.27
    71.85       2245.91         12.00          0.00         -1.78
    71.86       2242.51         12.00          0.00         -1.21
    71.87       2245.94         11.99         -0.00          2.32
    71.88       2245.86         12.00          0.00         -1.73
    71.89       2242.37         12.00          0.00         -1.24
    71.90       2246.18         12.00          0.00          2.62
    71.91       2246.05         12.00          0.00         -1.43
    71.92       2242.59         12.00          0.00         -0.84
    71.93       2246.53         12.00          0.00          3.16
    71.94       2246.51         12.00          0.00         -0.73
    71.95       2242.49         12.01          0.00         -4.78
    71.96       2246.34         12.01          0.01          3.05
    71.97       2246.24         12.01          0.01         -1.05
    71.98       2242.81         12.01          0.01         -4.58
