#Written by Robertson Geologging WinLogger V1.0/406
~VERSION INFORMATION
#------------------------------------------------------------------------------
 VERS. 2.0 : CWLS LOG ASCII STANDARD - VERSION 2.0
 WRAP. NO  : ONE LINE PER DEPTH STEP
~WELL INFORMATION
#MNEM.UNIT         DATA                                DESCRIPTION OF MNEMONIC
#------------------------------------------------------------------------------
 STRT.M          0.0600                            :   START DEPTH
 STOP.M         95.0200                            :   STOP DEPTH
 STEP.M          0.0100                            :   STEP VALUE
 NULL.        -999.2500                            :   NULL VALUE
 COMP.    Coal Authority                           :   COMPANY NAME
 WELL.    Ladysmith Shaft                          :   WELL NAME
 FLD.     Ladysmith                                :   FIELD NAME
 LOC.     N/A                                      :   LOCATION
 PROV.    N/A                                      :   PROVINCE
 SRVC.    N/A                                      :   SERVICE COMPANY NAME
 DATE.    20 May 08                                :   DATE
 UWI.     N/A                                      :   UNIQUE WELL IDENTIFIER
~PARAMETER INFORMATION
#MNEMO.UNIT         VALUE                 DESCRIPTION OF MNEMONIC
#------------------------------------------------------------------------------
~OTHER INFORMATION SECTION
#------------------------------------------------------------------------------
 TCDS 1365
~CURVE INFORMATION
#MNEMO.UNIT         API CODE              CURVE DESCRIPTION
#------------------------------------------------------------------------------
 DEPTH.M                                 :   0     Depth
 TEMP.DegC                               :   1     Temperature
 COND.uS/cm                              :   2     Absolute Conductivity
 COND.uS/cm                              :   3     Conductivity@25DegC
 DELT.DegC                               :   4     Delta T
 DELC.uS/cm                              :   5     Delta C
#------------------------------------------------------------------------------
~A  DEPTH     TEMP      COND      COND      DELT      DELC      
# ...
    87.18     12.09   1746.58   2354.77      0.00      2.13 
    87.19     12.09   1744.77   2352.03      0.01    -10.37 
    87.20     12.09   1752.01   2361.78      0.02      8.53 
    87.21     12.10   1744.77   2351.72      0.02    -10.99 
    87.22     12.10   1752.01   2361.48      0.02      8.53 
    87.23     12.09   1746.58   2354.46      0.01     -8.24 
    87.24     12.09   1744.77   2352.33      0.01     -0.61 
    87.25     12.08   1752.01   2362.71      0.00      7.32 
    87.26     12.08   1744.77   2352.64      0.01    -10.38 
    87.27     12.09   1746.58   2354.77      0.01      1.52 
    87.28     12.09   1752.01   2362.09      0.01     -0.92 
    87.29     12.09   1744.77   2352.33      0.01     -0.61 
    87.30     12.08   1746.58   2355.38     -0.01     -6.40 
    87.31     12.07   1752.01   2363.01     -0.02      8.55 
    87.32     12.08   1744.77   2352.64     -0.00      0.31 
    87.33     12.07   1752.01   2363.01     -0.01      0.92 
    87.34     12.08   1746.58   2355.38     -0.02      3.67 
    87.35     12.08   1752.01   2362.40     -0.01     -0.30 
    87.36     12.08   1744.77   2352.94     -0.03      1.84 
    87.37     12.08   1744.77   2352.64     -0.03      1.84 
    87.38     12.09   1752.01   2362.09     -0.00     -0.91 
    87.39     12.08   1744.77   2352.64     -0.00      0.31 
    87.40     12.09   1752.92   2363.31     -0.00      1.53 
    87.41     12.08   1744.77   2352.64      0.00     -2.44 
    87.42     12.08   1744.77   2352.94     -0.00      0.31 
    87.43     12.09   1752.01   2362.09     -0.00      0.31 
    87.44     12.09   1746.58   2354.46      0.01     -0.92 
    87.45     12.09   1752.01   2362.09      0.00      9.45 
    87.46     12.09   1744.77   2352.33      0.00    -10.07 
    87.47     12.08   1744.77   2352.64      0.01     -3.05 
    87.48     12.07   1752.01   2363.01     -0.00      0.31 
    87.49     12.07   1746.58   2355.69     -0.01      3.05 
    87.50     12.07   1752.01   2363.32     -0.02      8.55 
    87.51     12.07   1744.77   2353.56     -0.02     -8.54 
    87.52     12.07   1752.01   2363.01     -0.01     10.68 
    87.53     12.08   1744.77   2352.64      0.00     -9.76 
    87.54     12.08   1746.58   2355.38      0.00     -0.31 
    87.55     12.09   1752.01   2362.09      0.02      8.54 
    87.56     12.08   1744.77   2352.64      0.01    -10.38 
    87.57     12.09   1752.01   2362.09      0.01      9.15 
    87.58     12.08   1746.58   2355.38     -0.01      0.92 
    87.59     12.08   1744.77   2352.94     -0.01     -8.84 
    87.60     12.08   1752.01   2362.40     -0.01     10.68 
    87.61     12.08   1746.58   2355.38     -0.01      0.92 
    87.62     12.08   1744.77   2352.64     -0.00     -9.45 
    87.63     12.07   1752.01   2363.01     -0.01     10.68 
    87.64     12.08   1744.77   2352.64      0.00    -11.29 
    87.65     12.08   1746.58   2355.08      0.01      1.83 
    87.66     12.09   1752.01   2361.78      0.01      8.84 
    87.67     12.10   1744.77   2351.41      0.02    -12.21 
    87.68     12.10   1746.58   2353.85      0.02      1.21 
    87.69     12.10   1752.01   2361.48      0.01     -0.92 
    87.70     12.10   1746.58   2353.85      0.02      1.21 
    87.71     12.09   1752.01   2361.78      0.01      6.71 
    87.72     12.09   1744.77   2352.03      0.00    -10.07 
    87.73     12.09   1746.58   2354.46      0.00      2.44 
    87.74     12.09   1752.01   2361.78     -0.00     10.07 
    87.75     12.10   1744.77   2351.72      0.00     -2.44 
    87.76     12.09   1746.58   2354.46      0.00      2.13 
    87.77     12.08   1752.01   2362.40      0.00     -0.31 
    87.78     12.08   1744.77   2352.64     -0.00     -2.13 
    87.79     12.08   1752.01   2362.40     -0.00     10.07 
    87.80     12.08   1746.58   2355.38     -0.01     -6.40 
    87.81     12.08   1744.77   2352.94     -0.01      0.92 
    87.82     12.09   1752.01   2362.09      0.00     -1.22 
    87.83     12.08   1746.58   2355.38      0.00      2.44 
    87.84     12.07   1744.77   2353.25     -0.00      0.31 
    87.85     12.08   1752.01   2362.71     -0.01      0.61 
    87.86     12.07   1744.77   2353.25     -0.01     -1.83 
    87.87     12.08   1746.58   2355.08      0.00     -7.32 
    87.88     12.09   1752.01   2361.78      0.01      8.84 
    87.89     12.10   1744.77   2351.72      0.03     -1.84 
    87.90     12.10   1746.58   2354.16      0.02    -10.08 
    87.91     12.09   1752.01   2361.78      0.01      9.15 
    87.92     12.10   1744.77   2351.72      0.00    -10.07 
    87.93     12.09   1752.01   2361.78      0.00      9.45 
    87.94     12.08   1746.58   2355.08      0.00      2.44 
    87.95     12.08   1744.77   2352.94      0.00    -10.07 
    87.96     12.07   1752.01   2363.01      0.00      7.32 
    87.97     12.07   1746.58   2356.00     -0.00     -7.02 
    87.98     12.07   1752.01   2363.01      0.00      9.46 
    87.99     12.08   1744.77   2352.94      0.00     -9.76 
    88.00     12.08   1744.77   2352.64      0.01     -0.61 
    88.01     12.09   1752.92   2363.31      0.01      7.93 
    88.02     12.10   1744.77   2351.72      0.01    -10.68 
    88.03     12.10   1744.77   2351.72      0.02     -1.22 
    88.04     12.09   1752.01   2361.78      0.00     -0.31 
    88.05     12.09   1746.58   2354.77      0.00      2.13 
    88.06     12.09   1752.01   2362.09      0.00      7.01 
    88.07     12.08   1744.77   2352.64      0.00     -9.76 
    88.08     12.08   1744.77   2352.64      0.00     -0.31 
    88.09     12.09   1752.92   2363.00      0.01      0.61 
    88.10     12.09   1744.77   2352.33      0.00     -0.31 
    88.11     12.09   1752.01   2361.78      0.00     -0.31 
    88.12     12.09   1744.77   2352.03      0.00     -2.75 
    88.13     12.09   1744.77   2352.33      0.01     -0.92 
    88.14     12.09   1752.92   2363.00      0.02     -0.01 
    88.15     12.09   1744.77   2352.03      0.02     -1.22 
    88.16     12.09   1744.77   2352.33      0.01    -10.38 
    88.17     12.08   1752.01   2362.71     -0.01      7.94 
    88.18     12.08   1744.77   2352.94     -0.01      0.92 
    88.19     12.08   1752.92   2363.93     -0.01      2.14 
    88.20     12.07   1744.77   2353.25     -0.02      1.53 
    88.21     12.08   1744.77   2352.94     -0.02     -8.53 
    88.22     12.08   1752.01   2362.40     -0.01      7.93 
    88.23     12.09   1744.77   2352.33      0.00      0.00 
    88.24     12.10   1752.01   2361.48      0.02     -1.23 
    88.25     12.10   1746.58   2354.16      0.01      1.52 
    88.26     12.09   1744.77   2352.03      0.00     -2.75 
    88.27     12.08   1752.01   2362.40     -0.00      0.31 
    88.28     12.08   1744.77   2352.64     -0.00      0.31 
    88.29     12.08   1752.01   2362.40      0.00      7.01 
    88.30     12.08   1744.77   2352.64      0.01    -10.38 
    88.31     12.09   1746.58   2354.77      0.00      2.13 
    88.32     12.08   1752.01   2362.71      0.00     -0.31 
    88.33     12.07   1744.77   2353.56     -0.01     -1.83 
    88.34     12.07   1752.01   2363.32     -0.01      0.92 
    88.35     12.06   1744.77   2353.86     -0.01      0.92 
    88.36     12.07   1746.58   2355.69     -0.01      3.05 
    88.37     12.08   1752.01   2362.71     -0.01      0.61 
    88.38     12.08   1744.77   2352.94     -0.00      0.31 
    88.39     12.08   1752.01   2362.40     -0.00     -0.91 
    88.40     12.08   1746.58   2355.08      0.00      2.44 
    88.41     12.08   1744.77   2352.94      0.00      0.00 
    88.42     12.08   1752.01   2362.40     -0.00      0.31 
    88.43     12.09   1744.77   2352.33     -0.00     -2.13 
    88.44     12.09   1746.58   2354.46      0.00     -7.63 
    88.45     12.10   1752.01   2361.48      0.01      9.15 
    88.46     12.10   1744.77   2351.41      0.02     -1.22 
    88.47     12.10   1752.01   2361.17      0.03     -1.84 
    88.48     12.10   1746.58   2354.16      0.02     -1.53 
    88.49     12.09   1744.77   2352.03      0.02    -11.30 
