#Written by Robertson Geologging WinLogger V1.5/410
~VERSION INFORMATION
#------------------------------------------------------------------------------
 VERS. 2.0 : CWLS LOG ASCII STANDARD - VERSION 2.0
 WRAP. NO  : ONE LINE PER DEPTH STEP
~WELL INFORMATION
#MNEM.UNIT         DATA                                DESCRIPTION OF MNEMONIC
#------------------------------------------------------------------------------
 STRT.M          0.0100                            :   START DEPTH
 STOP.M         89.0000                            :   STOP DEPTH
 STEP.M          0.0100                            :   STEP VALUE
 NULL.        -999.2500                            :   NULL VALUE
 COMP.    IWS                                      :   COMPANY NAME
 WELL.    Ladysmith                                :   WELL NAME
 FLD.     N/A                                      :   FIELD NAME
 LOC.     N/A                                      :   LOCATION
 PROV.    N/A                                      :   PROVINCE
 SRVC.    N/A                                      :   SERVICE COMPANY NAME
 DATE.    01 Feb 11                                :   DATE
 UWI.     N/A                                      :   UNIQUE WELL IDENTIFIER
~PARAMETER INFORMATION
#MNEMO.UNIT         VALUE                 DESCRIPTION OF MNEMONIC
#------------------------------------------------------------------------------
~OTHER INFORMATION SECTION
#------------------------------------------------------------------------------
 1365
~CURVE INFORMATION
#MNEMO.UNIT         API CODE              CURVE DESCRIPTION
#------------------------------------------------------------------------------
 DEPTH.M                                 :   0     Depth
 CN25.uS/cm                              :   1     Conductivity@25DegC
 TEMP.DegC                               :   2     Temperature
 DELT.DegC                               :   3     Delta T
 DELC.uS/cm                              :   4     Delta C
#------------------------------------------------------------------------------
~A  DEPTH          CN25          TEMP          DELT          DELC
# ...
    75.65       2246.26         12.01          0.02         -5.02
    75.66       2250.18         12.01          0.02          2.92
    75.67       2246.16         12.01          0.02         -1.02
    75.68       2250.15         12.01          0.02          3.00
    75.69       2246.70         12.01          0.01         -0.35
    75.70       2246.64         12.01          0.01         -4.23
    75.71       2250.53         12.01          0.01          3.75
    75.72       2246.56         12.01          0.01         -0.08
    75.73       2250.50         12.01          0.01         -0.08
    75.74       2246.59         12.01          0.01         -0.59
    75.75       2246.70         12.01          0.01         -0.51
    75.76       2250.12         12.01          0.01          2.94
    75.77       2246.32         12.01          0.00         -0.84
    75.78       2250.36         12.01          0.00         -0.70
    75.79       2246.45         12.01          0.00         -0.65
    75.80       2246.61         12.00          0.00         -0.59
    75.81       2250.71         12.00          0.00          3.37
    75.82       2246.94         12.00          0.00         -0.57
    75.83       2250.44         12.00          0.00          2.83
    75.84       2246.53         11.99         -0.00         -1.08
    75.85       2246.50         11.99         -0.00         -1.03
    75.86       2250.39         12.00         -0.00         -0.49
    75.87       2246.94         12.00         -0.00          0.08
    75.88       2250.71         12.00          0.00          3.86
    75.89       2246.64         12.00          0.00          0.30
    75.90       2246.53         12.00          0.01          0.22
    75.91       2250.34         12.01          0.01          0.11
    75.92       2246.21         12.01          0.01          0.06
    75.93       2249.96         12.01          0.01          3.91
    75.94       2246.35         12.02          0.01         -3.02
    75.95       2246.24         12.02          0.01          0.81
    75.96       2250.20         12.02          0.02          4.67
    75.97       2246.29         12.02          0.02          0.65
    75.98       2249.75         12.02          0.02          4.00
    75.99       2245.86         12.01          0.02         -3.34
    76.00       2245.91         12.01          0.02          0.09
    76.01       2249.91         12.01          0.02          4.08
    76.02       2246.02         12.01          0.02          0.19
    76.03       2249.50         12.01          0.01          3.62
    76.04       2245.62         12.01          0.01         -3.67
    76.05       2245.75         12.01          0.01         -0.16
    76.06       2249.85         12.01          0.01          3.94
    76.07       2245.91         12.00          0.01         -3.88
    76.08       2249.96         12.00          0.00          3.70
    76.09       2246.61         12.00          0.00         -3.51
    76.10       2246.69         12.00         -0.00          0.05
    76.11       2250.77         12.00         -0.00          4.21
    76.12       2246.83         12.00         -0.00         -3.16
    76.13       2250.82         12.00         -0.00          4.75
    76.14       2247.40         12.00         -0.00         -2.70
    76.15       2247.34         12.00         -0.00          0.62
    76.16       2247.29         12.00          0.00          0.57
    76.17       2243.24         12.00          0.00         -6.83
    76.18       2247.13         12.00          0.00          1.08
    76.19       2243.00         12.01          0.00         -6.48
    76.20       2242.86         12.01          0.01         -2.64
    76.21       2246.13         12.01          0.01          0.60
    76.22       2242.08         12.01          0.01         -6.82
    76.23       2245.43         12.01          0.01         -0.02
    76.24       2241.41         12.01          0.01         -7.96
    76.25       2244.81         12.01          0.01         -0.51
    76.26       2244.81         12.01          0.01         -0.56
    76.27       2244.84         12.01          0.01         -3.99
    76.28       2248.23         12.01          0.01          2.67
    76.29       2244.30         12.01          0.01         -4.88
    76.30       2247.75         12.01          0.02          1.81
    76.31       2247.78         12.01          0.02          1.70
    76.32       2244.46         12.01          0.02         -5.02
    76.33       2248.45         12.01          0.02          2.41
    76.34       2245.08         12.01          0.01         -4.31
    76.35       2249.07         12.01          0.01          3.75
    76.36       2245.67         12.01          0.01          0.38
    76.37       2245.67         12.01          0.01         -2.97
    76.38       2249.56         12.01          0.01          4.35
    76.39       2246.10         12.01          0.01         -2.40
    76.40       2250.07         12.01          0.01          5.18
    76.41       2246.67         12.01          0.00          2.05
    76.42       2250.69         12.01         -0.00          2.29
    76.43       2250.72         12.01         -0.00          5.75
    76.44       2246.70         12.01          0.00          1.59
    76.45       2250.66         12.01          0.00          4.86
    76.46       2246.67         12.01          0.01          0.76
    76.47       2250.58         12.01          0.01          0.65
    76.48       2250.61         12.01          0.01          4.13
    76.49       2246.70         12.01          0.00          0.27
    76.50       2250.72         12.01          0.00          3.75
    76.51       2246.78         12.01          0.00         -0.13
    76.52       2250.80         12.01          0.00         -0.11
    76.53       2246.86         12.01          0.00         -0.08
    76.54       2250.26         12.01          0.00          3.35
    76.55       2250.36         12.01         -0.00         -0.38
    76.56       2246.40         12.01         -0.00         -0.27
    76.57       2249.82         12.01         -0.01         -0.19
    76.58       2245.91         12.00         -0.01         -0.11
    76.59       2249.29         12.01         -0.01          3.18
    76.60       2249.34         12.00         -0.01         -0.76
    76.61       2245.37         12.00         -0.01         -0.78
    76.62       2249.37         12.00         -0.00         -0.84
    76.63       2245.43         12.00         -0.01         -0.81
    76.64       2248.83         12.00         -0.00          2.56
    76.65       2245.45         12.00         -0.01         -4.72
    76.66       2245.45         12.00         -0.01         -0.70
    76.67       2248.91         12.00         -0.01         -1.24
    76.68       2245.53         12.00         -0.01         -1.16
    76.69       2249.53         12.00         -0.01          2.89
    76.70       2246.21         12.00         -0.01         -4.32
    76.71       2249.58         12.00         -0.01          3.02
    76.72       2249.61         12.00         -0.01         -0.89
    76.73       2245.61         12.00         -0.01         -0.97
    76.74       2249.50         12.00         -0.01          2.80
    76.75       2246.07         12.00         -0.01         -4.05
    76.76       2249.42         12.00         -0.00          3.10
    76.77       2249.37         12.00         -0.00         -1.00
    76.78       2245.94         12.00         -0.00         -0.51
    76.79       2249.37         12.00          0.00          2.75
    76.80       2245.51         12.00          0.00         -5.21
    76.81       2249.55         12.00          0.00          2.62
    76.82       2246.26         12.00          0.00         -4.18
    76.83       2246.32         12.00          0.00         -0.22
    76.84       2250.28         12.00          0.00          3.78
    76.85       2246.34         12.00          0.00         -4.05
    76.86       2249.77         12.00          0.00          2.83
