#Written by Robertson Geologging WinLogger V1.5/410
~VERSION INFORMATION
#------------------------------------------------------------------------------
 VERS. 2.0 : CWLS LOG ASCII STANDARD - VERSION 2.0
 WRAP. NO  : ONE LINE PER DEPTH STEP
~WELL INFORMATION
#MNEM.UNIT         DATA                                DESCRIPTION OF MNEMONIC
#------------------------------------------------------------------------------
 STRT.M          0.0100                            :   START DEPTH
 STOP.M         89.0000                            :   STOP DEPTH
 STEP.M          0.0100                            :   STEP VALUE
 NULL.        -999.2500                            :   NULL VALUE
 COMP.    IWS                                      :   COMPANY NAME
 WELL.    Ladysmith                                :   WELL NAME
 FLD.     N/A                                      :   FIELD NAME
 LOC.     N/A                                      :   LOCATION
 PROV.    N/A                                      :   PROVINCE
 SRVC.    N/A                                      :   SERVICE COMPANY NAME
 DATE.    01 Feb 11                                :   DATE
 UWI.     N/A                                      :   UNIQUE WELL IDENTIFIER
~PARAMETER INFORMATION
#MNEMO.UNIT         VALUE                 DESCRIPTION OF MNEMONIC
#------------------------------------------------------------------------------
~OTHER INFORMATION SECTION
#------------------------------------------------------------------------------
 1365
~CURVE INFORMATION
#MNEMO.UNIT         API CODE              CURVE DESCRIPTION
#------------------------------------------------------------------------------
 DEPTH.M                                 :   0     Depth
 CN25.uS/cm                              :   1     Conductivity@25DegC
 TEMP.DegC                               :   2     Temperature
 DELT.DegC                               :   3     Delta T
 DELC.uS/cm                              :   4     Delta C
#------------------------------------------------------------------------------
~A  DEPTH          CN25          TEMP          DELT          DELC
# ...
    81.75       2250.23         12.00         -0.01          0.67
    81.76       2250.26         12.00         -0.01          0.59
    81.77       2250.85         12.00         -0.01          1.64
    81.78       2250.93         12.00         -0.01          1.65
    81.79       2250.96         12.00         -0.01          1.02
    81.80       2250.98         12.00         -0.01          1.08
    81.81       2251.06         11.99         -0.01          1.27
    81.82       2251.04         11.99         -0.01          1.35
    81.83       2254.95         12.00         -0.01          4.78
    81.84       2250.93         12.00         -0.01          0.75
    81.85       2254.30         12.00         -0.01          8.09
    81.86       2250.90         12.00         -0.01          0.67
    81.87       2250.85         12.00         -0.01          0.62
    81.88       2250.20         12.00         -0.01         -0.57
    81.89       2250.07         12.00         -0.01         -0.68
    81.90       2250.04         12.00         -0.01         -0.16
    81.91       2250.07         12.00         -0.01         -0.16
    81.92       2250.09         12.00         -0.01         -0.19
    81.93       2250.15         12.00         -0.01         -0.19
    81.94       2250.15         12.00         -0.01         -0.19
    81.95       2250.12         12.00         -0.01         -0.19
    81.96       2250.69         12.00         -0.01         -2.94
    81.97       2250.74         12.00         -0.01          1.13
    81.98       2254.20         12.00         -0.01          4.69
    81.99       2250.90         12.00         -0.01          1.99
    82.00       2250.96         12.00         -0.01          1.97
    82.01       2250.90         12.00         -0.01          1.86
    82.02       2250.82         12.00         -0.01          1.64
    82.03       2250.12         12.00         -0.00          1.35
    82.04       2250.01         12.00         -0.00          1.19
    82.05       2249.91         12.00          0.00          1.57
    82.06       2249.85         12.01          0.00          1.46
    82.07       2249.26         12.01          0.01          0.81
    82.08       2249.18         12.01          0.01          0.70
    82.09       2249.61         12.01          0.01         -2.32
    82.10       2249.47         12.01          0.01          0.97
    82.11       2253.31         12.01          0.01          1.51
    82.12       2249.23         12.02          0.01          0.95
    82.13       2249.23         12.02          0.01         -2.24
    82.14       2249.23         12.02          0.01          1.35
    82.15       2249.26         12.01          0.00          1.46
    82.16       2248.77         12.01          0.00          1.05
    82.17       2248.88         12.01         -0.00          1.19
    82.18       2249.53         12.01         -0.00          1.83
    82.19       2249.61         12.01         -0.00          2.00
    82.20       2249.80         12.01         -0.01          2.24
    82.21       2249.88         12.00         -0.01          2.32
    82.22       2249.99         12.00         -0.01          1.83
    82.23       2250.12         12.00         -0.01          1.91
    82.24       2254.06         12.00         -0.01          5.18
    82.25       2250.71         12.00         -0.01          1.86
    82.26       2254.14         12.00         -0.01          1.32
    82.27       2250.74         12.00         -0.01          1.35
    82.28       2254.09         12.00         -0.01          4.75
    82.29       2250.07         12.00         -0.01          0.70
    82.30       2253.95         12.00         -0.01          4.53
    82.31       2249.91         12.00         -0.01         -0.14
    82.32       2253.90         12.00         -0.01          3.86
    82.33       2249.85         12.01         -0.01         -0.19
    82.34       2253.74         12.01         -0.01          3.78
    82.35       2249.72         12.01         -0.01         -0.22
    82.36       2249.58         12.01         -0.00         -0.49
    82.37       2250.07         12.01          0.00         -0.05
    82.38       2249.99         12.01          0.00         -0.24
    82.39       2250.50         12.01          0.01         -3.21
    82.40       2250.45         12.01          0.01          0.19
    82.41       2250.42         12.01          0.01         -3.75
    82.42       2250.37         12.02          0.00          0.27
    82.43       2249.69         12.02          0.01         -4.32
    82.44       2249.69         12.02          0.01         -0.35
    82.45       2249.10         12.02          0.01         -1.02
    82.46       2249.15         12.02          0.01         -1.00
    82.47       2253.25         12.01          0.00          3.13
    82.48       2249.34         12.01          0.00         -0.78
    82.49       2253.41         12.01          0.00          3.35
    82.50       2249.50         12.01          0.00         -0.57
    82.51       2253.52         12.01         -0.00          3.43
    82.52       2249.69         12.01         -0.00         -0.46
    82.53       2253.76         12.01         -0.00          3.53
    82.54       2250.47         12.00         -0.00          0.70
    82.55       2253.93         12.00         -0.00          4.13
    82.56       2250.53         12.00         -0.00         -3.24
    82.57       2250.50         12.00         -0.00          0.70
    82.58       2249.85         12.01         -0.00          0.11
    82.59       2249.85         12.01         -0.00          0.08
    82.60       2249.80         12.01          0.00         -0.05
    82.61       2249.85         12.01          0.00         -0.05
    82.62       2249.93         12.00          0.00         -0.05
    82.63       2249.96         12.00          0.00          0.00
    82.64       2249.50         12.00         -0.00         -0.49
    82.65       2249.61         12.00         -0.00         -0.35
    82.66       2250.26         12.00         -0.00          0.27
    82.67       2250.36         12.00         -0.00          0.30
    82.68       2254.38         12.00         -0.01          4.29
    82.69       2251.04         11.99         -0.01         -3.05
    82.70       2255.03         11.99         -0.01          4.88
    82.71       2251.15         11.99         -0.01          0.97
    82.72       2255.11         11.99         -0.01          4.34
    82.73       2251.09         11.99         -0.01          0.32
    82.74       2254.41         12.00         -0.00          4.18
    82.75       2250.82         12.00          0.00          0.57
    82.76       2250.66         12.00          0.00         -0.19
    82.77       2250.63         12.00          0.00         -0.30
    82.78       2250.66         12.00          0.00         -0.30
    82.79       2250.15         12.00          0.00         -0.84
    82.80       2250.20         12.00          0.00         -0.86
    82.81       2250.17         12.00          0.00         -0.86
    82.82       2250.15         12.00          0.00         -4.80
    82.83       2249.58         12.00          0.00         -1.35
    82.84       2249.61         12.00          0.00         -4.70
    82.85       2250.20         12.00          0.00         -0.70
    82.86       2250.20         12.00          0.00         -0.65
    82.87       2253.60         12.00          0.00          3.40
    82.88       2249.58         12.00         -0.00         -0.49
    82.89       2253.55         12.00         -0.00          3.51
    82.90       2250.23         12.00         -0.00          0.16
    82.91       2253.71         12.00         -0.00          3.62
    82.92       2249.85         12.00         -0.00         -0.30
    82.93       2249.85         12.00         -0.00         -0.30
    82.94       2249.77         12.00         -0.00         -0.35
    82.95       2249.64         12.00         -0.00         -1.05
    82.96       2249.53         12.00          0.00         -1.21
