#Written by Robertson Geologging WinLogger V1.5/410
~VERSION INFORMATION
#------------------------------------------------------------------------------
 VERS. 2.0 : CWLS LOG ASCII STANDARD - VERSION 2.0
 WRAP. NO  : ONE LINE PER DEPTH STEP
~WELL INFORMATION
#MNEM.UNIT         DATA                                DESCRIPTION OF MNEMONIC
#------------------------------------------------------------------------------
 STRT.M          0.0100                            :   START DEPTH
 STOP.M         89.0000                            :   STOP DEPTH
 STEP.M          0.0100                            :   STEP VALUE
 NULL.        -999.2500                            :   NULL VALUE
 COMP.    IWS                                      :   COMPANY NAME
 WELL.    Ladysmith                                :   WELL NAME
 FLD.     N/A                                      :   FIELD NAME
 LOC.     N/A                                      :   LOCATION
 PROV.    N/A                                      :   PROVINCE
 SRVC.    N/A                                      :   SERVICE COMPANY NAME
 DATE.    01 Feb 11                                :   DATE
 UWI.     N/A                                      :   UNIQUE WELL IDENTIFIER
~PARAMETER INFORMATION
#MNEMO.UNIT         VALUE                 DESCRIPTION OF MNEMONIC
#------------------------------------------------------------------------------
~OTHER INFORMATION SECTION
#------------------------------------------------------------------------------
 1365
~CURVE INFORMATION
#MNEMO.UNIT         API CODE              CURVE DESCRIPTION
#------------------------------------------------------------------------------
 DEPTH.M                                 :   0     Depth
 CN25.uS/cm                              :   1     Conductivity@25DegC
 TEMP.DegC                               :   2     Temperature
 DELT.DegC                               :   3     Delta T
 DELC.uS/cm                              :   4     Delta C
#------------------------------------------------------------------------------
~A  DEPTH          CN25          TEMP          DELT          DELC
# ...
    12.21       1808.73         10.93          0.33         20.12
    12.22       1808.76         10.93          0.32         22.40
    12.23       1812.79         10.93          0.31         22.83
    12.24       1812.73         10.93          0.30         25.61
    12.25       1810.35         10.93          0.29         20.24
    12.26       1810.26         10.93          0.29         20.57
    12.27       1814.25         10.94          0.28         24.96
    12.28       1810.04         10.94          0.27         21.10
    12.29       1809.93         10.94          0.27         23.06
    12.30       1811.47         10.94          0.27         20.88
    12.31       1813.65         10.95          0.26         21.13
    12.32       1813.51         10.95          0.26         21.46
    12.33       1810.96         10.95          0.25         17.57
    12.34       1810.80         10.96          0.25         21.81
    12.35       1810.62         10.96          0.25         17.81
    12.36       1814.48         10.96          0.25         21.89
    12.37       1814.32         10.97          0.24         23.83
    12.38       1808.34         10.97          0.24         14.07
    12.39       1812.31         10.97          0.24         20.63
    12.40       1813.94         10.98          0.23         18.41
    12.41       1809.84         10.98          0.23         18.61
    12.42       1809.78         10.98          0.23         16.92
    12.43       1809.69         10.98          0.23         16.92
    12.44       1811.99         10.98          0.23         16.92
    12.45       1813.68         10.98          0.23         20.95
    12.46       1813.63         10.98          0.23         18.56
    12.47       1811.95         10.98          0.23         16.90
    12.48       1809.64         10.98          0.23         12.88
    12.49       1817.19         10.98          0.23         20.50
    12.50       1814.82         10.98          0.23         15.91
    12.51       1812.94         10.98          0.23         16.49
    12.52       1815.09         10.99          0.23         18.73
    12.53       1816.70         10.99          0.23         18.08
    12.54       1816.59         10.99          0.23         16.30
    12.55       1816.48         10.99          0.23         20.47
    12.56       1814.66         11.00          0.22         14.80
    12.57       1814.64         11.00          0.22         15.05
    12.58       1814.57         11.00          0.22         15.22
    12.59       1816.86         11.00          0.21         17.69
    12.60       1815.15         11.00          0.21         16.16
    12.61       1817.55         11.00          0.21         16.94
    12.62       1817.66         10.99          0.20         18.98
    12.63       1815.47         10.99          0.19         12.87
    12.64       1813.81         10.99          0.19         13.71
    12.65       1817.33         10.99          0.18         19.18
    12.66       1815.06         10.99          0.18         11.18
    12.67       1815.09         10.99          0.18         13.07
    12.68       1816.81         10.99          0.18         17.29
    12.69       1816.79         10.99          0.17         13.31
    12.70       1816.72         10.99          0.17         15.17
    12.71       1816.63         10.99          0.17         15.22
    12.72       1816.52         10.99          0.17         16.97
    12.73       1816.45         10.99          0.17         12.94
    12.74       1820.48         11.00          0.17         19.45
    12.75       1820.42         11.00          0.16         17.24
    12.76       1814.59         11.00          0.16          9.87
    12.77       1820.30         11.00          0.16         17.51
    12.78       1820.28         11.00          0.16         17.71
    12.79       1816.23         11.00          0.15         13.72
    12.80       1819.59         11.00          0.16         17.15
    12.81       1819.43         11.00          0.16         12.99
    12.82       1815.72         11.01          0.16         11.66
    12.83       1817.22         11.01          0.16          9.22
    12.84       1817.08         11.02          0.16         13.36
    12.85       1817.01         11.02          0.16         13.42
    12.86       1816.95         11.02          0.16         13.49
    12.87       1820.95         11.02          0.16         15.27
    12.88       1817.42         11.02          0.16         14.18
    12.89       1817.30         11.02          0.16         10.09
    12.90       1819.56         11.02          0.15         14.26
    12.91       1817.84         11.02          0.15         10.94
    12.92       1817.93         11.02          0.15         15.25
    12.93       1821.53         11.02          0.14         16.72
    12.94       1819.90         11.02          0.14         15.22
    12.95       1819.86         11.02          0.13         13.56
    12.96       1819.68         11.02          0.14         11.15
    12.97       1819.54         11.03          0.14         11.09
    12.98       1821.13         11.03          0.14         16.81
    12.99       1819.34         11.03          0.14         12.70
    13.00       1821.09         11.03          0.14         16.78
    13.01       1821.02         11.03          0.14         12.70
    13.02       1822.79         11.03          0.14         16.28
    13.03       1822.67         11.03          0.14         12.15
    13.04       1822.56         11.03          0.14         12.13
    13.05       1822.45         11.04          0.14         16.24
    13.06       1824.10         11.04          0.14         13.94
    13.07       1822.36         11.04          0.13         12.37
    13.08       1824.15         11.04          0.13         18.40
    13.09       1820.75         11.04          0.13          9.30
    13.10       1822.47         11.04          0.12         11.20
    13.11       1822.49         11.04          0.12         13.16
    13.12       1822.52         11.04          0.11         13.38
    13.13       1820.73         11.04          0.11         11.79
    13.14       1820.84         11.03          0.11         12.06
    13.15       1822.63         11.03          0.10         16.29
    13.16       1820.28         11.03          0.10          9.88
    13.17       1822.07         11.03          0.10         13.42
    13.18       1819.74         11.03          0.10         11.05
    13.19       1821.47         11.03          0.10         10.98
    13.20       1823.19         11.03          0.10         14.45
    13.21       1823.21         11.03          0.10         14.45
    13.22       1823.14         11.03          0.10         10.35
    13.23       1823.08         11.04          0.10         10.35
    13.24       1823.05         11.04          0.10         12.70
    13.25       1822.87         11.04          0.11         12.61
    13.26       1821.02         11.04          0.11          6.76
    13.27       1823.32         11.04          0.10         13.28
    13.28       1823.30         11.04          0.10         13.37
    13.29       1827.37         11.04          0.10         15.89
    13.30       1823.81         11.04          0.10         10.16
    13.31       1823.70         11.05          0.10         10.18
    13.32       1823.59         11.05          0.09         12.63
    13.33       1823.52         11.05          0.09         12.72
    13.34       1823.50         11.05          0.09         12.87
    13.35       1825.17         11.05          0.09         10.69
    13.36       1825.20         11.05          0.08         10.87
    13.37       1823.50         11.05          0.08         15.16
    13.38       1827.03         11.05          0.08         14.72
    13.39       1823.50         11.05          0.07          9.55
    13.40       1823.45         11.05          0.08         13.61
    13.41       1825.15         11.05          0.07         15.37
    13.42       1823.36         11.05          0.07         13.68
