#Written by Robertson Geologging WinLogger V1.5/410
~VERSION INFORMATION
#------------------------------------------------------------------------------
 VERS. 2.0 : CWLS LOG ASCII STANDARD - VERSION 2.0
 WRAP. NO  : ONE LINE PER DEPTH STEP
~WELL INFORMATION
#MNEM.UNIT         DATA                                DESCRIPTION OF MNEMONIC
#------------------------------------------------------------------------------
 STRT.M          2.0200                            :   START DEPTH
 STOP.M         91.0000                            :   STOP DEPTH
 STEP.M          0.0100                            :   STEP VALUE
 NULL.        -999.2500                            :   NULL VALUE
 COMP.    IWS                                      :   COMPANY NAME
 WELL.    LADYSMITH                                :   WELL NAME
 FLD.     DURHAM                                   :   FIELD NAME
 LOC.     N/A                                      :   LOCATION
 PROV.    N/A                                      :   PROVINCE
 SRVC.    N/A                                      :   SERVICE COMPANY NAME
 DATE.    16 Dec 09                                :   DATE
 UWI.     N/A                                      :   UNIQUE WELL IDENTIFIER
~PARAMETER INFORMATION
#MNEMO.UNIT         VALUE                 DESCRIPTION OF MNEMONIC
#------------------------------------------------------------------------------
~OTHER INFORMATION SECTION
#------------------------------------------------------------------------------
 TCDS 1365
~CURVE INFORMATION
#MNEMO.UNIT         API CODE              CURVE DESCRIPTION
#------------------------------------------------------------------------------
 DEPTH.M                                 :   0     Depth
 TEMP.DegC                               :   1     Temperature
 COND.uS/cm                              :   2     Conductivity@25DegC
 COND.uS/cm                              :   3     Absolute Conductivity
 DELT.DegC                               :   4     Delta T
 DELC.uS/cm                              :   5     Delta C
#------------------------------------------------------------------------------
~A  DEPTH          TEMP          COND          COND          DELT          DELC
# ...
    25.02         11.30       1792.02       1301.17          0.05         -1.71
    25.03         11.31       1795.99       1304.10          0.05          0.51
    25.04         11.31       1791.31       1300.75          0.05         -6.51
    25.05         11.31       1795.27       1303.68          0.05         -0.22
    25.06         11.31       1791.23       1300.75          0.05         -4.24
    25.07         11.31       1795.86       1304.10          0.05          2.22
    25.08         11.31       1795.84       1304.10          0.05          0.47
    25.09         11.31       1795.84       1304.10          0.05         -1.91
    25.10         11.31       1795.84       1304.10          0.05          2.13
    25.11         11.31       1791.80       1301.17          0.05         -1.97
    25.12         11.31       1795.80       1304.10          0.05          1.98
    25.13         11.31       1795.76       1304.10          0.05         -2.04
    25.14         11.31       1795.61       1304.10          0.05          1.92
    25.15         11.32       1793.12       1302.42          0.06         -0.54
    25.16         11.32       1791.29       1301.17          0.06         -6.40
    25.17         11.32       1795.22       1304.10          0.06         -2.58
    25.18         11.32       1790.54       1300.75          0.07         -7.43
    25.19         11.32       1794.57       1303.68          0.07          0.56
    25.20         11.32       1790.49       1300.75          0.07         -3.52
    25.21         11.33       1792.14       1302.00          0.07         -5.90
    25.22         11.33       1794.42       1303.68          0.07         -3.55
    25.23         11.33       1794.40       1303.68          0.07         -1.15
    25.24         11.33       1792.07       1302.00          0.07         -1.77
    25.25         11.32       1790.45       1300.75          0.07         -7.35
    25.26         11.32       1794.55       1303.68          0.06         -3.18
    25.27         11.32       1796.26       1304.94          0.06         -1.41
    25.28         11.32       1794.51       1303.68          0.06          1.06
    25.29         11.33       1792.16       1302.00          0.06         -1.16
    25.30         11.33       1792.09       1302.00          0.06         -5.18
    25.31         11.33       1794.40       1303.68          0.06         -4.52
    25.32         11.33       1794.42       1303.68          0.05         -2.66
    25.33         11.33       1792.07       1302.00          0.05         -0.84
    25.34         11.33       1794.94       1304.10          0.05         -1.87
    25.35         11.33       1794.89       1304.10          0.05         -1.74
    25.36         11.33       1796.54       1305.36          0.05         -0.03
    25.37         11.33       1794.76       1304.10          0.05          0.60
    25.38         11.33       1790.73       1301.17          0.05         -1.69
    25.39         11.33       1792.46       1302.42          0.05         -4.02
    25.40         11.33       1794.76       1304.10          0.04         -3.36
    25.41         11.33       1794.78       1304.10          0.04         -1.58
    25.42         11.33       1792.52       1302.42          0.04          0.28
    25.43         11.33       1795.47       1304.52          0.04          1.54
    25.44         11.33       1795.51       1304.52          0.04         -0.86
    25.45         11.33       1792.63       1302.42          0.04         -3.89
    25.46         11.33       1794.94       1304.10          0.05          0.60
    25.47         11.33       1794.96       1304.10          0.05          2.26
    25.48         11.33       1792.69       1302.42          0.05         -4.04
    25.49         11.33       1796.77       1305.36          0.05         -1.67
    25.50         11.32       1795.09       1304.10          0.04         -1.63
    25.51         11.32       1796.80       1305.36          0.05          4.04
    25.52         11.33       1792.71       1302.42          0.05         -1.78
    25.53         11.33       1794.98       1304.10          0.05         -1.84
    25.54         11.33       1792.03       1302.00          0.05         -4.81
    25.55         11.33       1796.02       1304.94          0.05          1.60
    25.56         11.33       1794.25       1303.68          0.05          1.62
    25.57         11.33       1791.86       1302.00          0.05         -4.73
    25.58         11.33       1789.98       1300.75          0.05         -4.21
    25.59         11.34       1793.91       1303.68          0.05         -3.15
    25.60         11.34       1793.80       1303.68          0.05          0.81
    25.61         11.34       1793.69       1303.68          0.05          0.79
    25.62         11.34       1789.65       1300.75          0.05         -7.21
    25.63         11.34       1793.62       1303.68          0.05          0.87
    25.64         11.34       1793.52       1303.68          0.05         -0.92
    25.65         11.34       1793.54       1303.68          0.05          0.79
    25.66         11.35       1789.44       1300.75          0.06         -7.42
    25.67         11.35       1791.17       1302.00          0.06         -3.36
    25.68         11.34       1793.56       1303.68          0.05          0.76
    25.69         11.34       1795.35       1304.94          0.05         -1.48
    25.70         11.34       1791.43       1302.00          0.05          1.54
    25.71         11.34       1794.40       1304.10          0.05         -2.38
    25.72         11.34       1792.09       1302.42          0.05         -2.40
    25.73         11.34       1794.37       1304.10          0.05         -0.05
    25.74         11.34       1794.40       1304.10          0.05          0.02
    25.75         11.34       1796.19       1305.36          0.04          3.59
    25.76         11.34       1792.15       1302.42          0.04         -2.05
    25.77         11.34       1794.48       1304.10          0.04          2.12
    25.78         11.34       1794.40       1304.10          0.04         -1.94
    25.79         11.34       1794.29       1304.10          0.04          0.30
    25.80         11.34       1794.27       1304.10          0.04          2.10
    25.81         11.34       1794.14       1304.10          0.04         -2.03
    25.82         11.34       1791.25       1302.00          0.04         -1.98
    25.83         11.34       1793.60       1303.68          0.04         -1.84
    25.84         11.34       1795.38       1304.94          0.04          3.98
    25.85         11.34       1793.71       1303.68          0.03         -1.68
    25.86         11.34       1793.69       1303.68          0.03         -1.66
    25.87         11.34       1793.65       1303.68          0.03         -1.71
    25.88         11.34       1793.60       1303.68          0.03          0.62
    25.89         11.34       1793.65       1303.68          0.03          2.42
    25.90         11.34       1795.42       1304.94          0.03          0.13
    25.91         11.34       1793.71       1303.68          0.03          0.62
    25.92         11.34       1793.78       1303.68          0.03         -2.30
    25.93         11.34       1793.73       1303.68          0.04          1.56
    25.94         11.34       1793.71       1303.68          0.04         -0.23
    25.95         11.34       1793.67       1303.68          0.04         -2.54
    25.96         11.34       1791.28       1302.00          0.04         -0.87
    25.97         11.34       1789.52       1300.75          0.04         -4.31
    25.98         11.34       1793.56       1303.68          0.04          1.50
    25.99         11.34       1795.29       1304.94          0.04         -0.81
    26.00         11.34       1793.58       1303.68          0.04         -0.21
    26.01         11.34       1793.50       1303.68          0.04          1.48
