#Written by Robertson Geologging WinLogger V1.0/406
~VERSION INFORMATION
#------------------------------------------------------------------------------
 VERS. 2.0 : CWLS LOG ASCII STANDARD - VERSION 2.0
 WRAP. NO  : ONE LINE PER DEPTH STEP
~WELL INFORMATION
#MNEM.UNIT         DATA                                DESCRIPTION OF MNEMONIC
#------------------------------------------------------------------------------
 STRT.M          0.0600                            :   START DEPTH
 STOP.M         95.0200                            :   STOP DEPTH
 STEP.M          0.0100                            :   STEP VALUE
 NULL.        -999.2500                            :   NULL VALUE
 COMP.    Coal Authority                           :   COMPANY NAME
 WELL.    Ladysmith Shaft                          :   WELL NAME
 FLD.     Ladysmith                                :   FIELD NAME
 LOC.     N/A                                      :   LOCATION
 PROV.    N/A                                      :   PROVINCE
 SRVC.    N/A                                      :   SERVICE COMPANY NAME
 DATE.    20 May 08                                :   DATE
 UWI.     N/A                                      :   UNIQUE WELL IDENTIFIER
~PARAMETER INFORMATION
#MNEMO.UNIT         VALUE                 DESCRIPTION OF MNEMONIC
#------------------------------------------------------------------------------
~OTHER INFORMATION SECTION
#------------------------------------------------------------------------------
 TCDS 1365
~CURVE INFORMATION
#MNEMO.UNIT         API CODE              CURVE DESCRIPTION
#------------------------------------------------------------------------------
 DEPTH.M                                 :   0     Depth
 TEMP.DegC                               :   1     Temperature
 COND.uS/cm                              :   2     Absolute Conductivity
 COND.uS/cm                              :   3     Conductivity@25DegC
 DELT.DegC                               :   4     Delta T
 DELC.uS/cm                              :   5     Delta C
#------------------------------------------------------------------------------
~A  DEPTH     TEMP      COND      COND      DELT      DELC      
# ...
    75.30     12.08   1752.01   2362.71      0.00      7.32 
    75.31     12.08   1744.77   2352.94      0.00      0.00 
    75.32     12.08   1746.58   2355.38      0.01     -7.94 
    75.33     12.07   1752.01   2363.01     -0.00     10.07 
    75.34     12.08   1744.77   2352.94      0.00    -10.98 
    75.35     12.08   1752.92   2363.93      0.00     10.98 
    75.36     12.07   1744.77   2353.25     -0.01     -9.15 
    75.37     12.08   1752.01   2362.40      0.00      9.46 
    75.38     12.08   1744.77   2352.64      0.01    -10.38 
    75.39     12.08   1752.92   2363.62      0.01      7.93 
    75.40     12.09   1744.77   2352.33      0.00    -10.07 
    75.41     12.08   1752.01   2362.40      0.00      9.46 
    75.42     12.07   1746.58   2355.69     -0.00     -7.02 
    75.43     12.07   1752.01   2363.01     -0.01      7.94 
    75.44     12.08   1744.77   2352.64      0.00    -10.07 
    75.45     12.08   1752.92   2363.62      0.01     10.37 
    75.46     12.09   1744.77   2352.03      0.00    -10.07 
    75.47     12.10   1752.01   2361.48      0.01     -0.92 
    75.48     12.08   1746.58   2355.08      0.00     -0.31 
    75.49     12.08   1752.01   2362.40      0.01      9.15 
    75.50     12.08   1744.77   2352.64      0.03    -11.92 
    75.51     12.07   1746.58   2355.69      0.03     -9.17 
    75.52     12.07   1752.01   2363.32      0.02      8.23 
    75.53     12.07   1752.01   2363.32      0.01      6.40 
    75.54     12.07   1746.58   2356.00      0.01     -7.94 
    75.55     12.07   1744.77   2353.25      0.02    -11.00 
    75.56     12.09   1752.01   2362.09      0.03      7.62 
    75.57     12.07   1746.58   2355.69      0.02     -8.55 
    75.58     12.07   1752.01   2363.32      0.00      7.32 
    75.59     12.06   1744.77   2353.86     -0.01      0.61 
    75.60     12.06   1752.01   2363.94     -0.02      1.54 
    75.61     12.07   1746.58   2355.69     -0.01     -6.40 
    75.62     12.07   1752.01   2363.01     -0.00     10.07 
    75.63     12.08   1744.77   2352.94     -0.00     -2.13 
    75.64     12.08   1752.92   2363.93      0.00      0.91 
    75.65     12.07   1744.77   2353.25      0.00     -9.76 
    75.66     12.08   1752.01   2362.40      0.00      9.76 
    75.67     12.08   1744.77   2352.94      0.00     -2.75 
    75.68     12.07   1752.01   2363.01     -0.00      0.31 
    75.69     12.08   1746.58   2355.08      0.01     -7.94 
    75.70     12.08   1752.01   2362.40      0.01      9.15 
    75.71     12.08   1744.77   2352.94      0.00     -2.75 
    75.72     12.07   1752.01   2363.01      0.00     -0.31 
    75.73     12.07   1744.77   2353.56     -0.00     -9.46 
    75.74     12.07   1752.01   2363.01      0.00      9.76 
    75.75     12.09   1746.58   2354.77      0.01     -0.92 
    75.76     12.09   1752.01   2362.09      0.00     -0.31 
    75.77     12.09   1744.77   2352.33      0.00     -9.76 
    75.78     12.09   1752.01   2362.09      0.00      9.45 
    75.79     12.09   1744.77   2352.03      0.01     -3.36 
    75.80     12.09   1752.92   2363.00      0.00      0.91 
    75.81     12.09   1744.77   2352.33      0.00    -10.07 
    75.82     12.08   1752.01   2362.40     -0.00      7.63 
    75.83     12.08   1744.77   2352.94     -0.02      1.22 
    75.84     12.08   1752.92   2363.93     -0.01      2.14 
    75.85     12.07   1744.77   2353.25     -0.02     -8.53 
    75.86     12.07   1752.01   2363.01     -0.02     10.99 
    75.87     12.07   1744.77   2353.25     -0.02     -1.21 
    75.88     12.07   1752.01   2363.32     -0.01      0.92 
    75.89     12.08   1744.77   2352.94      0.00    -10.07 
    75.90     12.08   1752.92   2363.93      0.00     10.68 
    75.91     12.07   1737.53   2343.49      0.00    -19.84 
    75.92     12.07   1752.01   2363.32      0.00      7.02 
    75.93     12.07   1744.77   2353.56      0.00     -9.77 
    75.94     12.05   1752.92   2365.47     -0.00     11.30 
    75.95     12.06   1744.77   2353.86      0.01    -10.38 
    75.96     12.07   1752.01   2363.32     -0.00     10.07 
    75.97     12.07   1744.77   2353.56     -0.01    -10.06 
    75.98     12.07   1752.92   2364.23     -0.02     12.21 
    75.99     12.07   1744.77   2353.56     -0.03     -7.61 
    76.00     12.08   1752.01   2362.71     -0.01     10.38 
    76.01     12.07   1746.58   2356.00     -0.01     -6.71 
    76.02     12.08   1752.01   2362.71      0.01      9.15 
    76.03     12.08   1744.77   2352.94      0.00    -10.07 
    76.04     12.08   1746.58   2355.38      0.00      2.44 
    76.05     12.08   1752.01   2362.71     -0.00     -0.91 
    76.06     12.08   1752.01   2362.71     -0.00     10.07 
    76.07     12.08   1744.77   2352.94      0.00    -10.07 
    76.08     12.07   1746.58   2355.69      0.00      2.13 
    76.09     12.09   1752.01   2362.09      0.01     -2.14 
    76.10     12.09   1752.01   2362.09      0.01      8.84 
    76.11     12.09   1744.77   2352.33      0.01    -10.68 
    76.12     12.09   1752.01   2361.78      0.02      8.23 
    76.13     12.08   1744.77   2352.64      0.01    -11.91 
    76.14     12.08   1752.01   2362.71      0.01      9.15 
    76.15     12.07   1746.58   2355.69     -0.00     -7.02 
    76.16     12.07   1752.01   2363.32     -0.01      8.24 
    76.17     12.07   1744.77   2353.56     -0.01     -8.84 
    76.18     12.07   1752.01   2363.32     -0.01     10.38 
    76.19     12.08   1744.77   2352.64      0.01    -10.38 
    76.20     12.08   1752.01   2362.40      0.00      7.32 
    76.21     12.08   1746.58   2355.08      0.00     -7.63 
    76.22     12.08   1752.01   2362.40      0.00      9.46 
    76.23     12.07   1744.77   2353.25     -0.01     -9.15 
    76.24     12.07   1752.01   2363.32      0.00      7.32 
    76.25     12.07   1744.77   2353.25      0.01    -10.38 
    76.26     12.07   1752.01   2363.32      0.00      9.77 
    76.27     12.06   1744.77   2354.17      0.00     -9.77 
    76.28     12.07   1752.01   2363.32     -0.00      7.63 
    76.29     12.07   1744.77   2353.56     -0.01     -9.15 
    76.30     12.08   1752.92   2363.62      0.00     10.68 
    76.31     12.09   1744.77   2352.33      0.01     -3.05 
    76.32     12.07   1752.01   2363.01      0.00      0.00 
    76.33     12.08   1744.77   2352.94      0.00      0.00 
    76.34     12.07   1752.01   2363.01     -0.00     -0.91 
    76.35     12.08   1744.77   2352.94      0.00     -0.31 
    76.36     12.09   1752.92   2363.31      0.00      0.91 
    76.37     12.08   1744.77   2352.94     -0.00      0.31 
    76.38     12.08   1752.01   2362.71     -0.00     -0.91 
    76.39     12.08   1746.58   2355.38     -0.01      3.05 
    76.40     12.08   1752.01   2362.40      0.00      0.00 
    76.41     12.08   1744.77   2352.64      0.01     -3.05 
    76.42     12.08   1752.92   2363.93      0.00      0.91 
    76.43     12.08   1744.77   2352.94     -0.00      0.31 
    76.44     12.07   1752.01   2363.01     -0.01     -0.61 
    76.45     12.07   1746.58   2355.69     -0.02      3.67 
    76.46     12.07   1752.01   2363.01     -0.02      1.54 
    76.47     12.08   1746.58   2355.08      0.00      0.00 
    76.48     12.09   1744.77   2352.33      0.00    -10.07 
    76.49     12.08   1752.01   2362.40      0.00      9.76 
    76.50     12.09   1746.58   2354.77      0.01     -0.92 
    76.51     12.08   1752.01   2362.71      0.01     -0.62 
    76.52     12.08   1744.77   2352.64      0.01    -10.68 
    76.53     12.09   1752.01   2361.78      0.02      5.79 
    76.54     12.09   1746.58   2354.77      0.01      1.52 
    76.55     12.10   1752.01   2361.48      0.01     -0.61 
    76.56     12.09   1744.77   2352.03      0.02     -3.67 
    76.57     12.09   1752.92   2363.00      0.02     -0.32 
    76.58     12.09   1744.77   2352.33      0.02     -1.53 
    76.59     12.09   1752.01   2361.78      0.03     -2.15 
    76.60     12.08   1746.58   2355.08      0.01     -0.61 
    76.61     12.09   1752.01   2362.09      0.01     -0.92 
