#Written by Robertson Geologging WinLogger V1.5/410
~VERSION INFORMATION
#------------------------------------------------------------------------------
 VERS. 2.0 : CWLS LOG ASCII STANDARD - VERSION 2.0
 WRAP. NO  : ONE LINE PER DEPTH STEP
~WELL INFORMATION
#MNEM.UNIT         DATA                                DESCRIPTION OF MNEMONIC
#------------------------------------------------------------------------------
 STRT.M          0.0600                            :   START DEPTH
 STOP.M         94.0500                            :   STOP DEPTH
 STEP.M          0.0100                            :   STEP VALUE
 NULL.        -999.2500                            :   NULL VALUE
 COMP.    Coal Authority                           :   COMPANY NAME
 WELL.    Ladysmith Shaft                          :   WELL NAME
 FLD.     N/A                                      :   FIELD NAME
 LOC.     N/A                                      :   LOCATION
 PROV.    N/A                                      :   PROVINCE
 SRVC.    N/A                                      :   SERVICE COMPANY NAME
 DATE.    15 Dec 08                                :   DATE
 UWI.     N/A                                      :   UNIQUE WELL IDENTIFIER
~PARAMETER INFORMATION
#MNEMO.UNIT         VALUE                 DESCRIPTION OF MNEMONIC
#------------------------------------------------------------------------------
~OTHER INFORMATION SECTION
#------------------------------------------------------------------------------
 TCDS 1365
 15,12,2008
~CURVE INFORMATION
#MNEMO.UNIT         API CODE              CURVE DESCRIPTION
#------------------------------------------------------------------------------
 DEPTH.M                                 :   0     Depth
 COND.uS/cm                              :   1     Conductivity@25DegC
 COND.uS/cm                              :   2     Absolute Conductivity
 TEMP.DegC                               :   3     Temperature
 DELT.DegC                               :   4     Delta T
 DELC.uS/cm                              :   5     Delta C
 NGAM.CPS                                :   6     Natural Gamma
#------------------------------------------------------------------------------
~A  DEPTH          COND          COND          TEMP          DELT          DELC          NGAM
# ...
    37.04       2324.37       1710.55         11.80         -0.00        -13.50          1.18
    37.05       2325.00       1710.98         11.80         -0.00        -12.30          1.18
    37.06       2325.00       1710.98         11.80         -0.00         -8.29          1.18
    37.07       2325.06       1710.98         11.79         -0.01        -12.84          1.18
    37.08       2325.63       1711.40         11.79         -0.01        -12.24          0.76
    37.09       2325.03       1710.98         11.79         -0.01        -12.24          0.76
    37.10       2325.52       1711.40         11.80         -0.01         -7.66          0.76
    37.11       2325.35       1711.40         11.80         -0.00        -11.72          0.76
    37.12       2329.71       1714.77         11.80         -0.00         -7.28          1.12
    37.13       2326.06       1712.24         11.81          0.00        -10.88          1.12
    37.14       2325.89       1712.24         11.81          0.00        -11.04          1.06
    37.15       2330.39       1715.62         11.81          0.00         -7.12          0.71
    37.16       2330.36       1715.62         11.81          0.01         -7.20          0.71
    37.17       2330.42       1715.62         11.81          0.01         -7.20          0.71
    37.18       2330.45       1715.62         11.81          0.00         -7.17          1.12
    37.19       2330.47       1715.62         11.81          0.01         -7.20          1.12
    37.20       2330.53       1715.62         11.81          0.00         -7.15          1.12
    37.21       2330.53       1715.62         11.81          0.00         -7.15          1.12
    37.22       2329.98       1715.19         11.81          0.00         -7.69          1.12
    37.23       2326.00       1712.24         11.81          0.00        -12.16          1.12
    37.24       2328.86       1714.35         11.81          0.00         -9.22          1.12
    37.25       2328.89       1714.35         11.81          0.00         -9.16          1.12
    37.26       2324.25       1710.98         11.81          0.00        -13.77          1.12
    37.27       2324.22       1710.98         11.81          0.00        -13.83          1.12
    37.28       2324.14       1710.98         11.81          0.00        -13.97          1.12
    37.29       2324.09       1710.98         11.81          0.01        -14.13          1.18
    37.30       2323.46       1710.55         11.81          0.01        -14.87          1.18
    37.31       2323.95       1710.98         11.81          0.01        -14.50          1.65
    37.32       2323.92       1710.98         11.81          0.01        -14.12          1.65
    37.33       2324.46       1711.40         11.81          0.02        -13.71          1.65
    37.34       2324.49       1711.40         11.81          0.02        -13.28          1.65
    37.35       2324.52       1711.40         11.81          0.02        -13.39          1.24
    37.36       2324.52       1711.40         11.81          0.02        -13.39          1.24
    37.37       2325.12       1711.82         11.81          0.02        -12.25          1.59
    37.38       2329.16       1714.77         11.81          0.02         -8.76          1.59
    37.39       2329.18       1714.77         11.81          0.02         -8.13          1.59
    37.40       2329.21       1714.77         11.81          0.02         -8.07          1.59
    37.41       2329.27       1714.77         11.81          0.02         -7.93          1.59
    37.42       2328.67       1714.35         11.81          0.02         -8.50          2.00
    37.43       2328.70       1714.35         11.81          0.01         -8.94          2.00
    37.44       2328.23       1713.93         11.81          0.01         -5.28          2.00
    37.45       2328.34       1713.93         11.81          0.01         -9.67          2.71
    37.46       2329.11       1714.35         11.80          0.00         -8.81          2.29
    37.47       2328.76       1713.93         11.80         -0.00         -4.55          2.29
    37.48       2328.87       1713.93         11.80         -0.00         -4.99          1.82
    37.49       2324.37       1710.55         11.80         -0.01        -13.41          1.82
    37.50       2325.03       1710.98         11.79         -0.01        -13.30          1.82
    37.51       2324.54       1710.55         11.79         -0.01         -9.13          1.82
    37.52       2325.19       1710.98         11.79         -0.01         -7.87          1.82
    37.53       2325.31       1710.98         11.79         -0.01        -12.29          2.65
    37.54       2325.39       1710.98         11.79         -0.02        -12.15          2.29
    37.55       2325.31       1710.98         11.79         -0.01        -11.74          2.29
    37.56       2325.25       1710.98         11.79         -0.01         -7.82          2.29
    37.57       2329.15       1713.93         11.79         -0.01         -3.45          2.29
    37.58       2329.53       1714.35         11.80         -0.00         -3.76          2.29
    37.59       2329.42       1714.35         11.80         -0.00         -3.35          1.88
    37.60       2329.28       1714.35         11.80          0.00         -3.58          1.88
    37.61       2329.19       1714.35         11.80          0.00         -3.09          1.88
    37.62       2329.14       1714.35         11.80          0.01         -3.77          1.18
    37.63       2328.51       1713.93         11.80          0.01         -5.00          1.18
    37.64       2329.06       1714.35         11.80          0.01         -0.56          1.18
    37.65       2332.98       1717.30         11.80          0.01          3.86          0.82
    37.66       2333.55       1717.72         11.80          0.01          3.89          0.82
    37.67       2332.93       1717.30         11.81          0.01          3.80          0.82
    37.68       2328.89       1714.35         11.81          0.01         -4.76          0.82
    37.69       2328.32       1713.93         11.81          0.01         -5.33          0.82
    37.70       2328.34       1713.93         11.81          0.01         -5.28          0.41
    37.71       2332.93       1717.30         11.81          0.01          3.34          0.41
    37.72       2332.90       1717.30         11.81          0.01          3.32          0.41
    37.73       2332.76       1717.30         11.81          0.01          3.18          0.41
    37.74       2333.11       1717.72         11.81          0.02         -0.54          0.41
    37.75       2332.94       1717.72         11.81          0.02         -0.71          0.41
    37.76       2332.83       1717.72         11.82          0.02         -0.82          0.82
    37.77       2332.20       1717.30         11.82          0.02         -1.47          0.82
    37.78       2332.83       1717.72         11.82          0.02         -0.82          0.82
    37.79       2332.89       1717.72         11.82          0.02          3.25          0.82
    37.80       2333.49       1718.14         11.81          0.02          4.50          0.82
    37.81       2337.52       1721.09         11.81          0.02          8.02          1.18
    37.82       2333.54       1718.14         11.81          0.02          4.64          1.18
    37.83       2333.00       1717.72         11.81          0.02          3.58          1.18
    37.84       2333.14       1717.72         11.81          0.01         -0.23          1.53
    37.85       2333.39       1717.72         11.81          0.01          4.08          1.94
    37.86       2337.56       1720.67         11.80          0.00          8.89          1.94
    37.87       2333.69       1717.72         11.80          0.00          4.47          1.53
    37.88       2333.75       1717.72         11.80          0.00          4.50          1.53
    37.89       2333.69       1717.72         11.80          0.00          4.39          1.53
