#Written by Robertson Geologging WinLogger V1.5/410
~VERSION INFORMATION
#------------------------------------------------------------------------------
 VERS. 2.0 : CWLS LOG ASCII STANDARD - VERSION 2.0
 WRAP. NO  : ONE LINE PER DEPTH STEP
~WELL INFORMATION
#MNEM.UNIT         DATA                                DESCRIPTION OF MNEMONIC
#------------------------------------------------------------------------------
 STRT.M          0.0100                            :   START DEPTH
 STOP.M         89.0000                            :   STOP DEPTH
 STEP.M          0.0100                            :   STEP VALUE
 NULL.        -999.2500                            :   NULL VALUE
 COMP.    IWS                                      :   COMPANY NAME
 WELL.    Ladysmith                                :   WELL NAME
 FLD.     N/A                                      :   FIELD NAME
 LOC.     N/A                                      :   LOCATION
 PROV.    N/A                                      :   PROVINCE
 SRVC.    N/A                                      :   SERVICE COMPANY NAME
 DATE.    01 Feb 11                                :   DATE
 UWI.     N/A                                      :   UNIQUE WELL IDENTIFIER
~PARAMETER INFORMATION
#MNEMO.UNIT         VALUE                 DESCRIPTION OF MNEMONIC
#------------------------------------------------------------------------------
~OTHER INFORMATION SECTION
#------------------------------------------------------------------------------
 1365
~CURVE INFORMATION
#MNEMO.UNIT         API CODE              CURVE DESCRIPTION
#------------------------------------------------------------------------------
 DEPTH.M                                 :   0     Depth
 CN25.uS/cm                              :   1     Conductivity@25DegC
 TEMP.DegC                               :   2     Temperature
 DELT.DegC                               :   3     Delta T
 DELC.uS/cm                              :   4     Delta C
#------------------------------------------------------------------------------
~A  DEPTH          CN25          TEMP          DELT          DELC
# ...
    23.19       1943.57         11.63          0.12         15.56
    23.20       1943.55         11.63          0.11         11.66
    23.21       1947.53         11.63          0.11         15.78
    23.22       1947.53         11.63          0.11         15.83
    23.23       1947.50         11.63          0.11         15.23
    23.24       1947.55         11.63          0.11         15.30
    23.25       1947.57         11.63          0.11         15.44
    23.26       1947.55         11.63          0.11         10.94
    23.27       1947.55         11.63          0.10         11.09
    23.28       1947.55         11.63          0.10         15.79
    23.29       1947.50         11.63          0.10         15.72
    23.30       1947.48         11.63          0.10         11.16
    23.31       1951.46         11.63          0.10         15.18
    23.32       1947.36         11.63          0.10         11.18
    23.33       1947.31         11.63          0.10         11.34
    23.34       1947.24         11.64          0.10         11.48
    23.35       1951.15         11.64          0.09         15.54
    23.36       1951.11         11.64          0.09         15.53
    23.37       1947.06         11.64          0.09         11.55
    23.38       1946.94         11.64          0.10         11.44
    23.39       1950.85         11.64          0.10         15.37
    23.40       1950.80         11.64          0.10         15.44
    23.41       1950.78         11.64          0.10         15.49
    23.42       1946.82         11.64          0.09         11.67
    23.43       1950.32         11.64          0.09         15.27
    23.44       1950.35         11.64          0.09         15.34
    23.45       1950.39         11.64          0.09         11.42
    23.46       1949.87         11.64          0.08         15.50
    23.47       1949.89         11.64          0.08         15.64
    23.48       1949.89         11.64          0.08         15.74
    23.49       1949.92         11.64          0.08         15.88
    23.50       1949.89         11.64          0.07         11.43
    23.51       1949.85         11.64          0.07         11.48
    23.52       1949.77         11.64          0.07         11.48
    23.53       1949.68         11.64          0.08         11.41
    23.54       1950.23         11.64          0.07         12.03
    23.55       1950.16         11.64          0.07         12.10
    23.56       1950.11         11.65          0.07         16.85
    23.57       1950.56         11.65          0.07         12.93
    23.58       1950.42         11.65          0.07         12.88
    23.59       1950.33         11.65          0.07         12.83
    23.60       1953.69         11.65          0.07         16.19
    23.61       1949.69         11.65          0.07         12.19
    23.62       1949.71         11.65          0.07         12.21
    23.63       1953.19         11.65          0.07         15.72
    23.64       1953.19         11.65          0.07         15.79
    23.65       1949.09         11.65          0.07         11.76
    23.66       1953.02         11.66          0.07         15.74
    23.67       1952.95         11.66          0.07         11.11
    23.68       1948.95         11.66          0.07          7.15
    23.69       1952.98         11.66          0.07         15.79
    23.70       1953.00         11.66          0.07         15.86
    23.71       1949.52         11.66          0.07         12.42
    23.72       1953.43         11.66          0.07         16.33
    23.73       1953.36         11.66          0.07         16.29
    23.74       1953.31         11.66          0.07         16.29
    23.75       1953.36         11.66          0.07         16.36
    23.76       1953.50         11.66          0.06         16.54
    23.77       1953.62         11.65          0.06         16.69
    23.78       1953.71         11.65          0.06         16.80
    23.79       1957.72         11.65          0.06         20.85
    23.80       1953.69         11.65          0.06         12.34
    23.81       1953.67         11.65          0.06         12.41
    23.82       1957.10         11.65          0.05         15.96
    23.83       1953.19         11.65          0.05         12.17
    23.84       1957.21         11.65          0.05         16.34
    23.85       1953.74         11.65          0.05         13.02
    23.86       1953.64         11.65          0.04         13.07
    23.87       1957.48         11.66          0.05         17.00
    23.88       1953.36         11.66          0.05          8.94
    23.89       1956.69         11.66          0.05         12.28
    23.90       1952.64         11.66          0.05          8.23
    23.91       1952.67         11.66          0.05          8.28
    23.92       1956.69         11.66          0.05         12.30
    23.93       1953.31         11.66          0.05          8.89
    23.94       1957.27         11.66          0.05         12.78
    23.95       1953.29         11.66          0.05          8.75
    23.96       1957.34         11.66          0.05         12.71
    23.97       1957.41         11.66          0.05         12.71
    23.98       1957.48         11.66          0.05         12.76
    23.99       1957.43         11.66          0.05         16.65
    24.00       1957.91         11.66          0.05         13.16
    24.01       1957.84         11.66          0.05         13.14
    24.02       1957.77         11.66          0.05         13.09
    24.03       1957.70         11.66          0.05         13.09
    24.04       1957.65         11.67          0.05         13.11
    24.05       1956.98         11.67          0.05         12.61
    24.06       1956.86         11.67          0.05         12.64
    24.07       1956.77         11.67          0.05          8.68
    24.08       1956.63         11.67          0.05          8.65
    24.09       1955.98         11.67          0.05          8.08
    24.10       1955.98         11.67          0.05          8.22
    24.11       1956.05         11.67          0.05         12.37
    24.12       1956.17         11.67          0.04         12.56
    24.13       1960.25         11.67          0.04         16.72
    24.14       1956.29         11.67          0.04          8.79
    24.15       1960.29         11.67          0.04         12.81
    24.16       1956.91         11.67          0.04          9.41
    24.17       1960.36         11.67          0.04         12.81
    24.18       1956.36         11.67          0.04         12.79
    24.19       1960.36         11.67          0.04         16.82
    24.20       1956.86         11.67          0.04          9.34
    24.21       1960.86         11.67          0.04         13.34
    24.22       1956.86         11.67          0.04          9.36
    24.23       1960.79         11.67          0.04         13.24
    24.24       1960.15         11.67          0.04         12.58
    24.25       1960.10         11.67          0.04         12.55
    24.26       1960.01         11.67          0.04         12.46
    24.27       1959.94         11.68          0.05         12.39
    24.28       1959.96         11.68          0.04         12.46
    24.29       1959.91         11.68          0.05         12.43
    24.30       1959.94         11.68          0.04          8.48
    24.31       1960.03         11.67          0.04         12.67
    24.32       1960.03         11.67          0.04         12.72
    24.33       1964.06         11.67          0.04         16.81
    24.34       1960.13         11.67          0.03          8.97
    24.35       1960.13         11.67          0.03          9.02
    24.36       1960.10         11.67          0.03         13.05
    24.37       1960.15         11.67          0.03         13.21
    24.38       1960.15         11.67          0.03          9.30
    24.39       1960.75         11.67          0.03          9.95
    24.40       1964.25         11.67          0.03         13.47
