#Written by Robertson Geologging WinLogger V1.5/410
~VERSION INFORMATION
#------------------------------------------------------------------------------
 VERS. 2.0 : CWLS LOG ASCII STANDARD - VERSION 2.0
 WRAP. NO  : ONE LINE PER DEPTH STEP
~WELL INFORMATION
#MNEM.UNIT         DATA                                DESCRIPTION OF MNEMONIC
#------------------------------------------------------------------------------
 STRT.M          2.0200                            :   START DEPTH
 STOP.M         91.0000                            :   STOP DEPTH
 STEP.M          0.0100                            :   STEP VALUE
 NULL.        -999.2500                            :   NULL VALUE
 COMP.    IWS                                      :   COMPANY NAME
 WELL.    LADYSMITH                                :   WELL NAME
 FLD.     DURHAM                                   :   FIELD NAME
 LOC.     N/A                                      :   LOCATION
 PROV.    N/A                                      :   PROVINCE
 SRVC.    N/A                                      :   SERVICE COMPANY NAME
 DATE.    16 Dec 09                                :   DATE
 UWI.     N/A                                      :   UNIQUE WELL IDENTIFIER
~PARAMETER INFORMATION
#MNEMO.UNIT         VALUE                 DESCRIPTION OF MNEMONIC
#------------------------------------------------------------------------------
~OTHER INFORMATION SECTION
#------------------------------------------------------------------------------
 TCDS 1365
~CURVE INFORMATION
#MNEMO.UNIT         API CODE              CURVE DESCRIPTION
#------------------------------------------------------------------------------
 DEPTH.M                                 :   0     Depth
 TEMP.DegC                               :   1     Temperature
 COND.uS/cm                              :   2     Conductivity@25DegC
 COND.uS/cm                              :   3     Absolute Conductivity
 DELT.DegC                               :   4     Delta T
 DELC.uS/cm                              :   5     Delta C
#------------------------------------------------------------------------------
~A  DEPTH          TEMP          COND          COND          DELT          DELC
# ...
    55.02         11.59       1878.41       1374.52          0.00         25.67
    55.03         11.59       1879.00       1374.93          0.00         25.20
    55.04         11.59       1883.01       1377.87         -0.00         25.27
    55.05         11.59       1882.49       1377.45         -0.00         29.94
    55.06         11.59       1883.10       1377.87         -0.00         25.45
    55.07         11.58       1883.17       1377.87         -0.01         29.53
    55.08         11.58       1882.67       1377.45         -0.01         29.00
    55.09         11.58       1883.24       1377.87         -0.01         24.90
    55.10         11.58       1879.18       1374.93         -0.00         24.74
    55.11         11.58       1878.54       1374.52          0.00         24.04
    55.12         11.58       1878.54       1374.52          0.00         20.03
    55.13         11.59       1879.05       1374.93          0.00         25.14
    55.14         11.59       1878.41       1374.52          0.00         20.53
    55.15         11.59       1878.36       1374.52          0.00         24.56
    55.16         11.59       1878.85       1374.93          0.00         20.44
    55.17         11.59       1878.78       1374.93          0.01         24.34
    55.18         11.59       1878.21       1374.52          0.01         23.75
    55.19         11.59       1878.80       1374.93          0.01         20.33
    55.20         11.59       1878.82       1374.93          0.01         24.94
    55.21         11.59       1882.95       1377.87          0.00         25.07
    55.22         11.59       1883.01       1377.87          0.00         25.12
    55.23         11.59       1882.95       1377.87          0.00         25.55
    55.24         11.59       1882.90       1377.87          0.01         24.32
    55.25         11.59       1883.41       1378.29          0.01         28.79
    55.26         11.59       1882.81       1377.87          0.01         24.14
    55.27         11.59       1882.86       1377.87          0.01         28.72
    55.28         11.59       1882.92       1377.87          0.01         24.76
    55.29         11.59       1883.52       1378.29          0.01         26.52
    55.30         11.59       1883.47       1378.29          0.01         26.43
    55.31         11.59       1883.45       1378.29          0.01         25.24
    55.32         11.59       1882.81       1377.87          0.01         28.59
    55.33         11.59       1883.34       1378.29          0.01         25.64
    55.34         11.59       1883.41       1378.29          0.01         29.10
    55.35         11.59       1883.52       1378.29          0.01         25.22
    55.36         11.59       1883.63       1378.29          0.01         26.52
    55.37         11.58       1884.27       1378.71          0.01         27.21
    55.38         11.59       1884.25       1378.71          0.00         26.20
    55.39         11.59       1884.18       1378.71          0.00         30.29
    55.40         11.59       1884.09       1378.71          0.00         25.73
    55.41         11.59       1884.07       1378.71         -0.00         29.85
    55.42         11.59       1884.07       1378.71         -0.00         25.93
    55.43         11.59       1884.62       1379.13         -0.00         27.67
    55.44         11.59       1884.02       1378.71         -0.00         26.57
    55.45         11.59       1883.96       1378.71         -0.00         26.52
    55.46         11.59       1883.84       1378.71         -0.00         26.41
    55.47         11.59       1883.78       1378.71          0.00         25.15
    55.48         11.59       1883.75       1378.71          0.00         25.59
    55.49         11.59       1883.80       1378.71          0.00         25.53
    55.50         11.59       1883.91       1378.71          0.01         21.50
    55.51         11.59       1884.05       1378.71          0.01         24.94
    55.52         11.59       1884.11       1378.71          0.00         20.95
    55.53         11.59       1884.16       1378.71          0.00         21.57
    55.54         11.59       1884.20       1378.71          0.00         20.51
    55.55         11.58       1884.87       1379.13         -0.00         21.24
    55.56         11.58       1885.00       1379.13         -0.00         21.42
    55.57         11.58       1885.18       1379.13         -0.01         21.56
    55.58         11.57       1885.36       1379.13         -0.01         18.25
    55.59         11.57       1885.47       1379.13         -0.01         21.80
    55.60         11.57       1890.13       1382.48         -0.01         22.45
    55.61         11.57       1890.13       1382.48         -0.01         26.50
    55.62         11.57       1890.10       1382.48         -0.01         23.09
    55.63         11.57       1890.08       1382.48         -0.01         23.09
    55.64         11.57       1890.06       1382.48         -0.01         22.54
    55.65         11.57       1889.97       1382.48         -0.01         22.47
    55.66         11.58       1889.83       1382.48         -0.01         22.88
    55.67         11.58       1889.65       1382.48         -0.01         18.69
    55.68         11.58       1889.45       1382.48         -0.00         19.11
    55.69         11.59       1888.65       1382.06         -0.00         21.79
    55.70         11.59       1888.47       1382.06          0.00         17.67
    55.71         11.60       1883.73       1378.71          0.00         12.97
    55.72         11.60       1883.60       1378.71          0.01          9.42
    55.73         11.60       1883.51       1378.71          0.01         12.77
    55.74         11.60       1883.46       1378.71          0.01         12.68
    55.75         11.60       1883.42       1378.71          0.01         13.16
    55.76         11.60       1883.48       1378.71          0.01          9.18
    55.77         11.60       1883.57       1378.71          0.01          8.71
    55.78         11.60       1883.66       1378.71          0.01          9.44
    55.79         11.60       1883.73       1378.71          0.00         12.99
    55.80         11.59       1884.35       1379.13          0.00          9.62
    55.81         11.59       1888.93       1382.48          0.00         14.23
    55.82         11.59       1888.95       1382.48          0.00         14.82
    55.83         11.59       1888.43       1382.06          0.00         13.75
    55.84         11.59       1888.49       1382.06         -0.00         13.90
    55.85         11.59       1888.52       1382.06         -0.00         13.97
    55.86         11.59       1888.52       1382.06         -0.00         13.40
    55.87         11.59       1888.49       1382.06         -0.00         13.95
    55.88         11.59       1888.45       1382.06         -0.00         13.81
    55.89         11.59       1888.43       1382.06          0.00         13.13
    55.90         11.59       1888.43       1382.06          0.00          9.07
    55.91         11.59       1893.03       1385.41          0.00         14.18
    55.92         11.59       1888.49       1382.06          0.00         13.59
    55.93         11.59       1888.56       1382.06          0.00         13.06
    55.94         11.59       1889.20       1382.48          0.00         14.25
    55.95         11.59       1889.20       1382.48          0.00         10.22
    55.96         11.59       1889.22       1382.48          0.00         10.27
    55.97         11.59       1889.29       1382.48         -0.00         10.93
    55.98         11.59       1889.31       1382.48         -0.00         10.38
    55.99         11.59       1889.38       1382.48         -0.00         10.47
    56.00         11.59       1889.38       1382.48         -0.00         10.47
    56.01         11.59       1893.94       1385.83         -0.00         15.53
