#Written by Robertson Geologging WinLogger V1.5/410
~VERSION INFORMATION
#------------------------------------------------------------------------------
 VERS. 2.0 : CWLS LOG ASCII STANDARD - VERSION 2.0
 WRAP. NO  : ONE LINE PER DEPTH STEP
~WELL INFORMATION
#MNEM.UNIT         DATA                                DESCRIPTION OF MNEMONIC
#------------------------------------------------------------------------------
 STRT.M          0.0100                            :   START DEPTH
 STOP.M         89.0000                            :   STOP DEPTH
 STEP.M          0.0100                            :   STEP VALUE
 NULL.        -999.2500                            :   NULL VALUE
 COMP.    IWS                                      :   COMPANY NAME
 WELL.    Ladysmith                                :   WELL NAME
 FLD.     N/A                                      :   FIELD NAME
 LOC.     N/A                                      :   LOCATION
 PROV.    N/A                                      :   PROVINCE
 SRVC.    N/A                                      :   SERVICE COMPANY NAME
 DATE.    01 Feb 11                                :   DATE
 UWI.     N/A                                      :   UNIQUE WELL IDENTIFIER
~PARAMETER INFORMATION
#MNEMO.UNIT         VALUE                 DESCRIPTION OF MNEMONIC
#------------------------------------------------------------------------------
~OTHER INFORMATION SECTION
#------------------------------------------------------------------------------
 1365
~CURVE INFORMATION
#MNEMO.UNIT         API CODE              CURVE DESCRIPTION
#------------------------------------------------------------------------------
 DEPTH.M                                 :   0     Depth
 CN25.uS/cm                              :   1     Conductivity@25DegC
 TEMP.DegC                               :   2     Temperature
 DELT.DegC                               :   3     Delta T
 DELC.uS/cm                              :   4     Delta C
#------------------------------------------------------------------------------
~A  DEPTH          CN25          TEMP          DELT          DELC
# ...
    41.49       2047.18         11.84         -0.00          9.80
    41.50       2043.14         11.84         -0.00          4.06
    41.51       2047.08         11.84         -0.00          5.71
    41.52       2047.08         11.84          0.00          7.94
    41.53       2045.32         11.84          0.00          7.77
    41.54       2046.93         11.85          0.01          7.57
    41.55       2045.17         11.85          0.01          3.44
    41.56       2046.78         11.85          0.01          5.03
    41.57       2046.71         11.85          0.01          8.91
    41.58       2046.73         11.85          0.01          7.18
    41.59       2042.75         11.85          0.01          0.90
    41.60       2046.71         11.85          0.01          7.13
    41.61       2046.66         11.85          0.01          8.86
    41.62       2042.68         11.85          0.01          3.25
    41.63       2046.66         11.85          0.01          5.07
    41.64       2046.71         11.85          0.01          7.50
    41.65       2046.81         11.85          0.01          9.35
    41.66       2046.78         11.85          0.01          7.67
    41.67       2046.81         11.85          0.00          6.01
    41.68       2046.81         11.85          0.00          7.20
    41.69       2046.81         11.85          0.00          7.25
    41.70       2046.83         11.85          0.00          7.32
    41.71       2046.83         11.85          0.00          3.34
    41.72       2046.88         11.85          0.00          5.59
    41.73       2046.86         11.85          0.00          7.22
    41.74       2046.86         11.85          0.00          5.44
    41.75       2048.56         11.85          0.01          4.83
    41.76       2046.86         11.85          0.00          1.44
    41.77       2048.64         11.85          0.00          7.20
    41.78       2046.96         11.84          0.00          7.15
    41.79       2047.03         11.84          0.00          2.05
    41.80       2047.08         11.84          0.00          5.99
    41.81       2051.14         11.84          0.01          9.95
    41.82       2047.25         11.84          0.00          6.09
    41.83       2051.31         11.84          0.00          6.23
    41.84       2051.38         11.84         -0.00          6.38
    41.85       2051.41         11.84         -0.00         10.44
    41.86       2047.42         11.84         -0.00          6.46
    41.87       2051.41         11.84         -0.00         10.42
    41.88       2047.42         11.84         -0.00          2.42
    41.89       2051.41         11.84         -0.00          6.48
    41.90       2047.40         11.84         -0.00          6.51
    41.91       2051.33         11.84         -0.00          6.53
    41.92       2047.25         11.84         -0.00          2.52
    41.93       2047.20         11.84         -0.00          6.41
    41.94       2047.18         11.84         -0.00          8.04
    41.95       2047.15         11.84          0.00          6.21
    41.96       2047.13         11.84          0.00          2.05
    41.97       2049.35         11.84          0.01          4.26
    41.98       2047.03         11.84          0.01          5.84
    41.99       2050.96         11.84          0.01         11.43
    42.00       2046.93         11.85          0.01          5.64
    42.01       2050.84         11.85          0.01          7.20
    42.02       2046.78         11.85          0.02          3.10
    42.03       2050.69         11.85          0.02          9.23
    42.04       2050.62         11.85          0.02          2.92
    42.05       2050.47         11.85          0.02          5.03
    42.06       2050.37         11.85          0.02          6.66
    42.07       2050.35         11.86          0.02          6.71
    42.08       2052.13         11.85          0.02          8.47
    42.09       2050.52         11.85          0.02          4.63
    42.10       2050.62         11.85          0.02          3.05
    42.11       2050.67         11.85          0.02          4.80
    42.12       2050.67         11.85          0.02          7.10
    42.13       2052.37         11.85          0.02          8.81
    42.14       2050.64         11.85          0.02          4.80
    42.15       2052.35         11.85          0.02          8.74
    42.16       2050.67         11.85          0.02          7.01
    42.17       2052.42         11.85          0.02          8.71
    42.18       2052.42         11.85          0.02          8.66
    42.19       2050.64         11.85          0.02          6.88
    42.20       2052.27         11.85          0.02          6.86
    42.21       2050.49         11.85          0.02          5.15
    42.22       2052.20         11.85          0.02          6.91
    42.23       2050.49         11.85          0.02          5.22
    42.24       2050.49         11.85          0.02          5.20
    42.25       2050.49         11.85          0.02          5.15
    42.26       2050.44         11.85          0.02          5.10
    42.27       2052.15         11.85          0.02          6.86
    42.28       2050.44         11.85          0.02          1.24
    42.29       2050.49         11.85          0.01          5.45
    42.30       2050.57         11.85          0.01          3.98
    42.31       2050.57         11.85          0.01          5.74
    42.32       2050.57         11.85          0.01          5.77
    42.33       2050.52         11.85          0.01          7.92
    42.34       2050.52         11.85          0.01          5.57
    42.35       2050.52         11.85          0.01          5.62
    42.36       2050.57         11.85          0.01          5.69
    42.37       2050.67         11.85          0.01          5.81
    42.38       2052.94         11.85          0.01          4.13
    42.39       2050.72         11.85          0.01          5.86
    42.40       2053.02         11.85          0.01          8.12
    42.41       2054.70         11.85          0.01          9.72
    42.42       2052.99         11.85          0.01          7.94
    42.43       2054.65         11.85          0.01          9.55
    42.44       2054.62         11.85          0.01          7.25
    42.45       2054.65         11.85          0.01          5.59
    42.46       2054.72         11.85          0.01          7.42
    42.47       2052.52         11.85          0.01          3.59
    42.48       2054.82         11.85          0.01          7.65
    42.49       2052.62         11.85          0.00          9.48
    42.50       2054.87         11.85          0.00          7.79
    42.51       2052.55         11.85          0.00          5.47
    42.52       2052.52         11.85          0.00          7.20
    42.53       2050.25         11.85          0.00          3.32
    42.54       2052.55         11.85          0.00          7.37
    42.55       2052.55         11.85         -0.00          5.76
    42.56       2052.50         11.85         -0.00          5.79
    42.57       2052.40         11.85          0.00          5.66
    42.58       2056.31         11.85          0.00         13.55
    42.59       2053.98         11.85          0.00          7.27
    42.60       2052.20         11.85          0.00          5.54
    42.61       2053.88         11.85          0.00         11.20
    42.62       2052.13         11.85          0.00          5.47
    42.63       2052.10         11.85          0.01          5.39
    42.64       2056.06         11.85          0.01          9.25
    42.65       2052.00         11.86          0.01          5.22
    42.66       2052.03         11.86          0.01          5.22
    42.67       2052.08         11.85          0.01          5.27
    42.68       2052.15         11.85          0.01          5.34
    42.69       2052.23         11.85          0.01          5.39
    42.70       2050.59         11.85          0.00          3.76
