#Written by Robertson Geologging WinLogger V1.5/410
~VERSION INFORMATION
#------------------------------------------------------------------------------
 VERS. 2.0 : CWLS LOG ASCII STANDARD - VERSION 2.0
 WRAP. NO  : ONE LINE PER DEPTH STEP
~WELL INFORMATION
#MNEM.UNIT         DATA                                DESCRIPTION OF MNEMONIC
#------------------------------------------------------------------------------
 STRT.M          0.0100                            :   START DEPTH
 STOP.M         89.0000                            :   STOP DEPTH
 STEP.M          0.0100                            :   STEP VALUE
 NULL.        -999.2500                            :   NULL VALUE
 COMP.    IWS                                      :   COMPANY NAME
 WELL.    Ladysmith                                :   WELL NAME
 FLD.     N/A                                      :   FIELD NAME
 LOC.     N/A                                      :   LOCATION
 PROV.    N/A                                      :   PROVINCE
 SRVC.    N/A                                      :   SERVICE COMPANY NAME
 DATE.    01 Feb 11                                :   DATE
 UWI.     N/A                                      :   UNIQUE WELL IDENTIFIER
~PARAMETER INFORMATION
#MNEMO.UNIT         VALUE                 DESCRIPTION OF MNEMONIC
#------------------------------------------------------------------------------
~OTHER INFORMATION SECTION
#------------------------------------------------------------------------------
 1365
~CURVE INFORMATION
#MNEMO.UNIT         API CODE              CURVE DESCRIPTION
#------------------------------------------------------------------------------
 DEPTH.M                                 :   0     Depth
 CN25.uS/cm                              :   1     Conductivity@25DegC
 TEMP.DegC                               :   2     Temperature
 DELT.DegC                               :   3     Delta T
 DELC.uS/cm                              :   4     Delta C
#------------------------------------------------------------------------------
~A  DEPTH          CN25          TEMP          DELT          DELC
# ...
    17.09       1856.10         11.17          0.02          4.68
    17.10       1859.58         11.17          0.02          9.72
    17.11       1855.50         11.17          0.03          7.80
    17.12       1859.20         11.17          0.03          7.31
    17.13       1857.11         11.16          0.02          5.10
    17.14       1857.34         11.16          0.02          6.38
    17.15       1854.09         11.15          0.02          1.36
    17.16       1856.39         11.16          0.02          5.38
    17.17       1855.13         11.16          0.02          4.17
    17.18       1856.23         11.16          0.02          5.35
    17.19       1854.88         11.16          0.02          6.40
    17.20       1855.95         11.16          0.02          5.19
    17.21       1854.75         11.16          0.02          3.97
    17.22       1858.74         11.17          0.03          4.39
    17.23       1855.05         11.17          0.03          4.72
    17.24       1858.39         11.17          0.03          8.06
    17.25       1856.63         11.17          0.03          6.41
    17.26       1860.20         11.17          0.03         10.07
    17.27       1858.16         11.17          0.02          6.51
    17.28       1859.50         11.16          0.01          7.94
    17.29       1860.75         11.16          0.01          9.28
    17.30       1857.90         11.16          0.01          4.30
    17.31       1858.92         11.16          0.01          9.49
    17.32       1859.96         11.16          0.00          9.02
    17.33       1858.74         11.17          0.00          9.16
    17.34       1858.83         11.16         -0.00          5.26
    17.35       1857.87         11.16         -0.00          6.02
    17.36       1859.70         11.16         -0.01         10.15
    17.37       1858.52         11.16         -0.01          6.65
    17.38       1859.48         11.16         -0.00          5.24
    17.39       1859.29         11.17          0.00          7.28
    17.40       1855.26         11.17          0.01          4.87
    17.41       1859.50         11.16          0.01          8.89
    17.42       1859.79         11.16          0.01          4.92
    17.43       1856.50         11.15          0.01          1.40
    17.44       1857.75         11.15          0.01          6.48
    17.45       1861.14         11.15          0.01          8.64
    17.46       1856.96         11.16          0.01          4.51
    17.47       1860.35         11.16          0.02          5.53
    17.48       1860.21         11.16          0.02          7.60
    17.49       1857.29         11.16          0.03          4.46
    17.50       1858.38         11.16          0.03          7.13
    17.51       1862.30         11.16          0.03          5.76
    17.52       1860.99         11.17          0.04          8.52
    17.53       1858.44         11.17          0.04          8.48
    17.54       1860.55         11.18          0.04          8.54
    17.55       1860.46         11.18          0.03          6.99
    17.56       1856.99         11.18          0.03          4.87
    17.57       1860.97         11.18          0.03          4.87
    17.58       1859.88         11.18          0.03          6.10
    17.59       1859.97         11.18          0.02          6.26
    17.60       1861.69         11.18          0.02          8.16
    17.61       1860.60         11.17          0.02          7.32
    17.62       1860.55         11.18          0.01          7.50
    17.63       1857.63         11.18          0.01          4.67
    17.64       1860.04         11.17          0.01          3.58
    17.65       1860.25         11.17          0.01          7.70
    17.66       1858.11         11.17          0.01          5.45
    17.67       1860.61         11.16          0.01          7.84
    17.68       1860.79         11.16          0.00          8.02
    17.69       1860.79         11.16          0.00          8.09
    17.70       1858.61         11.16         -0.00          5.93
    17.71       1862.30         11.15         -0.01          9.68
    17.72       1862.43         11.15         -0.01          5.79
    17.73       1858.65         11.14         -0.01          5.34
    17.74       1863.91         11.14         -0.01         10.52
    17.75       1863.77         11.15         -0.01         10.36
    17.76       1861.18         11.15         -0.00          7.76
    17.77       1863.18         11.16         -0.00          6.40
    17.78       1862.77         11.17          0.00         10.23
    17.79       1862.43         11.17          0.01          8.79
    17.80       1859.86         11.18          0.01          6.32
    17.81       1861.93         11.18          0.02          6.13
    17.82       1860.63         11.18          0.02          7.18
    17.83       1858.24         11.19          0.02          7.16
    17.84       1862.18         11.19          0.02          8.87
    17.85       1860.96         11.19          0.02          6.02
    17.86       1858.64         11.19          0.02          3.63
    17.87       1861.07         11.19          0.02          6.11
    17.88       1861.23         11.18          0.01          6.18
    17.89       1861.46         11.18          0.01          4.48
    17.90       1859.33         11.18          0.01          3.46
    17.91       1861.80         11.17          0.01          5.74
    17.92       1861.87         11.17          0.01          5.67
    17.93       1859.53         11.17          0.01          3.30
    17.94       1861.78         11.17          0.02          3.17
    17.95       1862.85         11.18          0.02          6.62
    17.96       1860.60         11.17          0.01          4.44
    17.97       1863.12         11.17          0.01          8.19
    17.98       1863.28         11.17          0.01          6.59
    17.99       1863.39         11.17          0.01          7.84
    18.00       1861.10         11.16          0.00          5.68
    18.01       1863.26         11.17          0.00          7.98
    18.02       1864.23         11.17          0.00          9.27
    18.03       1864.07         11.17         -0.00          8.25
    18.04       1864.01         11.18         -0.00          8.20
    18.05       1864.07         11.17         -0.00          8.22
    18.06       1860.71         11.17         -0.00          4.77
    18.07       1863.01         11.17          0.00          4.61
    18.08       1864.07         11.17          0.00          7.97
    18.09       1863.96         11.18          0.00          4.38
    18.10       1861.57         11.18          0.01          6.08
    18.11       1863.89         11.18          0.01          4.69
    18.12       1865.16         11.18          0.01          8.05
    18.13       1860.09         11.17          0.01          2.75
    18.14       1861.38         11.17          0.02          7.29
    18.15       1863.81         11.17          0.01          7.43
    18.16       1861.50         11.17          0.01          6.36
    18.17       1864.88         11.17          0.01          8.66
    18.18       1864.79         11.17          0.01          9.91
    18.19       1863.47         11.17          0.01          7.52
    18.20       1860.99         11.18          0.01          6.25
    18.21       1864.29         11.18          0.02          5.55
    18.22       1864.17         11.18          0.01          9.12
    18.23       1860.63         11.18          0.01          2.24
    18.24       1865.80         11.19          0.01          9.16
    18.25       1864.64         11.19          0.01          4.44
    18.26       1860.47         11.19          0.02          2.31
    18.27       1863.83         11.19          0.03          4.33
    18.28       1862.60         11.19          0.03          1.86
    18.29       1860.20         11.19          0.03          2.30
    18.30       1861.31         11.19          0.03          2.39
