#Written by Robertson Geologging WinLogger V1.5/410
~VERSION INFORMATION
#------------------------------------------------------------------------------
 VERS. 2.0 : CWLS LOG ASCII STANDARD - VERSION 2.0
 WRAP. NO  : ONE LINE PER DEPTH STEP
~WELL INFORMATION
#MNEM.UNIT         DATA                                DESCRIPTION OF MNEMONIC
#------------------------------------------------------------------------------
 STRT.M          0.0600                            :   START DEPTH
 STOP.M         94.0500                            :   STOP DEPTH
 STEP.M          0.0100                            :   STEP VALUE
 NULL.        -999.2500                            :   NULL VALUE
 COMP.    Coal Authority                           :   COMPANY NAME
 WELL.    Ladysmith Shaft                          :   WELL NAME
 FLD.     N/A                                      :   FIELD NAME
 LOC.     N/A                                      :   LOCATION
 PROV.    N/A                                      :   PROVINCE
 SRVC.    N/A                                      :   SERVICE COMPANY NAME
 DATE.    15 Dec 08                                :   DATE
 UWI.     N/A                                      :   UNIQUE WELL IDENTIFIER
~PARAMETER INFORMATION
#MNEMO.UNIT         VALUE                 DESCRIPTION OF MNEMONIC
#------------------------------------------------------------------------------
~OTHER INFORMATION SECTION
#------------------------------------------------------------------------------
 TCDS 1365
 15,12,2008
~CURVE INFORMATION
#MNEMO.UNIT         API CODE              CURVE DESCRIPTION
#------------------------------------------------------------------------------
 DEPTH.M                                 :   0     Depth
 COND.uS/cm                              :   1     Conductivity@25DegC
 COND.uS/cm                              :   2     Absolute Conductivity
 TEMP.DegC                               :   3     Temperature
 DELT.DegC                               :   4     Delta T
 DELC.uS/cm                              :   5     Delta C
 NGAM.CPS                                :   6     Natural Gamma
#------------------------------------------------------------------------------
~A  DEPTH          COND          COND          TEMP          DELT          DELC          NGAM
# ...
    49.94       2309.67       1700.87         11.82          0.01         -2.79          1.88
    49.95       2306.76       1698.77         11.82          0.01         -2.21          1.88
    49.96       2309.65       1700.87         11.82          0.01         -3.33          1.88
    49.97       2306.87       1698.77         11.82          0.01         -6.10          1.47
    49.98       2307.01       1698.77         11.82          0.00         -2.54          1.12
    49.99       2309.98       1700.87         11.82          0.00          0.41          1.12
    50.00       2307.14       1698.77         11.82          0.00         -2.43          1.12
    50.01       2310.66       1701.29         11.81          0.00          1.14          0.76
    50.02       2306.79       1698.35         11.81         -0.00          0.74          0.76
    50.03       2306.88       1698.35         11.81         -0.01         -3.10          0.76
    50.04       2306.99       1698.35         11.81         -0.01          0.52          0.35
    50.05       2307.07       1698.35         11.81         -0.01          0.74          0.35
    50.06       2307.12       1698.35         11.81         -0.01         -2.52          0.00
    50.07       2307.26       1698.35         11.80         -0.02          0.56          0.00
    50.08       2310.75       1700.87         11.80         -0.02          4.64          0.41
    50.09       2307.32       1698.35         11.80         -0.02          1.16          0.41
    50.10       2307.37       1698.35         11.80         -0.02          1.21          0.41
    50.11       2310.26       1700.45         11.80         -0.02          4.04          0.41
    50.12       2306.85       1697.93         11.80         -0.02         -0.02          0.41
    50.13       2311.37       1701.29         11.80         -0.01          5.51          0.41
    50.14       2306.74       1697.93         11.80         -0.01          0.14          0.41
    50.15       2310.09       1700.45         11.80         -0.01          0.50          0.41
    50.16       2307.18       1698.35         11.81         -0.00          0.28          0.41
    50.17       2310.67       1700.87         11.80         -0.00          4.22          0.41
    50.18       2310.64       1700.87         11.81         -0.00          4.06          0.41
    50.19       2307.21       1698.35         11.81          0.00          0.54          0.41
    50.20       2310.69       1700.87         11.80          0.00          5.15          0.41
    50.21       2306.61       1697.93         11.81          0.00          0.35          0.41
    50.22       2307.15       1698.35         11.81          0.01         -2.05          0.41
    50.23       2305.98       1697.51         11.81          0.01          1.22          0.41
    50.24       2305.93       1697.51         11.81          0.01         -3.44          0.41
    50.25       2309.99       1700.45         11.81          0.01          4.08          0.00
    50.26       2306.61       1697.93         11.81          0.01          0.76          0.00
    50.27       2309.52       1700.03         11.80          0.00          3.78          0.00
    50.28       2308.95       1699.61         11.80          0.00          2.69          0.00
    50.29       2306.01       1697.51         11.81          0.00          1.03          0.00
    50.30       2309.33       1700.03         11.81          0.00          3.89          0.00
    50.31       2304.65       1696.66         11.81          0.00         -0.74          0.00
    50.32       2309.14       1700.03         11.81          0.00          3.84          0.00
    50.33       2304.48       1696.66         11.81          0.00          3.24          0.00
    50.34       2309.03       1700.03         11.81          0.00          3.26          0.00
    50.35       2308.46       1699.61         11.81          0.00          7.29          0.00
    50.36       2305.54       1697.51         11.81          0.00          1.47          0.00
    50.37       2308.35       1699.61         11.81          0.01          3.64          0.00
    50.38       2305.38       1697.51         11.82          0.01          1.79          0.00
    50.39       2305.24       1697.51         11.82          0.01          1.68          0.00
    50.40       2308.61       1700.03         11.82          0.01          5.11          0.00
    50.41       2304.07       1696.66         11.82          0.01          0.59          0.35
    50.42       2308.04       1699.61         11.82          0.01          4.65          0.35
    50.43       2304.61       1697.08         11.82          0.01          1.30          0.35
    50.44       2308.61       1700.03         11.82          0.01          1.38          0.35
    50.45       2308.56       1700.03         11.82          0.00          4.95          0.35
    50.46       2304.56       1697.08         11.82          0.00         -0.14          0.35
    50.47       2307.42       1699.19         11.82          0.00          2.75          0.35
    50.48       2308.02       1699.61         11.82          0.00          3.32          0.35
    50.49       2306.87       1698.77         11.82          0.00          2.07          0.35
    50.50       2307.42       1699.19         11.82          0.00          3.13          0.71
    50.51       2302.79       1695.82         11.82          0.01         -2.72          0.71
    50.52       2307.28       1699.19         11.82          0.01          1.68          0.71
    50.53       2307.25       1699.19         11.82          0.01          1.63          0.71
    50.54       2307.31       1699.19         11.82          0.01          1.71          0.71
    50.55       2307.33       1699.19         11.82          0.01          5.77          0.71
    50.56       2303.93       1696.66         11.82          0.01         -1.04          0.71
    50.57       2307.93       1699.61         11.82          0.01          0.19          1.12
    50.58       2307.93       1699.61         11.82          0.01          3.07          0.76
    50.59       2304.48       1697.08         11.82          0.01          0.21          0.76
    50.60       2309.08       1700.45         11.82          0.00          3.73          0.76
    50.61       2305.75       1697.93         11.82          0.00          0.43          1.12
    50.62       2309.84       1700.87         11.82          0.00          4.52          1.12
    50.63       2309.89       1700.87         11.82         -0.00          5.20          1.12
    50.64       2307.12       1698.77         11.82         -0.00         -1.61          1.12
    50.65       2309.98       1700.87         11.82          0.00          4.57          1.12
    50.66       2307.14       1698.77         11.82          0.00         -2.29          1.12
    50.67       2310.09       1700.87         11.81         -0.00          1.20          0.76
    50.68       2310.11       1700.87         11.81         -0.00          4.09          0.76
    50.69       2307.25       1698.77         11.81         -0.00         -1.55          0.76
    50.70       2310.69       1701.29         11.81         -0.00          4.79          1.18
    50.71       2310.11       1700.87         11.81         -0.00          0.82          1.53
    50.72       2310.06       1700.87         11.81         -0.00          4.71          1.53
    50.73       2310.60       1701.29         11.81         -0.00          1.82          1.88
    50.74       2306.03       1697.93         11.81         -0.00          0.14          1.88
    50.75       2309.41       1700.45         11.82         -0.00          3.54          1.88
    50.76       2309.41       1700.45         11.82         -0.00          0.19          1.88
    50.77       2309.38       1700.45         11.82         -0.00          4.11          1.88
    50.78       2309.35       1700.45         11.82          0.00          3.37          1.53
    50.79       2306.52       1698.35         11.82          0.00         -2.45          1.53
