#Written by Robertson Geologging WinLogger V1.5/410
~VERSION INFORMATION
#------------------------------------------------------------------------------
 VERS. 2.0 : CWLS LOG ASCII STANDARD - VERSION 2.0
 WRAP. NO  : ONE LINE PER DEPTH STEP
~WELL INFORMATION
#MNEM.UNIT         DATA                                DESCRIPTION OF MNEMONIC
#------------------------------------------------------------------------------
 STRT.M          2.0200                            :   START DEPTH
 STOP.M         91.0000                            :   STOP DEPTH
 STEP.M          0.0100                            :   STEP VALUE
 NULL.        -999.2500                            :   NULL VALUE
 COMP.    IWS                                      :   COMPANY NAME
 WELL.    LADYSMITH                                :   WELL NAME
 FLD.     DURHAM                                   :   FIELD NAME
 LOC.     N/A                                      :   LOCATION
 PROV.    N/A                                      :   PROVINCE
 SRVC.    N/A                                      :   SERVICE COMPANY NAME
 DATE.    16 Dec 09                                :   DATE
 UWI.     N/A                                      :   UNIQUE WELL IDENTIFIER
~PARAMETER INFORMATION
#MNEMO.UNIT         VALUE                 DESCRIPTION OF MNEMONIC
#------------------------------------------------------------------------------
~OTHER INFORMATION SECTION
#------------------------------------------------------------------------------
 TCDS 1365
~CURVE INFORMATION
#MNEMO.UNIT         API CODE              CURVE DESCRIPTION
#------------------------------------------------------------------------------
 DEPTH.M                                 :   0     Depth
 TEMP.DegC                               :   1     Temperature
 COND.uS/cm                              :   2     Conductivity@25DegC
 COND.uS/cm                              :   3     Absolute Conductivity
 DELT.DegC                               :   4     Delta T
 DELC.uS/cm                              :   5     Delta C
#------------------------------------------------------------------------------
~A  DEPTH          TEMP          COND          COND          DELT          DELC
# ...
    31.02         11.47       1787.22       1303.68          0.03         -1.48
    31.03         11.47       1787.20       1303.68          0.03         -3.20
    31.04         11.47       1791.20       1306.61          0.03         -1.48
    31.05         11.47       1786.56       1303.26          0.03         -3.20
    31.06         11.48       1786.47       1303.26          0.03         -3.29
    31.07         11.48       1790.43       1306.20          0.03         -1.67
    31.08         11.48       1790.39       1306.20          0.04         -3.49
    31.09         11.48       1785.77       1302.84          0.04         -3.50
    31.10         11.48       1789.81       1305.78          0.03          0.58
    31.11         11.48       1789.84       1305.78          0.03         -3.87
    31.12         11.48       1789.86       1305.78          0.03          0.37
    31.13         11.48       1789.90       1305.78          0.02          0.54
    31.14         11.47       1789.99       1305.78          0.02          2.42
    31.15         11.47       1786.05       1302.84          0.02         -3.22
    31.16         11.47       1786.16       1302.84          0.02         -1.35
    31.17         11.47       1790.86       1306.20          0.01          1.70
    31.18         11.47       1786.88       1303.26          0.01         -2.20
    31.19         11.47       1786.95       1303.26          0.01         -0.34
    31.20         11.47       1786.95       1303.26          0.01         -2.07
    31.21         11.47       1786.95       1303.26          0.01         -4.39
    31.22         11.47       1786.97       1303.26          0.01         -1.54
    31.23         11.47       1788.69       1304.52          0.01         -2.15
    31.24         11.47       1786.99       1303.26          0.01         -3.86
    31.25         11.46       1787.03       1303.26          0.01         -3.77
    31.26         11.46       1791.10       1306.20          0.00          0.34
    31.27         11.46       1791.16       1306.20          0.00          0.45
    31.28         11.46       1788.31       1304.10          0.00          1.68
    31.29         11.46       1790.63       1305.78          0.00         -0.60
    31.30         11.46       1790.61       1305.78          0.00         -0.57
    31.31         11.46       1788.24       1304.10          0.00          1.15
    31.32         11.46       1791.10       1306.20          0.00         -0.57
    31.33         11.47       1788.71       1304.52          0.00          1.06
    31.34         11.47       1786.90       1303.26          0.00         -0.75
    31.35         11.47       1788.61       1304.52          0.00          0.93
    31.36         11.47       1788.52       1304.52          0.01         -0.87
    31.37         11.47       1786.75       1303.26          0.01         -0.87
    31.38         11.47       1788.41       1304.52          0.01          0.74
    31.39         11.47       1786.60       1303.26          0.01         -5.15
    31.40         11.47       1788.28       1304.52          0.01          1.04
    31.41         11.47       1788.24       1304.52          0.02         -0.84
    31.42         11.48       1790.52       1306.20          0.02         -0.97
    31.43         11.48       1787.58       1304.10          0.02          0.63
    31.44         11.48       1789.88       1305.78          0.02         -1.05
    31.45         11.48       1787.56       1304.10          0.02         -3.37
    31.46         11.48       1785.81       1302.84          0.02         -6.78
    31.47         11.48       1790.41       1306.20          0.02         -0.46
    31.48         11.48       1788.07       1304.52          0.02         -2.88
    31.49         11.48       1786.35       1303.26          0.02         -2.31
    31.50         11.48       1788.09       1304.52          0.02         -3.52
    31.51         11.48       1786.35       1303.26          0.03         -2.99
    31.52         11.48       1786.30       1303.26          0.03         -1.31
    31.53         11.48       1788.01       1304.52          0.03          0.42
    31.54         11.48       1786.28       1303.26          0.03         -2.97
    31.55         11.48       1788.03       1304.52          0.02          0.52
    31.56         11.48       1790.35       1306.20          0.02          1.12
    31.57         11.48       1788.01       1304.52          0.03          0.48
    31.58         11.48       1787.94       1304.52          0.03         -1.35
    31.59         11.48       1790.17       1306.20          0.03          0.86
    31.60         11.48       1787.83       1304.52          0.03         -3.82
    31.61         11.48       1786.13       1303.26          0.03         -0.90
    31.62         11.48       1787.90       1304.52          0.03         -3.14
    31.63         11.48       1787.96       1304.52          0.03         -0.75
    31.64         11.48       1788.05       1304.52          0.02         -5.22
    31.65         11.48       1788.11       1304.52          0.02         -3.46
    31.66         11.48       1788.16       1304.52          0.02         -3.39
    31.67         11.48       1788.18       1304.52          0.02          0.74
    31.68         11.48       1788.18       1304.52          0.02         -0.96
    31.69         11.48       1783.60       1301.17          0.02         -3.73
    31.70         11.47       1785.37       1302.42          0.01         -1.88
    31.71         11.47       1789.43       1305.36          0.01          0.53
    31.72         11.47       1787.16       1303.68          0.01         -1.66
    31.73         11.47       1785.45       1302.42          0.01         -1.58
    31.74         11.47       1787.20       1303.68          0.01         -3.81
    31.75         11.47       1785.48       1302.42          0.01         -0.90
    31.76         11.47       1787.16       1303.68          0.01         -0.83
    31.77         11.47       1787.09       1303.68          0.00         -0.81
    31.78         11.48       1787.05       1303.68          0.00         -3.11
    31.79         11.48       1787.01       1303.68          0.00         -3.11
    31.80         11.48       1787.01       1303.68          0.00         -0.81
    31.81         11.48       1786.98       1303.68          0.01         -0.87
    31.82         11.48       1786.98       1303.68          0.01         -3.79
    31.83         11.48       1789.28       1305.36          0.01          0.74
    31.84         11.48       1786.94       1303.68          0.01         -1.66
    31.85         11.48       1786.90       1303.68          0.01         -1.71
    31.86         11.48       1786.83       1303.68          0.01         -1.79
    31.87         11.48       1786.79       1303.68          0.01         -0.13
    31.88         11.48       1782.79       1300.75          0.01         -5.88
    31.89         11.48       1787.45       1304.10          0.01         -1.28
    31.90         11.48       1787.56       1304.10          0.01         -1.15
    31.91         11.48       1787.62       1304.10          0.01         -3.37
    31.92         11.47       1787.69       1304.10          0.01         -0.92
    31.93         11.47       1787.69       1304.10          0.00         -0.79
    31.94         11.47       1785.37       1302.42          0.00         -5.34
    31.95         11.47       1787.67       1304.10          0.00         -0.68
    31.96         11.47       1787.69       1304.10          0.00          1.08
    31.97         11.47       1787.71       1304.10          0.00         -3.51
    31.98         11.47       1787.73       1304.10          0.00         -1.19
    31.99         11.47       1787.73       1304.10          0.00          0.51
    32.00         11.48       1784.77       1302.00          0.00         -2.45
    32.01         11.48       1787.01       1303.68          0.00         -0.21
