#Written by Robertson Geologging WinLogger V1.0/406
~VERSION INFORMATION
#------------------------------------------------------------------------------
 VERS. 2.0 : CWLS LOG ASCII STANDARD - VERSION 2.0
 WRAP. NO  : ONE LINE PER DEPTH STEP
~WELL INFORMATION
#MNEM.UNIT         DATA                                DESCRIPTION OF MNEMONIC
#------------------------------------------------------------------------------
 STRT.M          0.0600                            :   START DEPTH
 STOP.M         95.0200                            :   STOP DEPTH
 STEP.M          0.0100                            :   STEP VALUE
 NULL.        -999.2500                            :   NULL VALUE
 COMP.    Coal Authority                           :   COMPANY NAME
 WELL.    Ladysmith Shaft                          :   WELL NAME
 FLD.     Ladysmith                                :   FIELD NAME
 LOC.     N/A                                      :   LOCATION
 PROV.    N/A                                      :   PROVINCE
 SRVC.    N/A                                      :   SERVICE COMPANY NAME
 DATE.    20 May 08                                :   DATE
 UWI.     N/A                                      :   UNIQUE WELL IDENTIFIER
~PARAMETER INFORMATION
#MNEMO.UNIT         VALUE                 DESCRIPTION OF MNEMONIC
#------------------------------------------------------------------------------
~OTHER INFORMATION SECTION
#------------------------------------------------------------------------------
 TCDS 1365
~CURVE INFORMATION
#MNEMO.UNIT         API CODE              CURVE DESCRIPTION
#------------------------------------------------------------------------------
 DEPTH.M                                 :   0     Depth
 TEMP.DegC                               :   1     Temperature
 COND.uS/cm                              :   2     Absolute Conductivity
 COND.uS/cm                              :   3     Conductivity@25DegC
 DELT.DegC                               :   4     Delta T
 DELC.uS/cm                              :   5     Delta C
#------------------------------------------------------------------------------
~A  DEPTH     TEMP      COND      COND      DELT      DELC      
# ...
    93.78     12.09   1752.01   2362.09      0.00     -1.53 
    93.79     12.09   1744.77   2352.03      0.00      0.00 
    93.80     12.09   1752.01   2362.09     -0.00     10.07 
    93.81     12.09   1746.58   2354.77      0.00     -8.54 
    93.82     12.09   1744.77   2352.03     -0.00      0.31 
    93.83     12.08   1752.01   2362.40     -0.01     10.68 
    93.84     12.10   1744.77   2351.72      0.01    -11.59 
    93.85     12.10   1746.58   2354.16      0.01      1.52 
    93.86     12.10   1752.01   2361.48      0.01      8.84 
    93.87     12.10   1744.77   2351.41      0.02    -12.21 
    93.88     12.10   1744.77   2351.72      0.01     -0.61 
    93.89     12.10   1752.92   2362.70      0.01     10.37 
    93.90     12.10   1744.77   2351.72      0.01    -10.37 
    93.91     12.09   1744.77   2352.03      0.01     -3.36 
    93.92     12.08   1746.58   2355.08      0.00      2.13 
    93.93     12.08   1752.01   2362.40      0.00      0.00 
    93.94     12.09   1744.77   2352.33      0.00     -2.75 
    93.95     12.08   1746.58   2355.08     -0.00      2.75 
    93.96     12.08   1752.01   2362.40     -0.01      0.61 
    93.97     12.08   1744.77   2352.94     -0.01      0.61 
    93.98     12.08   1752.01   2362.71     -0.01      8.24 
    93.99     12.08   1746.58   2355.38     -0.02     -6.09 
    94.00     12.08   1744.77   2352.64     -0.02      1.53 
    94.01     12.09   1752.01   2362.09     -0.02      1.54 
    94.02     12.09   1746.58   2354.46     -0.01      0.92 
    94.03     12.10   1744.77   2351.72      0.00     -0.31 
    94.04     12.09   1752.01   2361.78      0.01     -0.92 
    94.05     12.08   1744.77   2352.64      0.00     -0.31 
    94.06     12.08   1746.58   2355.08      0.00      2.13 
    94.07     12.07   1752.01   2363.01     -0.01     -0.30 
    94.08     12.08   1744.77   2352.94     -0.00      0.31 
    94.09     12.08   1744.77   2352.64      0.00     -0.31 
    94.10     12.07   1746.58   2355.69     -0.01     -6.71 
    94.11     12.08   1752.01   2362.71     -0.01      7.94 
    94.12     12.08   1744.77   2352.94     -0.02      1.53 
    94.13     12.08   1752.01   2362.40     -0.02      1.54 
    94.14     12.09   1746.58   2354.46     -0.00      2.75 
    94.15     12.09   1744.77   2352.33      0.00    -10.07 
    94.16     12.09   1752.01   2362.09      0.00      7.01 
    94.17     12.09   1744.77   2352.33      0.01     -0.92 
    94.18     12.09   1746.58   2354.77      0.01      1.52 
    94.19     12.09   1752.01   2362.09      0.01     -0.61 
    94.20     12.09   1744.77   2352.03      0.02     -1.22 
    94.21     12.09   1744.77   2352.03      0.01    -10.37 
    94.22     12.10   1746.58   2354.16      0.00      2.13 
    94.23     12.10   1752.01   2361.48      0.01      6.71 
    94.24     12.09   1744.77   2352.33      0.00     -9.76 
    94.25     12.08   1752.01   2362.40      0.00      9.76 
    94.26     12.08   1744.77   2352.94     -0.00      0.31 
    94.27     12.08   1746.58   2355.38     -0.01     -6.71 
    94.28     12.07   1752.01   2363.01     -0.02      8.55 
    94.29     12.08   1744.77   2352.94     -0.01      0.92 
    94.30     12.09   1744.77   2352.33      0.00     -9.76 
    94.31     12.10   1752.01   2361.48      0.01      8.84 
    94.32     12.10   1746.58   2354.16      0.02     -8.55 
    94.33     12.10   1744.77   2351.41      0.02     -1.22 
    94.34     12.10   1752.01   2361.48      0.01      6.40 
    94.35     12.09   1744.77   2352.03      0.00     -9.76 
    94.36     12.09   1752.01   2361.78     -0.00     10.07 
    94.37     12.09   1746.58   2354.46      0.00      2.44 
    94.38     12.08   1744.77   2352.64     -0.01    -10.37 
    94.39     12.09   1744.77   2352.33      0.01     -0.61 
    94.40     12.09   1752.01   2362.09      0.00      9.45 
    94.41     12.09   1746.58   2354.77      0.00     -7.63 
    94.42     12.09   1744.77   2352.33      0.00     -2.75 
    94.43     12.09   1752.01   2362.09      0.00      9.76 
    94.44     12.09   1744.77   2352.33      0.00    -10.07 
    94.45     12.09   1752.01   2361.78      0.01      8.84 
    94.46     12.09   1746.58   2354.77      0.00     -0.31 
    94.47     12.08   1744.77   2352.64     -0.00     -9.45 
    94.48     12.08   1752.01   2362.40     -0.00     10.07 
    94.49     12.08   1744.77   2352.64     -0.01     -1.83 
    94.50     12.09   1746.58   2354.46      0.00     -7.32 
    94.51     12.09   1744.77   2352.03     -0.00      0.31 
    94.52     12.09   1752.01   2361.78      0.00      7.32 
    94.53     12.10   1744.77   2351.72      0.00    -10.07 
    94.54     12.11   1746.58   2353.55      0.01     -0.92 
    94.55     12.10   1752.01   2361.17      0.02      8.53 
    94.56     12.09   1744.77   2352.03      0.01    -10.37 
    94.57     12.08   1752.01   2362.40      0.00      9.76 
    94.58     12.08   1744.77   2352.94     -0.01      0.61 
    94.59     12.09   1746.58   2354.77     -0.00      0.31 
    94.60     12.09   1752.01   2362.09     -0.01      0.61 
    94.61     12.09   1744.77   2352.03      0.00      0.00 
    94.62     12.09   1744.77   2352.03      0.01    -10.37 
    94.63     12.09   1746.58   2354.46      0.00     -0.31 
    94.64     12.10   1752.01   2361.48      0.01      8.84 
    94.65     12.10   1744.77   2351.41      0.02    -10.99 
    94.66     12.09   1752.01   2361.78      0.01      8.84 
    94.67     12.09   1746.58   2354.77      0.01      1.83 
    94.68     12.08   1744.77   2352.94      0.00     -9.76 
    94.69     12.08   1752.01   2362.40      0.01      6.71 
    94.70     12.09   1746.58   2354.77      0.01      1.83 
    94.71     12.10   1744.77   2351.72      0.03    -11.60 
    94.72     12.11   1744.77   2351.11      0.04     -2.45 
    94.73     12.11   1744.77   2351.11      0.03    -11.91 
    94.74     12.11   1744.77   2351.11      0.03     -1.84 
    94.75     12.11   1744.77   2351.11      0.02     -3.66 
    94.76     12.11   1744.77   2351.11      0.01     -0.92 
    94.77     12.11   1744.77   2351.11      0.02    -10.98 
    94.78     12.11   1744.77   2351.11      0.01     -0.92 
    94.79     12.11   1744.77   2351.11      0.02    -10.98 
    94.80     12.11   1744.77   2351.11      0.02     -3.66 
    94.81     12.11   1744.77   2351.11      0.01     -0.92 
    94.82     12.11   1744.77   2351.11      0.02    -11.29 
    94.83     12.11   1744.77   2351.11      0.01     -0.61 
    94.84     12.11   1744.77   2351.11      0.01     -3.05 
    94.85     12.11   1744.77   2351.11      0.01    -10.37 
    94.86     12.11   1744.77   2351.11      0.00     -0.31 
    94.87     12.11   1744.77   2351.11      0.01     -0.61 
    94.88     12.11   1744.77   2351.11      0.01    -11.59 
    94.89     12.11   1744.77   2351.11      0.01     -0.61 
    94.90     12.11   1744.77   2351.11      0.01     -0.92 
    94.91     12.11   1744.77   2351.11      0.02     -3.97 
    94.92     12.11   1744.77   2351.11      0.02    -11.29 
    94.93     12.11   1744.77   2351.11      0.02     -1.22 
    94.94     12.11   1744.77   2351.11      0.02     -3.97 
    94.95     12.11   1744.77   2351.11      0.02    -11.29 
    94.96     12.11   1744.77   2351.11      0.03     -1.84 
    94.97     12.11   1744.77   2351.11      0.03    -11.60 
    94.98     12.11   1744.77   2351.11      0.03     -4.28 
    94.99     12.11   1744.77   2351.11      0.02     -1.53 
    95.00     12.11   1744.77   2351.11      0.02    -10.98 
    95.01     12.11   1744.77   2351.11      0.01     -3.36 
    95.02     12.11   1744.77   2351.11      0.01     -0.61 
