#Written by Robertson Geologging WinLogger V1.5/410
~VERSION INFORMATION
#------------------------------------------------------------------------------
 VERS. 2.0 : CWLS LOG ASCII STANDARD - VERSION 2.0
 WRAP. NO  : ONE LINE PER DEPTH STEP
~WELL INFORMATION
#MNEM.UNIT         DATA                                DESCRIPTION OF MNEMONIC
#------------------------------------------------------------------------------
 STRT.M          0.0600                            :   START DEPTH
 STOP.M         94.0500                            :   STOP DEPTH
 STEP.M          0.0100                            :   STEP VALUE
 NULL.        -999.2500                            :   NULL VALUE
 COMP.    Coal Authority                           :   COMPANY NAME
 WELL.    Ladysmith Shaft                          :   WELL NAME
 FLD.     N/A                                      :   FIELD NAME
 LOC.     N/A                                      :   LOCATION
 PROV.    N/A                                      :   PROVINCE
 SRVC.    N/A                                      :   SERVICE COMPANY NAME
 DATE.    15 Dec 08                                :   DATE
 UWI.     N/A                                      :   UNIQUE WELL IDENTIFIER
~PARAMETER INFORMATION
#MNEMO.UNIT         VALUE                 DESCRIPTION OF MNEMONIC
#------------------------------------------------------------------------------
~OTHER INFORMATION SECTION
#------------------------------------------------------------------------------
 TCDS 1365
 15,12,2008
~CURVE INFORMATION
#MNEMO.UNIT         API CODE              CURVE DESCRIPTION
#------------------------------------------------------------------------------
 DEPTH.M                                 :   0     Depth
 COND.uS/cm                              :   1     Conductivity@25DegC
 COND.uS/cm                              :   2     Absolute Conductivity
 TEMP.DegC                               :   3     Temperature
 DELT.DegC                               :   4     Delta T
 DELC.uS/cm                              :   5     Delta C
 NGAM.CPS                                :   6     Natural Gamma
#------------------------------------------------------------------------------
~A  DEPTH          COND          COND          TEMP          DELT          DELC          NGAM
# ...
    31.02       2338.46       1720.67         11.79         -0.00          0.74          1.47
    31.03       2337.88       1720.25         11.79         -0.00          4.23          1.47
    31.04       2338.46       1720.67         11.79         -0.00          4.89          1.06
    31.05       2338.40       1720.67         11.79         -0.01          0.96          1.47
    31.06       2338.37       1720.67         11.79         -0.01          1.02          1.12
    31.07       2338.32       1720.67         11.79         -0.01          5.06          1.12
    31.08       2334.28       1717.72         11.79         -0.01          1.02          1.12
    31.09       2334.31       1717.72         11.79         -0.01         -3.08          0.76
    31.10       2338.86       1721.09         11.79         -0.01          0.93          0.76
    31.11       2338.83       1721.09         11.79         -0.01          1.48          0.76
    31.12       2338.72       1721.09         11.80         -0.00          5.35          0.76
    31.13       2334.60       1718.14         11.80         -0.00         -2.81          0.76
    31.14       2334.43       1718.14         11.80          0.00         -3.12          0.76
    31.15       2338.30       1721.09         11.80          0.01          1.19          0.76
    31.16       2334.21       1718.14         11.80          0.01          0.99          0.76
    31.17       2333.61       1717.72         11.80          0.01         -4.33          0.41
    31.18       2333.61       1717.72         11.80          0.01         -4.39          0.41
    31.19       2337.68       1720.67         11.80          0.01         -0.35          0.41
    31.20       2337.73       1720.67         11.80          0.01         -0.29          0.41
    31.21       2333.18       1717.30         11.80          0.01         -4.87          0.41
    31.22       2332.66       1716.88         11.80          0.01         -6.02          0.00
    31.23       2336.70       1719.83         11.80          0.01         -2.01          0.00
    31.24       2336.13       1719.41         11.80          0.01         -2.58          0.00
    31.25       2336.73       1719.83         11.80          0.01         -1.95          0.00
    31.26       2332.14       1716.46         11.80          0.01         -7.65          0.00
    31.27       2336.15       1719.41         11.80          0.01         -3.75          0.35
    31.28       2336.07       1719.41         11.80          0.02         -3.89          0.35
    31.29       2336.59       1719.83         11.80          0.02         -2.29          0.35
    31.30       2331.87       1716.46         11.80          0.02         -7.58          0.35
    31.31       2335.76       1719.41         11.81          0.02         -3.60          0.35
    31.32       2335.71       1719.41         11.81          0.02         -3.60          0.35
    31.33       2336.20       1719.83         11.81          0.02         -2.51          0.76
    31.34       2331.67       1716.46         11.81          0.02        -11.13          0.76
    31.35       2336.31       1719.83         11.81          0.02         -2.62          0.76
    31.36       2335.82       1719.41         11.81          0.02         -2.65          1.12
    31.37       2336.53       1719.83         11.80          0.02         -2.11          1.12
    31.38       2332.03       1716.46         11.80          0.02        -10.59          1.12
    31.39       2336.75       1719.83         11.80          0.02         -1.83          1.12
    31.40       2336.29       1719.41         11.80          0.02         -2.83          1.12
    31.41       2337.00       1719.83         11.80          0.01         -6.08          1.53
    31.42       2332.51       1716.46         11.79          0.01         -5.99          1.53
    31.43       2333.11       1716.88         11.79          0.01         -5.34          1.94
    31.44       2337.12       1719.83         11.79          0.01         -5.85          1.59
    31.45       2337.58       1720.25         11.80          0.01         -0.61          2.00
    31.46       2332.91       1716.88         11.80          0.01         -5.06          2.35
    31.47       2333.48       1717.30         11.80          0.00         -4.26          2.35
    31.48       2332.91       1716.88         11.80         -0.00         -8.59          2.71
    31.49       2337.58       1720.25         11.80         -0.00          0.85          3.12
    31.50       2333.62       1717.30         11.79         -0.01         -2.94          3.06
    31.51       2333.57       1717.30         11.80         -0.01         -7.49          3.06
    31.52       2333.57       1717.30         11.80         -0.01         -3.45          3.06
    31.53       2334.06       1717.72         11.80         -0.01         -2.96          2.71
    31.54       2338.01       1720.67         11.80         -0.01          0.93          2.71
    31.55       2333.34       1717.30         11.80         -0.00         -3.73          2.71
    31.56       2333.23       1717.30         11.80         -0.00         -4.47          2.71
    31.57       2333.72       1717.72         11.80         -0.00         -3.41          3.12
    31.58       2333.58       1717.72         11.80          0.00         -8.19          2.71
    31.59       2338.05       1721.09         11.81          0.01          0.81          2.71
    31.60       2333.96       1718.14         11.81          0.01         -3.99          2.29
    31.61       2333.30       1717.72         11.81          0.01         -4.19          2.29
    31.62       2333.93       1718.14         11.81          0.01         -3.65          1.88
    31.63       2337.91       1721.09         11.81          0.01          0.28          1.53
    31.64       2337.37       1720.67         11.81          0.01         -0.26          1.53
    31.65       2333.30       1717.72         11.81          0.01         -4.36          1.18
    31.66       2337.89       1721.09         11.81          0.02          0.17          0.76
    31.67       2338.02       1721.09         11.81          0.01          0.28          0.41
    31.68       2337.51       1720.67         11.81          0.01         -0.84          0.41
    31.69       2337.65       1720.67         11.80          0.01          3.94          0.41
    31.70       2337.70       1720.67         11.80          0.01         -0.45          0.41
    31.71       2337.73       1720.67         11.80          0.00         -0.28          0.41
    31.72       2337.79       1720.67         11.80          0.00         -0.71          0.41
    31.73       2337.79       1720.67         11.80          0.00          4.50          0.41
    31.74       2337.82       1720.67         11.80          0.00          0.52          0.00
    31.75       2338.36       1721.09         11.80          0.00          1.03          0.00
    31.76       2337.84       1720.67         11.80          0.00          0.52          0.00
    31.77       2333.92       1717.72         11.80         -0.00          0.63          0.00
    31.78       2338.01       1720.67         11.80         -0.00          0.74          0.00
    31.79       2338.69       1721.09         11.80         -0.00          1.37          0.00
    31.80       2338.15       1720.67         11.80         -0.00          0.71          0.00
    31.81       2334.17       1717.72         11.80          0.00          0.57          0.00
    31.82       2338.12       1720.67         11.80          0.00          0.43          0.00
    31.83       2338.12       1720.67         11.80          0.00          0.43          0.00
    31.84       2338.18       1720.67         11.80          0.00         -0.60          0.00
    31.85       2333.68       1717.30         11.79         -0.00         -5.04          0.00
    31.86       2337.83       1720.25         11.79         -0.00         -1.47          0.00
    31.87       2338.46       1720.67         11.79         -0.00         -0.27          0.00
