#Written by Robertson Geologging WinLogger V1.0/406
~VERSION INFORMATION
#------------------------------------------------------------------------------
 VERS. 2.0 : CWLS LOG ASCII STANDARD - VERSION 2.0
 WRAP. NO  : ONE LINE PER DEPTH STEP
~WELL INFORMATION
#MNEM.UNIT         DATA                                DESCRIPTION OF MNEMONIC
#------------------------------------------------------------------------------
 STRT.M          0.0600                            :   START DEPTH
 STOP.M         95.0200                            :   STOP DEPTH
 STEP.M          0.0100                            :   STEP VALUE
 NULL.        -999.2500                            :   NULL VALUE
 COMP.    Coal Authority                           :   COMPANY NAME
 WELL.    Ladysmith Shaft                          :   WELL NAME
 FLD.     Ladysmith                                :   FIELD NAME
 LOC.     N/A                                      :   LOCATION
 PROV.    N/A                                      :   PROVINCE
 SRVC.    N/A                                      :   SERVICE COMPANY NAME
 DATE.    20 May 08                                :   DATE
 UWI.     N/A                                      :   UNIQUE WELL IDENTIFIER
~PARAMETER INFORMATION
#MNEMO.UNIT         VALUE                 DESCRIPTION OF MNEMONIC
#------------------------------------------------------------------------------
~OTHER INFORMATION SECTION
#------------------------------------------------------------------------------
 TCDS 1365
~CURVE INFORMATION
#MNEMO.UNIT         API CODE              CURVE DESCRIPTION
#------------------------------------------------------------------------------
 DEPTH.M                                 :   0     Depth
 TEMP.DegC                               :   1     Temperature
 COND.uS/cm                              :   2     Absolute Conductivity
 COND.uS/cm                              :   3     Conductivity@25DegC
 DELT.DegC                               :   4     Delta T
 DELC.uS/cm                              :   5     Delta C
#------------------------------------------------------------------------------
~A  DEPTH     TEMP      COND      COND      DELT      DELC      
# ...
    81.90     12.07   1752.01   2363.32      0.00     -0.31 
    81.91     12.06   1744.77   2353.86     -0.01     -1.52 
    81.92     12.07   1746.58   2356.00     -0.01      3.36 
    81.93     12.08   1752.01   2362.71     -0.01      0.61 
    81.94     12.08   1744.77   2352.64     -0.01      0.92 
    81.95     12.09   1752.01   2362.09      0.00     -1.22 
    81.96     12.09   1744.77   2352.33      0.01     -0.61 
    81.97     12.09   1752.92   2363.31      0.02     -0.01 
    81.98     12.08   1744.77   2352.94      0.01     -3.36 
    81.99     12.07   1752.01   2363.01      0.01      8.84 
    82.00     12.07   1744.77   2353.56      0.00     -9.77 
    82.01     12.07   1752.01   2363.32     -0.01     10.38 
    82.02     12.07   1744.77   2353.25     -0.01    -10.06 
    82.03     12.08   1746.58   2355.08     -0.01      3.05 
    82.04     12.08   1752.01   2362.40     -0.01      0.61 
    82.05     12.08   1744.77   2352.94     -0.00     -2.13 
    82.06     12.08   1752.01   2362.71     -0.00     10.07 
    82.07     12.07   1744.77   2353.25     -0.01     -9.15 
    82.08     12.07   1752.01   2363.01     -0.00     10.07 
    82.09     12.07   1744.77   2353.56     -0.01     -8.84 
    82.10     12.07   1752.92   2364.23     -0.01     11.60 
    82.11     12.07   1744.77   2353.56     -0.01    -10.06 
    82.12     12.07   1744.77   2353.25     -0.01      0.92 
    82.13     12.08   1752.01   2362.71     -0.01      0.92 
    82.14     12.08   1744.77   2352.64     -0.00      0.31 
    82.15     12.08   1752.92   2363.93     -0.01      2.14 
    82.16     12.07   1744.77   2353.56     -0.02      1.53 
    82.17     12.07   1752.01   2363.32     -0.02      8.86 
    82.18     12.07   1744.77   2353.56     -0.02     -8.23 
    82.19     12.08   1752.01   2362.71     -0.00     10.07 
    82.20     12.08   1746.58   2355.08      0.01     -7.94 
    82.21     12.09   1744.77   2352.33      0.01     -0.92 
    82.22     12.08   1752.01   2362.40      0.00     -0.31 
    82.23     12.08   1744.77   2352.64      0.00      0.00 
    82.24     12.09   1752.01   2361.78      0.00     -1.22 
    82.25     12.09   1746.58   2354.77      0.00      2.44 
    82.26     12.09   1752.01   2361.78      0.02     -1.23 
    82.27     12.10   1744.77   2351.72      0.02     -1.22 
    82.28     12.09   1746.58   2354.77      0.02     -8.55 
    82.29     12.08   1752.01   2362.71      0.01      9.15 
    82.30     12.07   1744.77   2353.25     -0.01     -8.84 
    82.31     12.07   1752.01   2363.32     -0.01     10.68 
    82.32     12.07   1746.58   2356.00     -0.01      9.46 
    82.33     12.07   1752.01   2363.01     -0.01      0.92 
    82.34     12.08   1744.77   2352.64      0.00     -0.31 
    82.35     12.09   1752.01   2362.09      0.01     -0.92 
    82.36     12.10   1744.77   2351.41      0.03     -4.28 
    82.37     12.10   1746.58   2354.16      0.03     -9.16 
    82.38     12.09   1752.01   2362.09      0.01      9.15 
    82.39     12.08   1744.77   2352.94     -0.00     -2.13 
    82.40     12.07   1752.01   2363.01     -0.01      0.62 
    82.41     12.09   1744.77   2352.33      0.00      0.00 
    82.42     12.09   1752.92   2363.31      0.00     -0.31 
    82.43     12.09   1744.77   2352.03      0.01     -0.61 
    82.44     12.07   1752.01   2363.01     -0.01      0.92 
    82.45     12.07   1744.77   2353.25     -0.02     -1.21 
    82.46     12.07   1746.58   2355.69     -0.02      3.97 
    82.47     12.06   1752.01   2363.63     -0.03      2.15 
    82.48     12.07   1744.77   2353.56     -0.02     -0.91 
    82.49     12.07   1752.01   2363.32     -0.01      0.92 
    82.50     12.07   1744.77   2353.56     -0.01      0.92 
    82.51     12.08   1752.01   2362.71     -0.00      7.63 
    82.52     12.08   1746.58   2355.08      0.01     -7.94 
    82.53     12.07   1752.01   2363.01     -0.00     10.07 
    82.54     12.07   1744.77   2353.25      0.00    -10.98 
    82.55     12.07   1744.77   2353.25      0.00     -0.31 
    82.56     12.08   1752.92   2363.93      0.00      1.22 
    82.57     12.09   1744.77   2352.33      0.01     -3.05 
    82.58     12.09   1752.01   2362.09      0.00      9.76 
    82.59     12.09   1744.77   2352.33      0.00    -10.07 
    82.60     12.09   1746.58   2354.77      0.00      2.44 
    82.61     12.08   1752.01   2362.71     -0.00      7.63 
    82.62     12.07   1744.77   2353.25     -0.00     -9.46 
    82.63     12.07   1752.01   2363.01     -0.01     10.68 
    82.64     12.07   1746.58   2355.69     -0.00     -8.24 
    82.65     12.08   1752.01   2362.71      0.00      9.76 
    82.66     12.08   1744.77   2352.64      0.00    -10.07 
    82.67     12.08   1746.58   2355.38      0.01     -0.61 
    82.68     12.08   1752.01   2362.40      0.01      8.84 
    82.69     12.09   1744.77   2352.33      0.01    -10.68 
    82.70     12.08   1752.92   2363.62      0.00     10.98 
    82.71     12.09   1744.77   2352.33      0.01    -11.60 
    82.72     12.08   1752.01   2362.40      0.00      9.76 
    82.73     12.08   1746.58   2355.08      0.00     -7.63 
    82.74     12.08   1744.77   2352.64      0.00     -0.31 
    82.75     12.10   1752.01   2361.48      0.01      6.71 
    82.76     12.09   1746.58   2354.46      0.00     -7.63 
    82.77     12.08   1752.01   2362.40     -0.01     10.37 
    82.78     12.09   1744.77   2352.03      0.01    -10.37 
    82.79     12.08   1746.58   2355.38      0.00      0.00 
    82.80     12.08   1752.01   2362.71      0.00     -0.31 
    82.81     12.08   1744.77   2352.64      0.00      0.00 
    82.82     12.07   1752.92   2364.23     -0.00      8.85 
    82.83     12.07   1744.77   2353.25     -0.01     -9.15 
    82.84     12.08   1752.01   2362.71     -0.01     10.38 
    82.85     12.08   1746.58   2355.38     -0.01     -6.71 
    82.86     12.08   1744.77   2352.64     -0.01     -1.83 
    82.87     12.09   1752.01   2361.78      0.00      0.00 
    82.88     12.09   1746.58   2354.77      0.01      1.52 
    82.89     12.09   1752.01   2361.78      0.02     -1.54 
    82.90     12.09   1744.77   2352.03      0.03     -1.84 
    82.91     12.08   1744.77   2352.64      0.01     -3.36 
    82.92     12.08   1752.92   2363.62      0.00      0.91 
    82.93     12.07   1744.77   2353.25     -0.01      0.61 
    82.94     12.07   1752.01   2363.01     -0.01      0.92 
    82.95     12.07   1746.58   2355.69     -0.01      3.36 
    82.96     12.07   1744.77   2353.25     -0.01    -10.06 
    82.97     12.08   1752.01   2362.40      0.00      9.46 
    82.98     12.08   1746.58   2355.08      0.01     -7.94 
    82.99     12.08   1752.01   2362.71      0.01      9.15 
    83.00     12.07   1744.77   2353.25      0.00    -10.07 
    83.01     12.07   1752.01   2363.01      0.00      9.76 
    83.02     12.07   1746.58   2355.69     -0.01      0.61 
    83.03     12.08   1744.77   2352.64      0.00     -9.76 
    83.04     12.09   1752.01   2362.09      0.01      9.15 
    83.05     12.08   1744.77   2352.64      0.00    -10.07 
    83.06     12.08   1752.92   2363.62      0.01     10.37 
    83.07     12.09   1744.77   2352.33      0.01    -10.68 
    83.08     12.09   1752.01   2362.09      0.02      8.54 
    83.09     12.09   1744.77   2352.33      0.01    -11.90 
    83.10     12.08   1752.01   2362.40      0.01      8.84 
    83.11     12.08   1746.58   2355.38      0.00      2.13 
    83.12     12.07   1744.77   2353.25     -0.00     -9.46 
    83.13     12.07   1752.01   2363.32     -0.01     10.68 
    83.14     12.07   1744.77   2353.25     -0.00    -10.68 
    83.15     12.07   1752.01   2363.01      0.00      9.46 
    83.16     12.08   1746.58   2355.38      0.01     -7.94 
    83.17     12.08   1744.77   2352.64      0.01     -0.92 
    83.18     12.08   1752.01   2362.71      0.00      0.00 
    83.19     12.09   1744.77   2352.03      0.01     -3.05 
    83.20     12.11   1752.01   2360.86      0.02      8.53 
    83.21     12.11   1744.77   2351.11      0.02    -11.29 
