#Written by Robertson Geologging WinLogger V1.5/410
~VERSION INFORMATION
#------------------------------------------------------------------------------
 VERS. 2.0 : CWLS LOG ASCII STANDARD - VERSION 2.0
 WRAP. NO  : ONE LINE PER DEPTH STEP
~WELL INFORMATION
#MNEM.UNIT         DATA                                DESCRIPTION OF MNEMONIC
#------------------------------------------------------------------------------
 STRT.M          0.0600                            :   START DEPTH
 STOP.M         94.0500                            :   STOP DEPTH
 STEP.M          0.0100                            :   STEP VALUE
 NULL.        -999.2500                            :   NULL VALUE
 COMP.    Coal Authority                           :   COMPANY NAME
 WELL.    Ladysmith Shaft                          :   WELL NAME
 FLD.     N/A                                      :   FIELD NAME
 LOC.     N/A                                      :   LOCATION
 PROV.    N/A                                      :   PROVINCE
 SRVC.    N/A                                      :   SERVICE COMPANY NAME
 DATE.    15 Dec 08                                :   DATE
 UWI.     N/A                                      :   UNIQUE WELL IDENTIFIER
~PARAMETER INFORMATION
#MNEMO.UNIT         VALUE                 DESCRIPTION OF MNEMONIC
#------------------------------------------------------------------------------
~OTHER INFORMATION SECTION
#------------------------------------------------------------------------------
 TCDS 1365
 15,12,2008
~CURVE INFORMATION
#MNEMO.UNIT         API CODE              CURVE DESCRIPTION
#------------------------------------------------------------------------------
 DEPTH.M                                 :   0     Depth
 COND.uS/cm                              :   1     Conductivity@25DegC
 COND.uS/cm                              :   2     Absolute Conductivity
 TEMP.DegC                               :   3     Temperature
 DELT.DegC                               :   4     Delta T
 DELC.uS/cm                              :   5     Delta C
 NGAM.CPS                                :   6     Natural Gamma
#------------------------------------------------------------------------------
~A  DEPTH          COND          COND          TEMP          DELT          DELC          NGAM
# ...
    74.02       2335.23       1720.67         11.84          0.00          4.55          0.35
    74.03       2339.91       1724.04         11.84         -0.00          8.75          0.35
    74.04       2339.48       1723.62         11.84         -0.00          8.89          0.35
    74.05       2335.62       1720.67         11.84         -0.01          4.97          0.35
    74.06       2339.68       1723.62         11.83         -0.01          8.40          0.00
    74.07       2340.28       1724.04         11.83         -0.01          9.52          0.00
    74.08       2335.70       1720.67         11.83         -0.01          4.91          0.00
    74.09       2339.73       1723.62         11.83         -0.00          8.32          0.00
    74.10       2339.73       1723.62         11.83         -0.00          4.20          0.00
    74.11       2335.75       1720.67         11.83         -0.00          4.15          0.00
    74.12       2336.33       1721.09         11.83         -0.00          4.61          0.00
    74.13       2340.30       1724.04         11.83          0.00          8.53          0.00
    74.14       2336.30       1721.09         11.83          0.00          4.55          0.00
    74.15       2340.82       1724.47         11.83          0.00          4.52          0.00
    74.16       2340.76       1724.47         11.84          0.00          8.58          0.00
    74.17       2336.16       1721.09         11.84         -0.00          4.09          0.00
    74.18       2340.17       1724.04         11.84         -0.00          8.12          0.00
    74.19       2340.22       1724.04         11.84         -0.00          4.20          0.00
    74.20       2336.19       1721.09         11.84         -0.00          0.17          0.00
    74.21       2340.17       1724.04         11.84         -0.00          8.18          0.35
    74.22       2340.11       1724.04         11.84         -0.00          8.70          0.35
    74.23       2339.48       1723.62         11.84         -0.00          7.50          0.35
    74.24       2339.54       1723.62         11.84         -0.00          3.52          0.35
    74.25       2339.59       1723.62         11.84         -0.00          3.52          0.35
    74.26       2339.65       1723.62         11.84         -0.00          7.61          0.35
    74.27       2339.65       1723.62         11.84         -0.00          8.26          0.35
    74.28       2339.65       1723.62         11.84         -0.00          8.29          0.35
    74.29       2339.59       1723.62         11.84         -0.00          3.71          0.35
    74.30       2340.08       1724.04         11.84         -0.00          8.72          0.71
    74.31       2339.45       1723.62         11.84          0.00          8.01          0.71
    74.32       2339.34       1723.62         11.84          0.00          8.36          1.12
    74.33       2339.31       1723.62         11.84          0.00          3.70          1.12
    74.34       2343.86       1727.00         11.84          0.01          8.25          1.53
    74.35       2339.86       1724.04         11.84          0.01          8.74          1.53
    74.36       2339.86       1724.04         11.84          0.01          8.74          1.53
    74.37       2339.80       1724.04         11.84          0.01          4.59          1.53
    74.38       2339.78       1724.04         11.84          0.01          3.80          1.18
    74.39       2344.32       1727.42         11.84          0.01          8.78          1.53
    74.40       2340.35       1724.47         11.84          0.02          8.67          1.94
    74.41       2340.37       1724.47         11.84          0.02          4.09          1.94
    74.42       2344.98       1727.84         11.84          0.02          9.27          1.94
    74.43       2341.03       1724.89         11.84          0.01          4.83          1.94
    74.44       2344.98       1727.84         11.84          0.01         12.87          1.94
    74.45       2341.03       1724.89         11.84          0.01          4.94          1.94
    74.46       2341.03       1724.89         11.84          0.01          4.51          1.94
    74.47       2345.04       1727.84         11.84          0.01          8.54          1.59
    74.48       2341.09       1724.89         11.84          0.01          9.14          1.59
    74.49       2345.09       1727.84         11.84          0.01          9.17          1.18
    74.50       2341.06       1724.89         11.84          0.01          4.65          1.18
    74.51       2340.37       1724.47         11.84          0.01          4.65          0.76
    74.52       2344.32       1727.42         11.84          0.01         12.72          1.47
    74.53       2340.26       1724.47         11.84          0.01          4.16          1.47
    74.54       2344.21       1727.42         11.84          0.01          8.08          1.47
    74.55       2340.21       1724.47         11.84          0.01          4.05          1.47
    74.56       2340.15       1724.47         11.85          0.01          3.99          1.12
    74.57       2344.07       1727.42         11.85          0.01          7.91          0.71
    74.58       2339.98       1724.47         11.85          0.01          3.83          1.06
    74.59       2343.96       1727.42         11.85          0.01          7.29          1.06
    74.60       2339.41       1724.04         11.85          0.01          2.77          1.06
    74.61       2343.45       1727.00         11.85          0.01          6.83          1.06
    74.62       2344.13       1727.42         11.85          0.01          7.02          1.41
    74.63       2339.61       1724.04         11.84          0.00          2.58          1.76
    74.64       2343.61       1727.00         11.84          0.00          6.73          1.76
    74.65       2339.09       1723.62         11.84         -0.00          2.37          1.76
    74.66       2343.15       1726.58         11.84         -0.00          7.03          1.76
    74.67       2343.15       1726.58         11.84         -0.00         11.04          1.76
    74.68       2343.26       1726.58         11.84         -0.00          7.09          1.76
    74.69       2343.29       1726.58         11.84         -0.00          7.06          1.06
    74.70       2339.26       1723.62         11.84         -0.00          3.08          1.06
    74.71       2343.84       1727.00         11.84         -0.00         11.70          1.41
    74.72       2339.78       1724.04         11.84         -0.00          3.57          1.41
    74.73       2343.78       1727.00         11.84         -0.00          7.52          1.41
    74.74       2344.30       1727.42         11.84          0.00          7.90          1.41
    74.75       2344.30       1727.42         11.84          0.00          7.76          1.06
    74.76       2344.87       1727.84         11.84          0.00          8.28          1.06
    74.77       2340.18       1724.47         11.84          0.01          3.02          1.06
    74.78       2344.13       1727.42         11.85          0.01          6.97          1.06
    74.79       2340.01       1724.47         11.85          0.01          2.88          0.71
    74.80       2343.96       1727.42         11.85          0.01          7.43          0.35
    74.81       2343.93       1727.42         11.85          0.01          7.31          0.71
    74.82       2343.91       1727.42         11.85          0.01          3.25          0.71
    74.83       2343.91       1727.42         11.85          0.01          7.29          1.06
    74.84       2343.79       1727.42         11.85          0.01          7.15          1.06
    74.85       2343.74       1727.42         11.85          0.01          7.77          1.06
    74.86       2339.68       1724.47         11.85          0.01          3.83          1.41
    74.87       2343.60       1727.42         11.85          0.01          7.80          1.41
