#Written by Robertson Geologging WinLogger V1.0/406
~VERSION INFORMATION
#------------------------------------------------------------------------------
 VERS. 2.0 : CWLS LOG ASCII STANDARD - VERSION 2.0
 WRAP. NO  : ONE LINE PER DEPTH STEP
~WELL INFORMATION
#MNEM.UNIT         DATA                                DESCRIPTION OF MNEMONIC
#------------------------------------------------------------------------------
 STRT.M          0.0600                            :   START DEPTH
 STOP.M         95.0200                            :   STOP DEPTH
 STEP.M          0.0100                            :   STEP VALUE
 NULL.        -999.2500                            :   NULL VALUE
 COMP.    Coal Authority                           :   COMPANY NAME
 WELL.    Ladysmith Shaft                          :   WELL NAME
 FLD.     Ladysmith                                :   FIELD NAME
 LOC.     N/A                                      :   LOCATION
 PROV.    N/A                                      :   PROVINCE
 SRVC.    N/A                                      :   SERVICE COMPANY NAME
 DATE.    20 May 08                                :   DATE
 UWI.     N/A                                      :   UNIQUE WELL IDENTIFIER
~PARAMETER INFORMATION
#MNEMO.UNIT         VALUE                 DESCRIPTION OF MNEMONIC
#------------------------------------------------------------------------------
~OTHER INFORMATION SECTION
#------------------------------------------------------------------------------
 TCDS 1365
~CURVE INFORMATION
#MNEMO.UNIT         API CODE              CURVE DESCRIPTION
#------------------------------------------------------------------------------
 DEPTH.M                                 :   0     Depth
 TEMP.DegC                               :   1     Temperature
 COND.uS/cm                              :   2     Absolute Conductivity
 COND.uS/cm                              :   3     Conductivity@25DegC
 DELT.DegC                               :   4     Delta T
 DELC.uS/cm                              :   5     Delta C
#------------------------------------------------------------------------------
~A  DEPTH     TEMP      COND      COND      DELT      DELC      
# ...
    18.54     11.84   1706.77   2316.47      0.03     -1.82 
    18.55     11.84   1706.77   2316.78      0.02     -0.29 
    18.56     11.83   1699.54   2307.26      0.01     -0.60 
    18.57     11.82   1706.77   2317.99     -0.02      1.21 
    18.58     11.82   1705.87   2316.76     -0.02     -0.01 
    18.59     11.83   1701.35   2309.71     -0.01      7.05 
    18.60     11.84   1705.87   2315.25      0.00     -2.76 
    18.61     11.84   1699.54   2306.35      0.00     -8.59 
    18.62     11.84   1706.77   2316.47     -0.02     11.03 
    18.63     11.84   1706.77   2316.47     -0.01      0.61 
    18.64     11.83   1699.54   2307.26     -0.03     -8.00 
    18.65     11.83   1706.77   2317.08     -0.01     10.73 
    18.66     11.83   1699.54   2307.26     -0.01     -9.22 
    18.67     11.83   1706.77   2317.38     -0.02      1.21 
    18.68     11.83   1706.77   2317.08     -0.00     10.13 
    18.69     11.84   1699.54   2306.65      0.00     -9.82 
    18.70     11.84   1706.77   2316.47      0.01     -0.61 
    18.71     11.83   1699.54   2307.26      0.02     -1.21 
    18.72     11.82   1706.77   2317.69      0.01     -0.61 
    18.73     11.82   1699.54   2307.86      0.01    -10.74 
    18.74     11.83   1705.87   2316.16      0.01      7.69 
    18.75     11.83   1706.77   2317.08      0.02     -1.52 
    18.76     11.84   1699.54   2306.65      0.03    -11.64 
    18.77     11.83   1706.77   2317.08      0.01      8.92 
    18.78     11.83   1706.77   2317.08      0.01     -0.91 
    18.79     11.83   1699.54   2307.56      0.00      0.00 
    18.80     11.82   1705.87   2316.76     -0.01     -0.32 
    18.81     11.82   1699.54   2307.86     -0.01     -9.22 
    18.82     11.82   1706.77   2317.69     -0.01     10.43 
    18.83     11.82   1706.77   2317.69     -0.01      0.91 
    18.84     11.83   1699.54   2307.56      0.00     -9.83 
    18.85     11.84   1706.77   2316.78      0.00      9.52 
    18.86     11.82   1699.54   2307.86     -0.01     -7.69 
    18.87     11.82   1705.87   2316.46     -0.02     -1.24 
    18.88     11.83   1706.77   2317.08     -0.01     10.43 
    18.89     11.83   1699.54   2307.26     -0.01     -7.99 
    18.90     11.84   1706.77   2316.47      0.00      0.00 
    18.91     11.84   1699.54   2306.35      0.01     -0.60 
    18.92     11.83   1706.77   2317.08      0.00      0.00 
    18.93     11.83   1705.87   2315.85      0.00     -1.53 
    18.94     11.84   1699.54   2306.95      0.01     -0.91 
    18.95     11.84   1706.77   2316.47      0.01     -0.91 
    18.96     11.84   1706.77   2316.47      0.00     -0.30 
    18.97     11.84   1699.54   2306.65      0.00      0.00 
    18.98     11.84   1706.77   2316.47      0.00     -0.30 
    18.99     11.83   1699.54   2307.56      0.01    -10.43 
    19.00     11.83   1706.77   2317.38      0.00      9.83 
    19.01     11.82   1699.54   2308.16      0.00    -10.13 
    19.02     11.81   1706.77   2318.60     -0.01      0.91 
    19.03     11.82   1699.54   2308.16     -0.01      0.91 
    19.04     11.81   1706.77   2318.30      0.00      0.00 
    19.05     11.82   1706.77   2317.69      0.00     -0.30 
    19.06     11.83   1699.54   2307.56      0.01     -0.61 
    19.07     11.82   1705.87   2316.46      0.00     -1.23 
    19.08     11.83   1706.77   2317.38     -0.01      0.91 
    19.09     11.82   1701.35   2310.32     -0.02      7.65 
    19.10     11.83   1705.87   2316.16     -0.01     -0.32 
    19.11     11.84   1699.54   2306.95     -0.01     -9.22 
    19.12     11.83   1706.77   2317.08      0.00      9.82 
    19.13     11.84   1699.54   2306.95      0.00    -10.13 
    19.14     11.83   1706.77   2317.08      0.00     -0.30 
    19.15     11.84   1706.77   2316.78      0.01      8.92 
    19.16     11.84   1699.54   2306.35      0.02    -11.03 
    19.17     11.83   1706.77   2317.08      0.01     -0.91 
    19.18     11.82   1699.54   2307.86      0.00      0.00 
    19.19     11.81   1706.77   2318.30     -0.02      2.44 
    19.20     11.81   1705.87   2317.07     -0.03      0.59 
    19.21     11.82   1699.54   2308.16     -0.03      2.12 
    19.22     11.83   1706.77   2317.38     -0.02      1.52 
    19.23     11.83   1699.54   2307.26     -0.00     -9.52 
    19.24     11.83   1706.77   2317.08      0.00      9.52 
    19.25     11.84   1699.54   2306.95      0.01    -10.73 
    19.26     11.84   1706.77   2316.47      0.01      0.32 
    19.27     11.83   1706.77   2317.08      0.00      9.82 
    19.28     11.83   1699.54   2307.56     -0.00     -9.52 
    19.29     11.82   1706.77   2317.99     -0.01     10.74 
    19.30     11.81   1699.54   2308.77     -0.03     -6.78 
    19.31     11.81   1706.77   2318.60     -0.03      1.82 
    19.32     11.81   1699.54   2308.47     -0.02     -8.31 
    19.33     11.82   1705.87   2316.46     -0.01      9.20 
    19.34     11.83   1706.77   2317.38      0.00      0.00 
    19.35     11.84   1699.54   2306.95      0.01     -0.60 
    19.36     11.84   1706.77   2316.78      0.01      0.32 
    19.37     11.83   1699.54   2307.26      0.00    -11.36 
    19.38     11.83   1706.77   2317.08      0.00      9.82 
    19.39     11.83   1706.77   2317.38     -0.01      2.14 
    19.40     11.82   1699.54   2307.86     -0.02     -8.61 
    19.41     11.83   1706.77   2317.38     -0.02     11.03 
    19.42     11.84   1699.54   2306.95      0.00    -10.13 
    19.43     11.83   1706.77   2317.38      0.00     -0.30 
    19.44     11.82   1699.54   2307.86      0.00      0.00 
    19.45     11.82   1706.77   2317.99     -0.00      0.30 
    19.46     11.81   1706.77   2318.60     -0.02      2.75 
    19.47     11.81   1699.54   2308.77     -0.02      1.51 
    19.48     11.81   1705.87   2317.07     -0.02     -1.24 
    19.49     11.82   1701.35   2310.62     -0.01     -5.54 
    19.50     11.82   1705.87   2316.46     -0.00      8.90 
    19.51     11.83   1706.77   2317.08      0.00      0.00 
    19.52     11.84   1699.54   2306.95      0.00      0.00 
    19.53     11.84   1706.77   2316.78     -0.00      0.30 
    19.54     11.83   1699.54   2307.26     -0.00     -9.52 
    19.55     11.83   1706.77   2317.38     -0.00     10.13 
    19.56     11.82   1699.54   2308.16      0.00     -9.83 
    19.57     11.81   1706.77   2318.60     -0.01      1.84 
    19.58     11.81   1699.54   2308.47     -0.02     -1.25 
    19.59     11.81   1706.77   2318.30     -0.03      3.05 
    19.60     11.82   1705.87   2316.46     -0.02     10.11 
    19.61     11.83   1699.54   2307.56     -0.01     -8.92 
    19.62     11.83   1706.77   2317.38     -0.01      0.91 
    19.63     11.83   1699.54   2307.56     -0.00      0.30 
    19.64     11.82   1706.77   2317.99     -0.01      0.91 
    19.65     11.82   1699.54   2307.86     -0.01      0.60 
    19.66     11.83   1706.77   2317.38      0.00      0.00 
    19.67     11.84   1705.87   2315.55      0.00     -1.53 
    19.68     11.84   1699.54   2306.35      0.00     -0.30 
    19.69     11.85   1706.77   2315.87      0.01     -0.61 
    19.70     11.84   1699.54   2306.65      0.01     -0.60 
    19.71     11.83   1706.77   2317.08      0.01     -0.61 
    19.72     11.82   1699.54   2307.86      0.00      0.00 
    19.73     11.81   1706.77   2318.60     -0.02      2.44 
    19.74     11.81   1699.54   2308.47     -0.02     -8.61 
    19.75     11.82   1705.87   2316.76     -0.02     10.11 
    19.76     11.83   1706.77   2317.38     -0.00      0.30 
    19.77     11.83   1699.54   2307.26      0.00     -9.82 
    19.78     11.83   1706.77   2317.08      0.00      9.52 
    19.79     11.83   1699.54   2307.56      0.01     -9.20 
    19.80     11.84   1706.77   2316.78      0.01      8.92 
    19.81     11.83   1699.54   2307.26      0.01    -10.43 
    19.82     11.83   1706.77   2317.08      0.01     -0.61 
    19.83     11.83   1699.54   2307.26      0.00     -0.30 
    19.84     11.82   1705.87   2316.46     -0.01     -0.32 
    19.85     11.82   1706.77   2317.69      0.00      9.83 
