#Written by Robertson Geologging WinLogger V1.5/410
~VERSION INFORMATION
#------------------------------------------------------------------------------
 VERS. 2.0 : CWLS LOG ASCII STANDARD - VERSION 2.0
 WRAP. NO  : ONE LINE PER DEPTH STEP
~WELL INFORMATION
#MNEM.UNIT         DATA                                DESCRIPTION OF MNEMONIC
#------------------------------------------------------------------------------
 STRT.M          0.0600                            :   START DEPTH
 STOP.M         94.0500                            :   STOP DEPTH
 STEP.M          0.0100                            :   STEP VALUE
 NULL.        -999.2500                            :   NULL VALUE
 COMP.    Coal Authority                           :   COMPANY NAME
 WELL.    Ladysmith Shaft                          :   WELL NAME
 FLD.     N/A                                      :   FIELD NAME
 LOC.     N/A                                      :   LOCATION
 PROV.    N/A                                      :   PROVINCE
 SRVC.    N/A                                      :   SERVICE COMPANY NAME
 DATE.    15 Dec 08                                :   DATE
 UWI.     N/A                                      :   UNIQUE WELL IDENTIFIER
~PARAMETER INFORMATION
#MNEMO.UNIT         VALUE                 DESCRIPTION OF MNEMONIC
#------------------------------------------------------------------------------
~OTHER INFORMATION SECTION
#------------------------------------------------------------------------------
 TCDS 1365
 15,12,2008
~CURVE INFORMATION
#MNEMO.UNIT         API CODE              CURVE DESCRIPTION
#------------------------------------------------------------------------------
 DEPTH.M                                 :   0     Depth
 COND.uS/cm                              :   1     Conductivity@25DegC
 COND.uS/cm                              :   2     Absolute Conductivity
 TEMP.DegC                               :   3     Temperature
 DELT.DegC                               :   4     Delta T
 DELC.uS/cm                              :   5     Delta C
 NGAM.CPS                                :   6     Natural Gamma
#------------------------------------------------------------------------------
~A  DEPTH          COND          COND          TEMP          DELT          DELC          NGAM
# ...
    80.90       2370.96       1748.08         11.86         -0.00          3.75          0.35
    80.91       2367.58       1745.55         11.86         -0.01          0.39          0.35
    80.92       2367.60       1745.55         11.86         -0.01          0.42          0.35
    80.93       2371.70       1748.50         11.86         -0.01          4.40          0.35
    80.94       2371.75       1748.50         11.86         -0.01          4.40          0.35
    80.95       2371.75       1748.50         11.86         -0.00          4.32          0.71
    80.96       2371.81       1748.50         11.86         -0.00          4.29          0.71
    80.97       2371.78       1748.50         11.86         -0.00          4.24          0.71
    80.98       2371.70       1748.50         11.86         -0.00          4.09          0.71
    80.99       2371.61       1748.50         11.86          0.00          3.93          0.71
    81.00       2371.47       1748.50         11.87          0.00          3.76          0.71
    81.01       2371.30       1748.50         11.87          0.01          3.56          0.71
    81.02       2371.13       1748.50         11.87          0.01          3.33          0.71
    81.03       2374.46       1751.04         11.87          0.01          6.60          1.06
    81.04       2370.33       1748.08         11.87          0.02          2.45          1.06
    81.05       2370.28       1748.08         11.88          0.02          2.42          0.71
    81.06       2370.22       1748.08         11.88          0.02          2.42          0.71
    81.07       2370.17       1748.08         11.88          0.02          2.45          1.06
    81.08       2370.19       1748.08         11.88          0.01          2.56          1.06
    81.09       2370.17       1748.08         11.88          0.01          2.56          1.06
    81.10       2370.22       1748.08         11.88          0.01          2.67          1.06
    81.11       2370.33       1748.08         11.87          0.01          2.84          1.06
    81.12       2370.50       1748.08         11.87          0.01          3.07          1.12
    81.13       2374.71       1751.04         11.87          0.00          7.36          1.12
    81.14       2371.42       1748.50         11.87         -0.00          4.12          1.12
    81.15       2371.44       1748.50         11.87         -0.00          4.21          1.12
    81.16       2371.42       1748.50         11.87         -0.00          4.18          1.12
    81.17       2371.39       1748.50         11.87         -0.00          4.15          1.12
    81.18       2371.33       1748.50         11.87         -0.00          0.66          1.12
    81.19       2371.33       1748.50         11.87         -0.00          0.63          1.12
    81.20       2371.39       1748.50         11.87         -0.00          0.71          0.76
    81.21       2371.42       1748.50         11.87         -0.00          0.71          0.76
    81.22       2374.85       1751.04         11.87         -0.00          4.09          0.76
    81.23       2374.77       1751.04         11.87          0.00          3.98          0.76
    81.24       2370.67       1748.08         11.87          0.00         -0.28          0.41
    81.25       2370.67       1748.08         11.87          0.01         -0.45          0.41
    81.26       2370.76       1748.08         11.87          0.01         -0.42          0.41
    81.27       2370.81       1748.08         11.87          0.01         -0.42          0.41
    81.28       2370.76       1748.08         11.87          0.01         -0.48          0.41
    81.29       2370.65       1748.08         11.87          0.01          2.87          0.00
    81.30       2374.46       1751.04         11.87          0.01          6.66          0.00
    81.31       2374.29       1751.04         11.88          0.02          6.46          0.00
    81.32       2374.17       1751.04         11.88          0.02          6.43          0.00
    81.33       2370.60       1748.50         11.88          0.02          2.97          0.00
    81.34       2370.51       1748.50         11.88          0.02          2.99          0.00
    81.35       2370.43       1748.50         11.88          0.01          3.16          0.00
    81.36       2370.29       1748.50         11.88          0.01          3.22          0.00
    81.37       2370.17       1748.50         11.89          0.01          3.16          0.00
    81.38       2373.55       1751.04         11.89          0.01          6.60          0.00
    81.39       2373.58       1751.04         11.89          0.01          6.65          0.35
    81.40       2373.64       1751.04         11.89          0.01          6.68          0.35
    81.41       2369.66       1748.08         11.88          0.01          2.79          0.35
    81.42       2369.71       1748.08         11.88          0.01          2.93          0.35
    81.43       2369.71       1748.08         11.88          0.01          2.87          0.35
    81.44       2369.83       1748.08         11.88          0.01          2.93          0.35
    81.45       2373.46       1750.61         11.88          0.01          2.44          0.35
    81.46       2373.57       1750.61         11.88          0.01          2.35          0.35
    81.47       2373.66       1750.61         11.88          0.01          2.33          0.71
    81.48       2373.66       1750.61         11.88          0.01          2.24          0.71
    81.49       2370.22       1748.08         11.88          0.01         -1.25          0.71
    81.50       2370.22       1748.08         11.88          0.01         -1.33          1.06
    81.51       2370.22       1748.08         11.88          0.01         -1.39          1.06
    81.52       2373.71       1750.61         11.88          0.01          2.02          1.06
    81.53       2373.66       1750.61         11.88          0.02          1.85          1.06
    81.54       2373.69       1750.61         11.88          0.01          1.90          1.06
    81.55       2373.71       1750.61         11.88          0.01          1.99          1.47
    81.56       2370.25       1748.08         11.88          0.01          2.62          1.12
    81.57       2370.28       1748.08         11.88          0.01          2.79          1.12
    81.58       2374.29       1751.04         11.88          0.01          6.91          1.12
    81.59       2374.32       1751.04         11.87          0.01          7.02          1.12
    81.60       2374.34       1751.04         11.87          0.00          7.13          1.12
    81.61       2374.37       1751.04         11.87          0.00          7.27          1.12
    81.62       2374.43       1751.04         11.87          0.00          7.36          1.12
    81.63       2371.05       1748.50         11.87          0.00          4.01          1.12
    81.64       2374.51       1751.04         11.87         -0.00          3.52          0.76
    81.65       2374.46       1751.04         11.87         -0.00          3.46          0.76
    81.66       2374.43       1751.04         11.87          0.00          3.44          0.76
    81.67       2374.40       1751.04         11.87          0.00          3.41          0.41
    81.68       2374.46       1751.04         11.87          0.00          3.44          0.76
    81.69       2370.53       1748.08         11.87         -0.00         -0.52          1.12
    81.70       2374.00       1750.61         11.87         -0.00          2.95          1.12
    81.71       2374.00       1750.61         11.87         -0.00          2.92          1.47
    81.72       2373.91       1750.61         11.87          0.00          2.86          1.06
    81.73       2373.91       1750.61         11.87         -0.00          2.98          1.06
    81.74       2373.94       1750.61         11.87         -0.00          3.14          1.06
    81.75       2373.97       1750.61         11.87         -0.01          7.27          1.06
