#Written by Robertson Geologging WinLogger V1.5/410
~VERSION INFORMATION
#------------------------------------------------------------------------------
 VERS. 2.0 : CWLS LOG ASCII STANDARD - VERSION 2.0
 WRAP. NO  : ONE LINE PER DEPTH STEP
~WELL INFORMATION
#MNEM.UNIT         DATA                                DESCRIPTION OF MNEMONIC
#------------------------------------------------------------------------------
 STRT.M          2.0200                            :   START DEPTH
 STOP.M         91.0000                            :   STOP DEPTH
 STEP.M          0.0100                            :   STEP VALUE
 NULL.        -999.2500                            :   NULL VALUE
 COMP.    IWS                                      :   COMPANY NAME
 WELL.    LADYSMITH                                :   WELL NAME
 FLD.     DURHAM                                   :   FIELD NAME
 LOC.     N/A                                      :   LOCATION
 PROV.    N/A                                      :   PROVINCE
 SRVC.    N/A                                      :   SERVICE COMPANY NAME
 DATE.    16 Dec 09                                :   DATE
 UWI.     N/A                                      :   UNIQUE WELL IDENTIFIER
~PARAMETER INFORMATION
#MNEMO.UNIT         VALUE                 DESCRIPTION OF MNEMONIC
#------------------------------------------------------------------------------
~OTHER INFORMATION SECTION
#------------------------------------------------------------------------------
 TCDS 1365
~CURVE INFORMATION
#MNEMO.UNIT         API CODE              CURVE DESCRIPTION
#------------------------------------------------------------------------------
 DEPTH.M                                 :   0     Depth
 TEMP.DegC                               :   1     Temperature
 COND.uS/cm                              :   2     Conductivity@25DegC
 COND.uS/cm                              :   3     Absolute Conductivity
 DELT.DegC                               :   4     Delta T
 DELC.uS/cm                              :   5     Delta C
#------------------------------------------------------------------------------
~A  DEPTH          TEMP          COND          COND          DELT          DELC
# ...
    20.02         10.85       1774.06       1271.83          0.34         69.68
    20.03         10.85       1769.92       1268.90          0.34         66.28
    20.04         10.85       1772.78       1270.99          0.34         69.31
    20.05         10.85       1769.79       1268.90          0.34         62.36
    20.06         10.85       1773.82       1271.83          0.33         62.36
    20.07         10.85       1776.70       1273.92          0.33         65.26
    20.08         10.85       1773.74       1271.83          0.34         62.25
    20.09         10.85       1773.65       1271.83          0.34         58.04
    20.10         10.86       1773.54       1271.83          0.34         57.44
    20.11         10.86       1773.41       1271.83          0.34         57.52
    20.12         10.86       1773.26       1271.83          0.33         53.52
    20.13         10.86       1773.15       1271.83          0.33         53.69
    20.14         10.87       1777.11       1274.76          0.33         57.86
    20.15         10.87       1772.91       1271.83          0.33         45.55
    20.16         10.87       1778.09       1275.60          0.33         54.48
    20.17         10.87       1773.89       1272.67          0.32         46.41
    20.18         10.87       1776.14       1274.34          0.32         49.02
    20.19         10.88       1778.91       1276.44          0.31         48.70
    20.20         10.88       1774.71       1273.51          0.31         44.27
    20.21         10.88       1779.86       1277.28          0.30         46.21
    20.22         10.88       1779.75       1277.28          0.30         45.74
    20.23         10.88       1780.90       1278.12          0.30         47.04
    20.24         10.89       1778.45       1276.44          0.29         45.35
    20.25         10.89       1778.37       1276.44          0.29         40.14
    20.26         10.89       1779.47       1277.28          0.29         41.50
    20.27         10.89       1776.98       1275.60          0.29         39.88
    20.28         10.89       1780.98       1278.53          0.28         42.96
    20.29         10.90       1775.60       1274.76          0.28         33.71
    20.30         10.90       1775.47       1274.76          0.28         37.89
    20.31         10.90       1776.55       1275.60          0.28         34.50
    20.32         10.90       1774.13       1273.92          0.27         32.36
    20.33         10.91       1774.00       1273.92          0.27         27.80
    20.34         10.91       1779.12       1277.70          0.26         37.38
    20.35         10.91       1774.91       1274.76          0.26         29.42
    20.36         10.91       1777.13       1276.44          0.25         32.05
    20.37         10.92       1779.94       1278.53          0.25         35.24
    20.38         10.92       1779.85       1278.53          0.24         31.32
    20.39         10.92       1776.85       1276.44          0.24         28.53
    20.40         10.92       1779.72       1278.53          0.24         31.60
    20.41         10.92       1779.68       1278.53          0.23         31.18
    20.42         10.92       1779.59       1278.53          0.23         28.40
    20.43         10.92       1779.46       1278.53          0.23         28.46
    20.44         10.93       1779.33       1278.53          0.23         33.20
    20.45         10.93       1779.18       1278.53          0.23         29.09
    20.46         10.93       1783.16       1281.47          0.23         29.06
    20.47         10.93       1776.63       1276.86          0.23         27.36
    20.48         10.94       1778.88       1278.53          0.23         25.63
    20.49         10.94       1778.79       1278.53          0.23         29.23
    20.50         10.94       1781.60       1280.63          0.22         29.38
    20.51         10.94       1778.58       1278.53          0.22         26.64
    20.52         10.94       1778.49       1278.53          0.22         22.12
    20.53         10.95       1781.28       1280.63          0.21         29.29
    20.54         10.95       1783.52       1282.31          0.21         31.77
    20.55         10.95       1783.48       1282.31          0.21         27.27
    20.56         10.95       1781.04       1280.63          0.20         25.07
    20.57         10.95       1778.04       1278.53          0.20         22.24
    20.58         10.96       1782.01       1281.47          0.20         21.65
    20.59         10.96       1781.88       1281.47          0.20         25.75
    20.60         10.96       1781.81       1281.47          0.20         21.04
    20.61         10.96       1781.77       1281.47          0.20         25.12
    20.62         10.96       1781.73       1281.47          0.20         25.10
    20.63         10.96       1781.70       1281.47          0.20         25.12
    20.64         10.96       1781.68       1281.47          0.20         21.08
    20.65         10.96       1781.64       1281.47          0.20         21.15
    20.66         10.96       1781.60       1281.47          0.20         21.25
    20.67         10.96       1781.58       1281.47          0.19         17.28
    20.68         10.96       1781.55       1281.47          0.19         21.53
    20.69         10.97       1781.53       1281.47          0.19         21.71
    20.70         10.97       1779.16       1279.79          0.18         19.50
    20.71         10.97       1781.42       1281.47          0.18         16.71
    20.72         10.97       1781.36       1281.47          0.18         16.84
    20.73         10.97       1784.21       1283.56          0.18         19.91
    20.74         10.97       1786.51       1285.24          0.17         19.53
    20.75         10.97       1786.51       1285.24          0.17         22.58
    20.76         10.97       1784.14       1283.56          0.17         20.34
    20.77         10.97       1781.19       1281.47          0.17         12.18
    20.78         10.97       1781.16       1281.47          0.17         16.27
    20.79         10.97       1783.99       1283.56          0.17         15.07
    20.80         10.98       1783.92       1283.56          0.17         16.20
    20.81         10.98       1786.19       1285.24          0.17         17.31
    20.82         10.98       1783.75       1283.56          0.17         17.28
    20.83         10.98       1786.02       1285.24          0.17         18.48
    20.84         10.98       1785.95       1285.24          0.17         18.50
    20.85         10.98       1783.53       1283.56          0.17         16.19
    20.86         10.99       1780.56       1281.47          0.17         13.35
    20.87         10.99       1780.51       1281.47          0.17          9.27
    20.88         10.99       1787.44       1286.50          0.17         22.74
    20.89         10.99       1784.44       1284.40          0.16         13.44
    20.90         10.99       1784.40       1284.40          0.16         17.55
    20.91         10.99       1786.68       1286.08          0.16         15.89
    20.92         10.99       1784.31       1284.40          0.16         13.69
    20.93         10.99       1784.31       1284.40          0.16         13.82
    20.94         10.99       1784.29       1284.40          0.15         15.10
    20.95         10.99       1784.27       1284.40          0.15         14.04
    20.96         10.99       1781.31       1282.31          0.15         11.13
    20.97         10.99       1788.25       1287.34          0.15         15.17
    20.98         10.99       1788.23       1287.34          0.15         18.11
    20.99         10.99       1781.27       1282.31          0.15          7.08
    21.00         10.99       1784.20       1284.40          0.15         16.49
    21.01         10.99       1788.30       1287.34          0.15         14.24
