#Written by Robertson Geologging WinLogger V1.5/410
~VERSION INFORMATION
#------------------------------------------------------------------------------
 VERS. 2.0 : CWLS LOG ASCII STANDARD - VERSION 2.0
 WRAP. NO  : ONE LINE PER DEPTH STEP
~WELL INFORMATION
#MNEM.UNIT         DATA                                DESCRIPTION OF MNEMONIC
#------------------------------------------------------------------------------
 STRT.M          2.0200                            :   START DEPTH
 STOP.M         91.0000                            :   STOP DEPTH
 STEP.M          0.0100                            :   STEP VALUE
 NULL.        -999.2500                            :   NULL VALUE
 COMP.    IWS                                      :   COMPANY NAME
 WELL.    LADYSMITH                                :   WELL NAME
 FLD.     DURHAM                                   :   FIELD NAME
 LOC.     N/A                                      :   LOCATION
 PROV.    N/A                                      :   PROVINCE
 SRVC.    N/A                                      :   SERVICE COMPANY NAME
 DATE.    16 Dec 09                                :   DATE
 UWI.     N/A                                      :   UNIQUE WELL IDENTIFIER
~PARAMETER INFORMATION
#MNEMO.UNIT         VALUE                 DESCRIPTION OF MNEMONIC
#------------------------------------------------------------------------------
~OTHER INFORMATION SECTION
#------------------------------------------------------------------------------
 TCDS 1365
~CURVE INFORMATION
#MNEMO.UNIT         API CODE              CURVE DESCRIPTION
#------------------------------------------------------------------------------
 DEPTH.M                                 :   0     Depth
 TEMP.DegC                               :   1     Temperature
 COND.uS/cm                              :   2     Conductivity@25DegC
 COND.uS/cm                              :   3     Absolute Conductivity
 DELT.DegC                               :   4     Delta T
 DELC.uS/cm                              :   5     Delta C
#------------------------------------------------------------------------------
~A  DEPTH          TEMP          COND          COND          DELT          DELC
# ...
    67.02         11.68       2149.84       1577.01          0.02         22.19
    67.03         11.68       2148.78       1576.17          0.02         19.36
    67.04         11.68       2149.92       1577.01          0.02         21.55
    67.05         11.68       2148.75       1576.17          0.02         19.21
    67.06         11.68       2149.84       1577.01          0.02         17.42
    67.07         11.68       2148.62       1576.17          0.03         19.08
    67.08         11.68       2149.66       1577.01          0.03         17.29
    67.09         11.68       2148.47       1576.17          0.03         16.14
    67.10         11.68       2144.99       1573.65          0.03         16.74
    67.11         11.68       2152.39       1579.10          0.03         19.65
    67.12         11.68       2148.91       1576.59          0.02         16.27
    67.13         11.68       2147.74       1575.75          0.02         15.15
    67.14         11.68       2147.72       1575.75          0.02         15.18
    67.15         11.68       2147.74       1575.75          0.02         15.30
    67.16         11.68       2152.37       1579.10          0.02         24.01
    67.17         11.68       2152.42       1579.10          0.02         24.18
    67.18         11.68       2152.52       1579.10          0.01         20.39
    67.19         11.68       2152.65       1579.10          0.01         20.59
    67.20         11.68       2152.75       1579.10          0.01         23.63
    67.21         11.67       2152.88       1579.10          0.00         20.90
    67.22         11.67       2152.96       1579.10          0.00         19.75
    67.23         11.67       2152.98       1579.10          0.01         20.85
    67.24         11.67       2153.01       1579.10          0.01         23.63
    67.25         11.67       2152.93       1579.10          0.01         20.62
    67.26         11.67       2156.86       1582.04          0.01         23.40
    67.27         11.68       2152.21       1578.68          0.01         15.86
    67.28         11.68       2152.10       1578.68          0.01         18.57
    67.29         11.68       2152.05       1578.68          0.02         19.64
    67.30         11.68       2156.05       1581.62          0.02         22.44
    67.31         11.68       2156.08       1581.62          0.02         19.53
    67.32         11.68       2156.16       1581.62          0.02         22.45
    67.33         11.68       2151.58       1578.27          0.02         17.90
    67.34         11.68       2155.56       1581.20          0.02         21.92
    67.35         11.68       2155.48       1581.20          0.02         19.09
    67.36         11.68       2156.60       1582.04          0.01         19.14
    67.37         11.68       2155.98       1581.62          0.02         19.64
    67.38         11.68       2157.04       1582.46          0.02         23.48
    67.39         11.68       2155.90       1581.62          0.02         19.41
    67.40         11.68       2156.97       1582.46          0.02         19.28
    67.41         11.68       2156.29       1582.04          0.02         19.72
    67.42         11.69       2157.31       1582.88          0.03         23.67
    67.43         11.69       2155.96       1582.04          0.03         19.51
    67.44         11.69       2161.00       1585.81          0.03         25.77
    67.45         11.69       2155.83       1582.04          0.03         19.51
    67.46         11.69       2157.02       1582.88          0.03         20.71
    67.47         11.69       2160.50       1585.39          0.03         24.19
    67.48         11.69       2156.01       1582.04          0.03         19.67
    67.49         11.69       2156.11       1582.04          0.02         15.79
    67.50         11.69       2161.26       1585.81          0.02         20.96
    67.51         11.69       2160.14       1584.97          0.02         23.87
    67.52         11.69       2160.16       1584.97          0.02         23.92
    67.53         11.69       2160.22       1584.97          0.02         19.97
    67.54         11.68       2160.34       1584.97          0.02         20.08
    67.55         11.68       2160.45       1584.97          0.02         20.10
    67.56         11.68       2160.50       1584.97          0.02         20.08
    67.57         11.68       2160.50       1584.97          0.02         20.08
    67.58         11.68       2160.50       1584.97          0.02         24.11
    67.59         11.68       2161.59       1585.81          0.02         25.27
    67.60         11.68       2165.02       1588.33          0.02         28.80
    67.61         11.68       2161.04       1585.39          0.01         24.91
    67.62         11.68       2161.04       1585.39          0.01         20.95
    67.63         11.68       2161.59       1585.81          0.01         21.53
    67.64         11.68       2160.40       1584.97          0.01         20.28
    67.65         11.68       2161.46       1585.81          0.02         21.32
    67.66         11.69       2160.79       1585.39          0.02         19.48
    67.67         11.69       2161.90       1586.23          0.02         21.76
    67.68         11.69       2165.33       1588.75          0.02         28.03
    67.69         11.69       2161.93       1586.23          0.02         21.74
    67.70         11.68       2165.49       1588.75          0.02         24.15
    67.71         11.68       2162.14       1586.23          0.02         21.87
    67.72         11.68       2165.59       1588.75          0.02         24.18
    67.73         11.68       2166.79       1589.59          0.02         26.49
    67.74         11.68       2161.62       1585.81          0.02         20.26
    67.75         11.68       2166.71       1589.59          0.01         26.57
    67.76         11.68       2165.54       1588.75          0.01         24.33
    67.77         11.68       2166.11       1589.17          0.01         26.10
    67.78         11.68       2164.92       1588.33          0.01         24.88
    67.79         11.68       2165.44       1588.75          0.01         21.45
    67.80         11.68       2164.27       1587.91          0.01         20.30
    67.81         11.69       2160.68       1585.39          0.02         20.75
    67.82         11.69       2163.96       1587.91          0.02         19.50
    67.83         11.69       2160.38       1585.39          0.02         19.94
    67.84         11.70       2163.60       1587.91          0.02         18.69
    67.85         11.70       2164.64       1588.75          0.02         23.74
    67.86         11.70       2164.01       1588.33          0.02         23.16
    67.87         11.70       2168.56       1591.68          0.02         27.73
    67.88         11.70       2164.53       1588.75          0.02         23.79
    67.89         11.70       2169.05       1592.10          0.02         27.29
    67.90         11.70       2164.95       1589.17          0.02         24.38
    67.91         11.70       2164.82       1589.17          0.02         23.18
    67.92         11.70       2168.79       1592.10          0.02         24.33
    67.93         11.70       2164.25       1588.75          0.02         23.24
    67.94         11.70       2168.38       1591.68          0.02         24.48
    67.95         11.70       2163.94       1588.33          0.02         23.39
    67.96         11.70       2168.07       1591.26          0.02         24.61
    67.97         11.70       2163.60       1587.91          0.02         18.95
    67.98         11.70       2163.60       1587.91          0.02         15.55
    67.99         11.70       2167.60       1590.85          0.02         22.40
    68.00         11.69       2163.10       1587.49          0.02         14.43
    68.01         11.69       2167.15       1590.43          0.02         17.31
