#Written by Robertson Geologging WinLogger V1.5/410
~VERSION INFORMATION
#------------------------------------------------------------------------------
 VERS. 2.0 : CWLS LOG ASCII STANDARD - VERSION 2.0
 WRAP. NO  : ONE LINE PER DEPTH STEP
~WELL INFORMATION
#MNEM.UNIT         DATA                                DESCRIPTION OF MNEMONIC
#------------------------------------------------------------------------------
 STRT.M          0.0600                            :   START DEPTH
 STOP.M         94.0500                            :   STOP DEPTH
 STEP.M          0.0100                            :   STEP VALUE
 NULL.        -999.2500                            :   NULL VALUE
 COMP.    Coal Authority                           :   COMPANY NAME
 WELL.    Ladysmith Shaft                          :   WELL NAME
 FLD.     N/A                                      :   FIELD NAME
 LOC.     N/A                                      :   LOCATION
 PROV.    N/A                                      :   PROVINCE
 SRVC.    N/A                                      :   SERVICE COMPANY NAME
 DATE.    15 Dec 08                                :   DATE
 UWI.     N/A                                      :   UNIQUE WELL IDENTIFIER
~PARAMETER INFORMATION
#MNEMO.UNIT         VALUE                 DESCRIPTION OF MNEMONIC
#------------------------------------------------------------------------------
~OTHER INFORMATION SECTION
#------------------------------------------------------------------------------
 TCDS 1365
 15,12,2008
~CURVE INFORMATION
#MNEMO.UNIT         API CODE              CURVE DESCRIPTION
#------------------------------------------------------------------------------
 DEPTH.M                                 :   0     Depth
 COND.uS/cm                              :   1     Conductivity@25DegC
 COND.uS/cm                              :   2     Absolute Conductivity
 TEMP.DegC                               :   3     Temperature
 DELT.DegC                               :   4     Delta T
 DELC.uS/cm                              :   5     Delta C
 NGAM.CPS                                :   6     Natural Gamma
#------------------------------------------------------------------------------
~A  DEPTH          COND          COND          TEMP          DELT          DELC          NGAM
# ...
    25.00       2335.17       1719.83         11.82          0.01          2.99          1.18
    25.01       2335.14       1719.83         11.82          0.01         -1.07          1.18
    25.02       2335.19       1719.83         11.82          0.01          3.56          0.82
    25.03       2335.19       1719.83         11.82          0.01          3.48          0.82
    25.04       2335.19       1719.83         11.82          0.01          2.85          0.82
    25.05       2335.14       1719.83         11.82          0.01          2.80          1.18
    25.06       2335.03       1719.83         11.83          0.01         -1.87          1.18
    25.07       2339.01       1722.78         11.83          0.01          6.23          1.18
    25.08       2334.40       1719.41         11.83          0.01          2.28          1.53
    25.09       2335.60       1720.25         11.83          0.01          3.62          1.53
    25.10       2336.26       1720.67         11.83          0.00          4.90          1.53
    25.11       2336.39       1720.67         11.82          0.00          0.49          1.53
    25.12       2337.05       1721.09         11.82          0.00          5.15          1.53
    25.13       2336.53       1720.67         11.82          0.00          4.58          1.12
    25.14       2336.56       1720.67         11.82         -0.00          4.64          1.12
    25.15       2336.53       1720.67         11.82         -0.00          4.64          1.12
    25.16       2337.13       1721.09         11.82         -0.00          1.26          1.12
    25.17       2336.53       1720.67         11.82         -0.00          4.69          0.71
    25.18       2336.48       1720.67         11.82         -0.00          4.69          0.71
    25.19       2336.42       1720.67         11.82         -0.00          4.72          0.71
    25.20       2336.28       1720.67         11.82         -0.00          4.04          0.71
    25.21       2335.66       1720.25         11.83         -0.00          2.89          0.71
    25.22       2335.57       1720.25         11.83          0.00          7.28          0.35
    25.23       2334.97       1719.83         11.83          0.00          2.64          0.35
    25.24       2335.52       1720.25         11.83          0.00          3.16          0.35
    25.25       2339.52       1723.20         11.83          0.00          7.16          0.00
    25.26       2335.57       1720.25         11.83          0.00          3.84          0.00
    25.27       2335.06       1719.83         11.83          0.00          7.33          0.00
    25.28       2335.74       1720.25         11.82          0.00          7.93          0.00
    25.29       2335.79       1720.25         11.82          0.00          3.81          0.00
    25.30       2335.88       1720.25         11.82          0.00          3.21          0.00
    25.31       2335.42       1719.83         11.82          0.00          2.61          0.00
    25.32       2339.94       1723.20         11.82          0.01          7.63          0.00
    25.33       2335.88       1720.25         11.82          0.01          3.10          0.00
    25.34       2335.79       1720.25         11.82          0.01          2.99          0.00
    25.35       2339.83       1723.20         11.82          0.01          6.48          0.00
    25.36       2335.93       1720.25         11.82          0.00          3.19          0.00
    25.37       2335.47       1719.83         11.82          0.00          1.99          0.00
    25.38       2336.16       1720.25         11.82          0.00          3.19          0.00
    25.39       2340.19       1723.20         11.82          0.00          3.19          0.00
    25.40       2335.70       1719.83         11.82          0.00          3.27          0.00
    25.41       2336.32       1720.25         11.82          0.00          3.90          0.00
    25.42       2340.93       1723.62         11.81          0.00          9.11          0.00
    25.43       2336.46       1720.25         11.81         -0.00          4.15          0.35
    25.44       2336.55       1720.25         11.81         -0.00          0.19          0.71
    25.45       2336.66       1720.25         11.81         -0.01          3.80          0.71
    25.46       2336.69       1720.25         11.81         -0.01          4.37          0.71
    25.47       2336.63       1720.25         11.81         -0.00          3.55          0.71
    25.48       2336.55       1720.25         11.81          0.00          3.44          0.71
    25.49       2336.43       1720.25         11.81          0.00         -1.31          1.06
    25.50       2336.41       1720.25         11.81          0.00          3.21          1.06
    25.51       2336.43       1720.25         11.81          0.00          2.73          1.06
    25.52       2335.89       1719.83         11.81          0.00          2.18          1.47
    25.53       2335.97       1719.83         11.81          0.00          2.24          1.47
    25.54       2336.63       1720.25         11.81          0.00         -1.17          1.47
    25.55       2336.14       1719.83         11.81         -0.00          2.35          1.47
    25.56       2336.77       1720.25         11.81         -0.00          4.09          1.47
    25.57       2336.80       1720.25         11.81         -0.00          3.52          1.82
    25.58       2336.28       1719.83         11.81         -0.00         -0.95          1.82
    25.59       2336.91       1720.25         11.81         -0.00          0.19          1.82
    25.60       2340.95       1723.20         11.81         -0.00          8.13          1.47
    25.61       2336.39       1719.83         11.81         -0.00          3.52          1.12
    25.62       2336.88       1720.25         11.81          0.00         -0.08          1.12
    25.63       2337.42       1720.67         11.81          0.00          1.03          1.12
    25.64       2337.31       1720.67         11.81          0.00          0.43          1.12
    25.65       2337.20       1720.67         11.81          0.00          4.41          1.12
    25.66       2337.72       1721.09         11.81          0.00          0.92          0.76
    25.67       2337.12       1720.67         11.81          0.00         -0.25          0.76
    25.68       2337.15       1720.67         11.81          0.00          0.41          0.76
    25.69       2337.23       1720.67         11.81          0.00          4.50          0.35
    25.70       2337.34       1720.67         11.81         -0.00          0.14          0.35
    25.71       2333.42       1717.72         11.81         -0.01         -3.68          0.35
    25.72       2338.16       1721.09         11.80         -0.01          0.56          0.35
    25.73       2337.76       1720.67         11.80         -0.01          0.21          0.35
    25.74       2337.79       1720.67         11.80         -0.01         -0.31          0.00
    25.75       2333.89       1717.72         11.80         -0.01         -3.69          0.00
    25.76       2337.93       1720.67         11.80         -0.01          0.29          0.00
    25.77       2337.90       1720.67         11.80         -0.01          0.35          0.00
    25.78       2338.44       1721.09         11.80         -0.01          0.92          0.41
    25.79       2334.43       1718.14         11.80         -0.02         -3.01          0.41
    25.80       2334.89       1718.56         11.80         -0.02         -2.43          0.76
    25.81       2338.82       1721.51         11.80         -0.01          1.52          0.76
    25.82       2338.79       1721.51         11.80         -0.02          1.55          0.76
    25.83       2334.07       1718.14         11.81         -0.01         -2.55          0.76
    25.84       2334.56       1718.56         11.81         -0.01         -2.08          0.76
    25.85       2334.53       1718.56         11.81         -0.01         -2.14          0.76
