#Written by Robertson Geologging WinLogger V1.5/410
~VERSION INFORMATION
#------------------------------------------------------------------------------
 VERS. 2.0 : CWLS LOG ASCII STANDARD - VERSION 2.0
 WRAP. NO  : ONE LINE PER DEPTH STEP
~WELL INFORMATION
#MNEM.UNIT         DATA                                DESCRIPTION OF MNEMONIC
#------------------------------------------------------------------------------
 STRT.M          0.0100                            :   START DEPTH
 STOP.M         89.0000                            :   STOP DEPTH
 STEP.M          0.0100                            :   STEP VALUE
 NULL.        -999.2500                            :   NULL VALUE
 COMP.    IWS                                      :   COMPANY NAME
 WELL.    Ladysmith                                :   WELL NAME
 FLD.     N/A                                      :   FIELD NAME
 LOC.     N/A                                      :   LOCATION
 PROV.    N/A                                      :   PROVINCE
 SRVC.    N/A                                      :   SERVICE COMPANY NAME
 DATE.    01 Feb 11                                :   DATE
 UWI.     N/A                                      :   UNIQUE WELL IDENTIFIER
~PARAMETER INFORMATION
#MNEMO.UNIT         VALUE                 DESCRIPTION OF MNEMONIC
#------------------------------------------------------------------------------
~OTHER INFORMATION SECTION
#------------------------------------------------------------------------------
 1365
~CURVE INFORMATION
#MNEMO.UNIT         API CODE              CURVE DESCRIPTION
#------------------------------------------------------------------------------
 DEPTH.M                                 :   0     Depth
 CN25.uS/cm                              :   1     Conductivity@25DegC
 TEMP.DegC                               :   2     Temperature
 DELT.DegC                               :   3     Delta T
 DELC.uS/cm                              :   4     Delta C
#------------------------------------------------------------------------------
~A  DEPTH          CN25          TEMP          DELT          DELC
# ...
    64.67       2223.84         11.98          0.02         12.10
    64.68       2223.79         11.98          0.03         12.05
    64.69       2223.82         11.98          0.03         12.05
    64.70       2223.95         11.97          0.02         16.69
    64.71       2224.11         11.97          0.02         12.31
    64.72       2224.32         11.97          0.02         12.63
    64.73       2224.54         11.96          0.01         12.90
    64.74       2224.64         11.96          0.01         13.06
    64.75       2224.72         11.96          0.01         13.16
    64.76       2224.75         11.96          0.01         13.16
    64.77       2224.70         11.96          0.01          8.62
    64.78       2224.70         11.96          0.01         13.24
    64.79       2224.67         11.96          0.01          8.76
    64.80       2224.59         11.96          0.01         13.30
    64.81       2224.54         11.96          0.00          8.78
    64.82       2228.99         11.97          0.01         13.27
    64.83       2224.38         11.97          0.01         13.16
    64.84       2224.24         11.97          0.01          8.52
    64.85       2224.14         11.97          0.01         12.95
    64.86       2224.03         11.97          0.01          8.33
    64.87       2223.98         11.97          0.01          8.36
    64.88       2228.54         11.97          0.01         17.46
    64.89       2228.51         11.97          0.01         12.84
    64.90       2224.00         11.97          0.01          8.25
    64.91       2223.95         11.97          0.02          8.09
    64.92       2223.79         11.98          0.02          7.85
    64.93       2223.66         11.98          0.02          7.69
    64.94       2228.03         11.98          0.03         12.07
    64.95       2228.01         11.98          0.03         12.01
    64.96       2227.98         11.98          0.03         12.01
    64.97       2223.52         11.98          0.02          7.61
    64.98       2223.66         11.98          0.02          7.77
    64.99       2223.74         11.98          0.02          7.90
    65.00       2223.79         11.98          0.02          8.04
    65.01       2228.27         11.98          0.02         12.65
    65.02       2228.30         11.98          0.01         12.25
    65.03       2228.38         11.98          0.01         12.46
    65.04       2224.54         11.97          0.01          8.73
    65.05       2224.70         11.97          0.00          8.99
    65.06       2224.81         11.97         -0.00          9.23
    65.07       2224.92         11.97         -0.01          4.91
    65.08       2229.51         11.97         -0.01         14.09
    65.09       2229.53         11.97         -0.01         14.14
    65.10       2229.56         11.97         -0.01          9.63
    65.11       2229.64         11.96         -0.01         14.28
    65.12       2225.16         11.96         -0.01          9.87
    65.13       2225.10         11.96         -0.01          5.90
    65.14       2225.08         11.97         -0.01          9.90
    65.15       2228.97         11.97         -0.01         13.87
    65.16       2228.94         11.97         -0.01          9.31
    65.17       2228.91         11.97         -0.01          9.23
    65.18       2228.86         11.97         -0.01         13.66
    65.19       2228.73         11.97         -0.01          8.91
    65.20       2228.57         11.97         -0.00          8.69
    65.21       2223.92         11.97         -0.00          8.56
    65.22       2223.82         11.98          0.00          3.84
    65.23       2228.35         11.98          0.00          8.21
    65.24       2228.43         11.98          0.00          8.21
    65.25       2228.43         11.98          0.01          8.75
    65.26       2228.46         11.97          0.01          8.75
    65.27       2228.49         11.97          0.00          8.81
    65.28       2228.49         11.97          0.00          8.86
    65.29       2224.60         11.97          0.00          4.46
    65.30       2224.70         11.97         -0.00          4.64
    65.31       2224.81         11.97         -0.00          4.83
    65.32       2229.40         11.97         -0.01          4.96
    65.33       2229.43         11.97         -0.01          9.04
    65.34       2229.48         11.97         -0.01          9.15
    65.35       2229.48         11.97         -0.01          9.15
    65.36       2229.56         11.97         -0.01          4.58
    65.37       2229.59         11.97         -0.01          8.50
    65.38       2225.00         11.97         -0.01          3.80
    65.39       2224.97         11.97         -0.00          3.67
    65.40       2228.86         11.97         -0.00          3.46
    65.41       2228.81         11.97          0.00          7.83
    65.42       2228.70         11.97          0.00          7.65
    65.43       2228.65         11.97          0.01          7.57
    65.44       2228.62         11.97          0.01          3.54
    65.45       2228.54         11.97          0.01          7.97
    65.46       2228.54         11.97          0.01          7.92
    65.47       2228.46         11.97          0.01          7.84
    65.48       2228.38         11.98          0.01          3.79
    65.49       2228.89         11.98          0.01          4.36
    65.50       2228.84         11.98          0.01          8.92
    65.51       2228.81         11.98          0.01          9.05
    65.52       2228.76         11.98          0.01          4.54
    65.53       2228.73         11.98          0.01          4.57
    65.54       2228.65         11.98          0.01          8.46
    65.55       2228.55         11.98          0.01          8.30
    65.56       2228.41         11.98          0.02          3.60
    65.57       2228.31         11.99          0.02          3.50
    65.58       2228.31         11.99          0.02          3.52
    65.59       2228.36         11.99          0.01          8.17
    65.60       2232.43         11.98          0.01         12.32
    65.61       2232.49         11.98          0.01          7.92
    65.62       2227.95         11.98          0.01          3.38
    65.63       2228.01         11.98          0.01          3.46
    65.64       2228.06         11.98          0.01          3.54
    65.65       2228.14         11.98          0.01          4.22
    65.66       2228.19         11.98          0.00          4.35
    65.67       2228.22         11.98          0.00          4.43
    65.68       2228.25         11.98          0.00          4.43
    65.69       2228.25         11.98          0.00          4.30
    65.70       2228.27         11.98          0.01          4.16
    65.71       2228.22         11.98          0.01          3.90
    65.72       2228.19         11.98          0.01          3.66
    65.73       2232.73         11.98          0.02          8.09
    65.74       2232.62         11.98          0.02          7.90
    65.75       2232.60         11.98          0.02          7.85
    65.76       2232.57         11.98          0.02          7.87
    65.77       2232.65         11.98          0.02          7.95
    65.78       2232.84         11.98          0.01          8.17
    65.79       2232.97         11.98          0.01          8.38
    65.80       2233.05         11.97          0.01          8.51
    65.81       2233.02         11.97          0.01          4.03
    65.82       2233.02         11.97          0.01          8.65
    65.83       2232.97         11.98          0.01          8.73
    65.84       2232.94         11.98          0.00          8.81
    65.85       2228.46         11.97          0.00          4.43
    65.86       2228.43         11.98          0.00          4.46
    65.87       2228.54         11.97          0.00          0.00
    65.88       2228.51         11.97          0.00          0.00
