#Written by Robertson Geologging WinLogger V1.5/410
~VERSION INFORMATION
#------------------------------------------------------------------------------
 VERS. 2.0 : CWLS LOG ASCII STANDARD - VERSION 2.0
 WRAP. NO  : ONE LINE PER DEPTH STEP
~WELL INFORMATION
#MNEM.UNIT         DATA                                DESCRIPTION OF MNEMONIC
#------------------------------------------------------------------------------
 STRT.M          0.0600                            :   START DEPTH
 STOP.M         94.0500                            :   STOP DEPTH
 STEP.M          0.0100                            :   STEP VALUE
 NULL.        -999.2500                            :   NULL VALUE
 COMP.    Coal Authority                           :   COMPANY NAME
 WELL.    Ladysmith Shaft                          :   WELL NAME
 FLD.     N/A                                      :   FIELD NAME
 LOC.     N/A                                      :   LOCATION
 PROV.    N/A                                      :   PROVINCE
 SRVC.    N/A                                      :   SERVICE COMPANY NAME
 DATE.    15 Dec 08                                :   DATE
 UWI.     N/A                                      :   UNIQUE WELL IDENTIFIER
~PARAMETER INFORMATION
#MNEMO.UNIT         VALUE                 DESCRIPTION OF MNEMONIC
#------------------------------------------------------------------------------
~OTHER INFORMATION SECTION
#------------------------------------------------------------------------------
 TCDS 1365
 15,12,2008
~CURVE INFORMATION
#MNEMO.UNIT         API CODE              CURVE DESCRIPTION
#------------------------------------------------------------------------------
 DEPTH.M                                 :   0     Depth
 COND.uS/cm                              :   1     Conductivity@25DegC
 COND.uS/cm                              :   2     Absolute Conductivity
 TEMP.DegC                               :   3     Temperature
 DELT.DegC                               :   4     Delta T
 DELC.uS/cm                              :   5     Delta C
 NGAM.CPS                                :   6     Natural Gamma
#------------------------------------------------------------------------------
~A  DEPTH          COND          COND          TEMP          DELT          DELC          NGAM
# ...
    61.98       2297.07       1691.61         11.82          0.01         -1.48          2.12
    61.99       2294.16       1689.50         11.82          0.01         -0.33          1.82
    62.00       2296.93       1691.61         11.82          0.01          2.47          1.82
    62.01       2296.85       1691.61         11.82          0.01         -1.61          2.18
    62.02       2296.74       1691.61         11.83          0.01          1.71          2.18
    62.03       2296.69       1691.61         11.83          0.01          1.68          2.18
    62.04       2296.69       1691.61         11.83          0.01         -2.29          2.18
    62.05       2296.71       1691.61         11.83          0.01          1.25          2.18
    62.06       2296.80       1691.61         11.83          0.00          0.32          2.18
    62.07       2296.85       1691.61         11.82          0.00          0.49          1.82
    62.08       2296.90       1691.61         11.82         -0.00         -2.21          1.82
    62.09       2299.74       1693.71         11.82         -0.00          4.14          1.47
    62.10       2299.71       1693.71         11.82         -0.00          2.97          1.06
    62.11       2296.85       1691.61         11.82         -0.00          0.08          0.35
    62.12       2295.71       1690.77         11.82         -0.00         -1.60          0.35
    62.13       2296.33       1691.19         11.82         -0.00          0.25          0.35
    62.14       2296.39       1691.19         11.82         -0.01          0.44          0.35
    62.15       2296.47       1691.19         11.82         -0.01          0.11          0.76
    62.16       2296.47       1691.19         11.82         -0.01          1.25          0.76
    62.17       2296.36       1691.19         11.82         -0.01          1.12          0.76
    62.18       2296.22       1691.19         11.83         -0.00          0.87          0.76
    62.19       2296.09       1691.19         11.83         -0.00          0.60          0.76
    62.20       2296.01       1691.19         11.83          0.00          0.49          0.76
    62.21       2296.01       1691.19         11.83          0.00          0.46          1.12
    62.22       2294.95       1690.35         11.83          0.00         -4.03          1.12
    62.23       2299.63       1693.72         11.83         -0.00          4.05          1.53
    62.24       2298.00       1692.45         11.82         -0.00          1.17          1.53
    62.25       2295.22       1690.35         11.82          0.00         -1.74          1.53
    62.26       2298.10       1692.45         11.82          0.00          1.63          1.53
    62.27       2298.16       1692.45         11.82          0.00          0.55          1.53
    62.28       2294.32       1689.51         11.82         -0.00         -3.37          1.53
    62.29       2297.95       1692.03         11.82         -0.00          0.22          1.53
    62.30       2298.11       1692.03         11.81         -0.01         -0.24          1.53
    62.31       2294.27       1689.09         11.81         -0.01         -2.99          1.53
    62.32       2294.41       1689.09         11.81         -0.01         -2.85          1.12
    62.33       2299.01       1692.45         11.81         -0.01          5.18          1.12
    62.34       2294.46       1689.09         11.81         -0.01         -2.23          1.47
    62.35       2295.61       1689.93         11.81         -0.01         -1.06          1.12
    62.36       2299.01       1692.45         11.81         -0.01          2.32          1.12
    62.37       2296.12       1690.35         11.81         -0.01         -0.57          1.12
    62.38       2294.95       1689.51         11.81         -0.01         -1.71          0.76
    62.39       2296.07       1690.35         11.81         -0.01         -0.54          0.76
    62.40       2295.99       1690.35         11.81         -0.01         -0.51          1.18
    62.41       2295.91       1690.35         11.81         -0.01         -0.51          1.18
    62.42       2295.85       1690.35         11.81         -0.01         -0.51          1.18
    62.43       2295.77       1690.35         11.81         -0.01         -0.59          1.18
    62.44       2295.71       1690.35         11.82         -0.01         -4.05          1.59
    62.45       2296.80       1691.19         11.82         -0.01         -0.05          1.59
    62.46       2295.55       1690.35         11.82         -0.01         -1.27          1.59
    62.47       2295.44       1690.35         11.82         -0.01         -4.19          1.94
    62.48       2295.39       1690.35         11.82         -0.01         -1.38          1.94
    62.49       2296.55       1691.19         11.82         -0.01         -0.24          1.94
    62.50       2295.47       1690.35         11.82         -0.01         -1.36          1.94
    62.51       2295.60       1690.35         11.82         -0.01         -1.25          1.59
    62.52       2295.77       1690.35         11.81         -0.01         -0.48          1.59
    62.53       2296.99       1691.19         11.81         -0.01         -0.37          1.59
    62.54       2299.99       1693.30         11.81         -0.01          2.59          1.59
    62.55       2296.69       1690.77         11.81         -0.01         -0.78          1.59
    62.56       2296.78       1690.77         11.81         -0.01         -0.81          1.59
    62.57       2298.11       1691.61         11.80         -0.02          1.56          0.76
    62.58       2294.76       1689.08         11.80         -0.02          1.04          0.76
    62.59       2298.19       1691.61         11.80         -0.02          1.04          0.76
    62.60       2298.14       1691.61         11.80         -0.02          2.13          0.76
    62.61       2297.95       1691.61         11.81         -0.01          1.94          0.35
    62.62       2297.81       1691.61         11.81         -0.01         -1.69          0.35
    62.63       2297.67       1691.61         11.81         -0.01          0.95          0.35
    62.64       2297.59       1691.61         11.81         -0.00          1.90          0.41
    62.65       2294.62       1689.51         11.81         -0.00         -1.09          0.41
    62.66       2297.26       1691.61         11.82          0.00          1.55          0.41
    62.67       2297.07       1691.61         11.82          0.01          1.38          0.41
    62.68       2296.82       1691.61         11.82          0.01          0.05          0.76
    62.69       2296.71       1691.61         11.83          0.01          1.08          0.76
    62.70       2293.29       1689.08         11.83          0.01         -2.35          0.76
    62.71       2296.14       1691.19         11.83          0.01         -0.69          0.76
    62.72       2297.37       1692.03         11.83          0.01          1.68          0.76
    62.73       2293.94       1689.50         11.83          0.01          1.71          0.76
    62.74       2293.94       1689.50         11.83          0.01         -1.67          0.76
    62.75       2296.80       1691.61         11.83          0.01          1.25          0.76
    62.76       2296.80       1691.61         11.83          0.01          1.27          0.76
    62.77       2294.07       1689.50         11.82          0.01         -1.48          1.18
    62.78       2297.59       1692.03         11.82          0.01          3.07          1.18
    62.79       2297.70       1692.03         11.82          0.00          3.12          1.18
    62.80       2296.64       1691.19         11.82          0.00         -1.94          1.18
    62.81       2296.69       1691.19         11.82          0.00          1.58          0.76
    62.82       2297.37       1691.61         11.82         -0.00          2.45          1.18
    62.83       2297.45       1691.61         11.81         -0.01          1.55          1.18
