#Written by Robertson Geologging WinLogger V1.5/410
~VERSION INFORMATION
#------------------------------------------------------------------------------
 VERS. 2.0 : CWLS LOG ASCII STANDARD - VERSION 2.0
 WRAP. NO  : ONE LINE PER DEPTH STEP
~WELL INFORMATION
#MNEM.UNIT         DATA                                DESCRIPTION OF MNEMONIC
#------------------------------------------------------------------------------
 STRT.M          2.0200                            :   START DEPTH
 STOP.M         91.0000                            :   STOP DEPTH
 STEP.M          0.0100                            :   STEP VALUE
 NULL.        -999.2500                            :   NULL VALUE
 COMP.    IWS                                      :   COMPANY NAME
 WELL.    LADYSMITH                                :   WELL NAME
 FLD.     DURHAM                                   :   FIELD NAME
 LOC.     N/A                                      :   LOCATION
 PROV.    N/A                                      :   PROVINCE
 SRVC.    N/A                                      :   SERVICE COMPANY NAME
 DATE.    16 Dec 09                                :   DATE
 UWI.     N/A                                      :   UNIQUE WELL IDENTIFIER
~PARAMETER INFORMATION
#MNEMO.UNIT         VALUE                 DESCRIPTION OF MNEMONIC
#------------------------------------------------------------------------------
~OTHER INFORMATION SECTION
#------------------------------------------------------------------------------
 TCDS 1365
~CURVE INFORMATION
#MNEMO.UNIT         API CODE              CURVE DESCRIPTION
#------------------------------------------------------------------------------
 DEPTH.M                                 :   0     Depth
 TEMP.DegC                               :   1     Temperature
 COND.uS/cm                              :   2     Conductivity@25DegC
 COND.uS/cm                              :   3     Absolute Conductivity
 DELT.DegC                               :   4     Delta T
 DELC.uS/cm                              :   5     Delta C
#------------------------------------------------------------------------------
~A  DEPTH          TEMP          COND          COND          DELT          DELC
# ...
    90.02         11.82       2216.45       1632.36          0.00          0.00
    90.03         11.82       2211.98       1629.00         -0.00         -4.45
    90.04         11.82       2217.21       1632.78         -0.00          0.83
    90.05         11.82       2217.34       1632.78         -0.01          5.57
    90.06         11.82       2217.42       1632.78         -0.01          0.99
    90.07         11.82       2217.50       1632.78         -0.01          1.04
    90.08         11.81       2217.55       1632.78         -0.01          1.10
    90.09         11.81       2217.55       1632.78         -0.01          1.04
    90.10         11.81       2217.60       1632.78         -0.01          1.10
    90.11         11.81       2213.02       1629.42         -0.01         -4.08
    90.12         11.82       2212.94       1629.42         -0.01         -4.24
    90.13         11.82       2212.89       1629.42         -0.00         -4.37
    90.14         11.82       2212.84       1629.42         -0.00         -5.05
    90.15         11.82       2212.76       1629.42          0.00         -5.23
    90.16         11.82       2212.73       1629.42          0.00         -5.34
    90.17         11.82       2212.71       1629.42          0.00         -5.39
    90.18         11.82       2212.65       1629.42          0.01         -5.55
    90.19         11.82       2212.60       1629.42          0.01         -5.11
    90.20         11.82       2212.49       1629.42          0.01         -5.27
    90.21         11.83       2212.34       1629.42          0.02         -5.50
    90.22         11.83       2216.84       1632.78          0.02         -1.00
    90.23         11.83       2217.38       1633.20          0.02         -0.38
    90.24         11.83       2217.41       1633.20          0.01          4.23
    90.25         11.83       2217.49       1633.20          0.01         -0.19
    90.26         11.82       2217.54       1633.20          0.01         -0.09
    90.27         11.82       2217.59       1633.20          0.01          0.53
    90.28         11.82       2217.65       1633.20          0.01          0.67
    90.29         11.82       2217.70       1633.20          0.01          0.82
    90.30         11.82       2217.72       1633.20          0.00          0.36
    90.31         11.82       2217.23       1632.78          0.00         -0.03
    90.32         11.82       2217.29       1632.78         -0.00          4.61
    90.33         11.82       2212.76       1629.42         -0.00         -4.48
    90.34         11.82       2217.39       1632.78         -0.00          0.13
    90.35         11.82       2217.37       1632.78         -0.00          0.08
    90.36         11.82       2217.37       1632.78         -0.00          0.13
    90.37         11.82       2217.39       1632.78         -0.00          0.18
    90.38         11.82       2217.37       1632.78         -0.00          0.26
    90.39         11.82       2216.77       1632.36         -0.01         -0.25
    90.40         11.82       2216.80       1632.36         -0.01          4.35
    90.41         11.82       2212.27       1629.00         -0.01         -4.73
    90.42         11.82       2217.39       1632.78         -0.01          0.34
    90.43         11.82       2217.47       1632.78         -0.01          0.45
    90.44         11.82       2217.50       1632.78         -0.01          0.50
    90.45         11.82       2217.47       1632.78         -0.01          0.47
    90.46         11.81       2217.58       1632.78         -0.01          0.61
    90.47         11.81       2217.58       1632.78         -0.01          0.53
    90.48         11.82       2217.52       1632.78         -0.01          4.98
    90.49         11.82       2217.50       1632.78         -0.01         -0.17
    90.50         11.82       2217.96       1633.20         -0.00          0.21
    90.51         11.82       2217.83       1633.20         -0.00          0.03
    90.52         11.82       2217.21       1632.78          0.00         -0.62
    90.53         11.82       2217.23       1632.78          0.00         -0.65
    90.54         11.82       2217.23       1632.78          0.00         -0.73
    90.55         11.82       2216.77       1632.36          0.00         -1.27
    90.56         11.82       2216.90       1632.36          0.00         -1.14
    90.57         11.82       2216.95       1632.36         -0.00         -1.06
    90.58         11.81       2216.41       1631.94         -0.00         -1.52
    90.59         11.81       2216.46       1631.94         -0.00         -1.45
    90.60         11.81       2216.52       1631.94         -0.00         -1.45
    90.61         11.81       2216.60       1631.94         -0.01         -1.37
    90.62         11.81       2216.70       1631.94         -0.01         -1.23
    90.63         11.81       2217.32       1632.36         -0.01         -0.59
    90.64         11.81       2217.30       1632.36         -0.01         -0.61
    90.65         11.81       2217.24       1632.36         -0.01         -0.07
    90.66         11.81       2217.19       1632.36         -0.01         -0.15
    90.67         11.81       2217.09       1632.36         -0.00          4.25
    90.68         11.81       2216.98       1632.36         -0.00         -0.44
    90.69         11.82       2217.52       1632.78         -0.00          0.03
    90.70         11.82       2217.42       1632.78          0.00         -0.11
    90.71         11.82       2212.81       1629.42          0.00         -4.69
    90.72         11.82       2217.31       1632.78          0.00         -0.18
    90.73         11.82       2217.21       1632.78          0.00         -0.29
    90.74         11.82       2217.16       1632.78          0.00         -0.29
    90.75         11.82       2217.08       1632.78          0.01         -0.34
    90.76         11.82       2217.02       1632.78          0.01         -0.91
    90.77         11.82       2216.94       1632.78          0.01         -0.91
    90.78         11.82       2216.94       1632.78          0.00         -0.29
    90.79         11.83       2212.34       1629.42          0.01         -4.92
    90.80         11.83       2216.81       1632.78          0.01         -0.47
    90.81         11.83       2216.87       1632.78          0.01          0.15
    90.82         11.83       2216.87       1632.78          0.01          0.07
    90.83         11.83       2216.89       1632.78          0.01          0.15
    90.84         11.82       2216.94       1632.78          0.00          0.31
    90.85         11.82       2216.94       1632.78          0.00          0.33
    90.86         11.82       2216.97       1632.78          0.00          5.02
    90.87         11.82       2212.44       1629.42          0.00         -4.01
    90.88         11.82       2217.62       1633.20         -0.00          1.19
    90.89         11.82       2217.65       1633.20         -0.00          0.70
    90.90         11.82       2217.67       1633.20         -0.00          0.83
    90.91         11.82       2217.75       1633.20         -0.01          1.04
    90.92         11.82       2217.75       1633.20         -0.01          1.12
    90.93         11.82       2217.72       1633.20         -0.01          1.23
    90.94         11.82       2217.75       1633.20         -0.01          5.81
    90.95         11.82       2213.22       1629.84         -0.01         -3.33
    90.96         11.82       2217.80       1633.20         -0.01          1.20
    90.97         11.82       2217.83       1633.20         -0.01          1.12
    90.98         11.82       2217.86       1633.20         -0.01          1.07
    90.99         11.82       2217.83       1633.20         -0.01          0.99
    91.00         11.82       2217.86       1633.20         -0.01          1.51
