#Written by Robertson Geologging WinLogger V1.0/406
~VERSION INFORMATION
#------------------------------------------------------------------------------
 VERS. 2.0 : CWLS LOG ASCII STANDARD - VERSION 2.0
 WRAP. NO  : ONE LINE PER DEPTH STEP
~WELL INFORMATION
#MNEM.UNIT         DATA                                DESCRIPTION OF MNEMONIC
#------------------------------------------------------------------------------
 STRT.M          0.0600                            :   START DEPTH
 STOP.M         95.0200                            :   STOP DEPTH
 STEP.M          0.0100                            :   STEP VALUE
 NULL.        -999.2500                            :   NULL VALUE
 COMP.    Coal Authority                           :   COMPANY NAME
 WELL.    Ladysmith Shaft                          :   WELL NAME
 FLD.     Ladysmith                                :   FIELD NAME
 LOC.     N/A                                      :   LOCATION
 PROV.    N/A                                      :   PROVINCE
 SRVC.    N/A                                      :   SERVICE COMPANY NAME
 DATE.    20 May 08                                :   DATE
 UWI.     N/A                                      :   UNIQUE WELL IDENTIFIER
~PARAMETER INFORMATION
#MNEMO.UNIT         VALUE                 DESCRIPTION OF MNEMONIC
#------------------------------------------------------------------------------
~OTHER INFORMATION SECTION
#------------------------------------------------------------------------------
 TCDS 1365
~CURVE INFORMATION
#MNEMO.UNIT         API CODE              CURVE DESCRIPTION
#------------------------------------------------------------------------------
 DEPTH.M                                 :   0     Depth
 TEMP.DegC                               :   1     Temperature
 COND.uS/cm                              :   2     Absolute Conductivity
 COND.uS/cm                              :   3     Conductivity@25DegC
 DELT.DegC                               :   4     Delta T
 DELC.uS/cm                              :   5     Delta C
#------------------------------------------------------------------------------
~A  DEPTH     TEMP      COND      COND      DELT      DELC      
# ...
     6.66     11.85   1692.30   2295.93      0.35     30.17 
     6.67     11.86   1699.54   2305.14      0.34     50.18 
     6.68     11.86   1692.30   2295.33      0.33     22.70 
     6.69     11.87   1696.82   2301.16      0.32     43.98 
     6.70     11.87   1699.54   2304.54      0.32     31.87 
     6.71     11.87   1692.30   2294.73      0.31     36.26 
     6.72     11.88   1699.54   2304.24      0.30     33.07 
     6.73     11.86   1692.30   2295.33      0.27     35.24 
     6.74     11.87   1699.54   2304.84      0.26     35.47 
     6.75     11.86   1692.30   2295.63      0.24     26.86 
     6.76     11.85   1699.54   2305.74      0.23     26.46 
     6.77     11.85   1696.82   2302.06      0.22     35.43 
     6.78     11.85   1695.01   2299.91      0.19     22.43 
     6.79     11.85   1696.82   2302.36      0.18     35.35 
     6.80     11.85   1699.54   2306.05      0.17     29.77 
     6.81     11.86   1695.01   2299.31      0.17     23.63 
     6.82     11.86   1696.82   2301.76      0.18     25.78 
     6.83     11.86   1699.54   2305.44      0.16     30.36 
     6.84     11.86   1699.54   2305.14      0.17     30.06 
     6.85     11.85   1699.54   2305.74      0.15     31.26 
     6.86     11.86   1696.82   2301.46      0.14     19.25 
     6.87     11.86   1692.30   2295.63      0.13     22.93 
     6.88     11.86   1699.54   2305.44      0.12     23.20 
     6.89     11.86   1699.54   2305.14      0.13     22.60 
     6.90     11.85   1699.54   2306.05      0.11     33.65 
     6.91     11.85   1699.54   2306.05      0.12     23.51 
     6.92     11.85   1692.30   2296.23      0.12     13.69 
     6.93     11.85   1705.87   2314.34      0.11     32.69 
     6.94     11.86   1692.30   2295.63      0.11     14.29 
     6.95     11.87   1701.35   2307.29      0.11     16.41 
     6.96     11.86   1696.82   2301.46      0.10     20.72 
     6.97     11.86   1699.54   2305.44      0.10     24.70 
     6.98     11.86   1699.54   2305.14      0.10     24.70 
     6.99     11.86   1696.82   2301.46      0.09     11.48 
     7.00     11.85   1699.54   2305.74      0.08     25.60 
     7.01     11.86   1699.54   2305.14      0.09     15.16 
     7.02     11.86   1699.54   2305.44      0.09     25.00 
     7.03     11.87   1699.54   2304.84      0.10     14.86 
     7.04     11.87   1699.54   2304.54      0.08     23.13 
     7.05     11.87   1696.82   2300.86      0.08     12.38 
     7.06     11.87   1699.54   2304.54      0.07     16.66 
     7.07     11.87   1699.54   2304.84      0.06     16.96 
     7.08     11.88   1699.54   2304.24      0.08     25.89 
     7.09     11.87   1699.54   2304.54      0.07     16.66 
     7.10     11.87   1699.54   2304.54      0.07     16.36 
     7.11     11.86   1699.54   2305.44      0.06     17.26 
     7.12     11.84   1699.54   2306.35      0.04     18.17 
     7.13     11.85   1696.82   2302.06      0.06     13.58 
     7.14     11.86   1701.35   2307.90      0.06     19.42 
     7.15     11.87   1699.54   2304.84      0.06     16.96 
     7.16     11.88   1705.87   2312.52      0.08     13.58 
     7.17     11.87   1695.01   2298.40      0.07     17.90 
     7.18     11.88   1699.54   2304.24      0.06      6.20 
     7.19     11.87   1705.87   2313.12      0.05     26.14 
     7.20     11.86   1699.54   2305.14      0.03     18.76 
     7.21     11.87   1699.54   2304.54      0.04      7.11 
     7.22     11.86   1699.54   2305.44      0.03     19.06 
     7.23     11.86   1699.54   2305.14      0.03      7.71 
     7.24     11.87   1699.54   2304.84      0.05     17.86 
     7.25     11.85   1706.77   2315.56      0.02     24.27 
     7.26     11.85   1696.82   2302.06      0.03      9.24 
     7.27     11.86   1699.54   2305.44      0.03      8.01 
     7.28     11.86   1701.35   2307.59      0.04     16.00 
     7.29     11.87   1705.87   2313.43      0.04     27.05 
     7.30     11.88   1699.54   2304.24      0.04      7.41 
     7.31     11.88   1699.54   2304.24      0.05      6.80 
     7.32     11.87   1699.54   2304.54      0.03     13.85 
     7.33     11.87   1699.54   2304.84      0.03     12.62 
     7.34     11.85   1706.77   2315.56      0.02     12.29 
     7.35     11.84   1699.54   2306.65      0.00     20.57 
     7.36     11.84   1699.54   2306.35      0.01      9.22 
     7.37     11.85   1699.54   2305.74      0.02      8.61 
     7.38     11.86   1699.54   2305.14      0.03      8.01 
     7.39     11.87   1706.77   2314.35      0.03     17.82 
     7.40     11.86   1699.54   2305.14      0.02      8.31 
     7.41     11.87   1699.54   2304.84      0.02     14.75 
     7.42     11.87   1706.77   2314.65      0.01     18.73 
     7.43     11.87   1696.82   2301.16      0.01      1.85 
     7.44     11.88   1701.35   2306.39      0.01     17.49 
     7.45     11.86   1699.54   2305.44      0.00      9.52 
     7.46     11.86   1705.87   2314.03      0.01      7.99 
     7.47     11.85   1701.35   2308.50      0.00     12.27 
     7.48     11.84   1699.54   2306.65     -0.00     10.12 
     7.49     11.86   1705.87   2314.03      0.01     17.80 
     7.50     11.86   1699.54   2305.44      0.01      8.91 
     7.51     11.87   1701.35   2307.29      0.02     10.76 
     7.52     11.87   1706.77   2314.35      0.02     12.29 
     7.53     11.86   1696.82   2301.76     -0.01      3.06 
     7.54     11.87   1699.54   2304.84      0.00      3.68 
     7.55     11.86   1707.68   2316.18     -0.01     21.46 
     7.56     11.87   1696.82   2301.16      0.01      5.53 
     7.57     11.87   1706.77   2314.35      0.02     18.12 
     7.58     11.87   1701.35   2306.99      0.02      4.93 
     7.59     11.88   1696.82   2300.26      0.03     -5.49 
     7.60     11.87   1706.77   2314.35      0.02     14.44 
     7.61     11.88   1699.54   2303.93      0.02     14.44 
     7.62     11.88   1699.54   2304.24      0.03     -1.81 
     7.63     11.86   1706.77   2314.96      0.01     18.73 
     7.64     11.86   1699.54   2305.44      0.00      0.00 
     7.65     11.85   1706.77   2315.87     -0.00     19.94 
     7.66     11.84   1699.54   2306.65     -0.02      1.51 
     7.67     11.84   1705.87   2314.94     -0.02     19.62 
     7.68     11.85   1701.35   2308.20     -0.01      7.04 
     7.69     11.85   1699.54   2305.74     -0.02      1.21 
     7.70     11.86   1705.87   2314.03     -0.01     19.31 
     7.71     11.86   1699.54   2305.44     -0.02      1.21 
     7.72     11.86   1706.77   2315.26     -0.00     19.93 
     7.73     11.86   1699.54   2305.44     -0.01      0.60 
     7.74     11.86   1706.77   2314.96      0.00     19.33 
     7.75     11.86   1699.54   2305.14      0.01     -0.60 
     7.76     11.86   1705.87   2313.73      0.01     11.67 
     7.77     11.86   1699.54   2305.14      0.01      5.23 
     7.78     11.86   1706.77   2314.96      0.01     12.59 
     7.79     11.86   1699.54   2305.14      0.01     -0.91 
     7.80     11.85   1699.54   2305.74     -0.00      6.44 
     7.81     11.85   1706.77   2315.56     -0.00     13.80 
     7.82     11.85   1699.54   2305.74     -0.00      0.30 
     7.83     11.86   1706.77   2315.26     -0.00     10.12 
     7.84     11.87   1699.54   2304.84      0.01     -0.91 
     7.85     11.87   1706.77   2314.65      0.00     13.19 
     7.86     11.86   1699.54   2305.14      0.00      9.51 
     7.87     11.86   1705.87   2314.03      0.00      8.59 
     7.88     11.85   1706.77   2315.56     -0.01     10.42 
     7.89     11.86   1699.54   2305.44      0.01     -0.60 
     7.90     11.86   1706.77   2315.26      0.01      9.21 
     7.91     11.87   1699.54   2304.54      0.02      8.31 
     7.92     11.87   1706.77   2314.65      0.01      0.32 
     7.93     11.86   1696.82   2301.46      0.00      5.83 
     7.94     11.87   1706.77   2314.65      0.00      7.36 
     7.95     11.86   1701.35   2307.90     -0.00      6.44 
     7.96     11.86   1706.77   2314.96      0.00      9.51 
     7.97     11.86   1696.82   2301.76     -0.00     -3.38 
