#Written by Robertson Geologging WinLogger V1.5/410
~VERSION INFORMATION
#------------------------------------------------------------------------------
 VERS. 2.0 : CWLS LOG ASCII STANDARD - VERSION 2.0
 WRAP. NO  : ONE LINE PER DEPTH STEP
~WELL INFORMATION
#MNEM.UNIT         DATA                                DESCRIPTION OF MNEMONIC
#------------------------------------------------------------------------------
 STRT.M          0.0100                            :   START DEPTH
 STOP.M         89.0000                            :   STOP DEPTH
 STEP.M          0.0100                            :   STEP VALUE
 NULL.        -999.2500                            :   NULL VALUE
 COMP.    IWS                                      :   COMPANY NAME
 WELL.    Ladysmith                                :   WELL NAME
 FLD.     N/A                                      :   FIELD NAME
 LOC.     N/A                                      :   LOCATION
 PROV.    N/A                                      :   PROVINCE
 SRVC.    N/A                                      :   SERVICE COMPANY NAME
 DATE.    01 Feb 11                                :   DATE
 UWI.     N/A                                      :   UNIQUE WELL IDENTIFIER
~PARAMETER INFORMATION
#MNEMO.UNIT         VALUE                 DESCRIPTION OF MNEMONIC
#------------------------------------------------------------------------------
~OTHER INFORMATION SECTION
#------------------------------------------------------------------------------
 1365
~CURVE INFORMATION
#MNEMO.UNIT         API CODE              CURVE DESCRIPTION
#------------------------------------------------------------------------------
 DEPTH.M                                 :   0     Depth
 CN25.uS/cm                              :   1     Conductivity@25DegC
 TEMP.DegC                               :   2     Temperature
 DELT.DegC                               :   3     Delta T
 DELC.uS/cm                              :   4     Delta C
#------------------------------------------------------------------------------
~A  DEPTH          CN25          TEMP          DELT          DELC
# ...
    58.57       2139.21         11.92          0.01          7.39
    58.58       2140.40         11.92          0.01          8.57
    58.59       2139.31         11.92          0.01          7.46
    58.60       2137.01         11.92          0.01          5.12
    58.61       2139.34         11.92          0.01          4.00
    58.62       2140.50         11.92          0.01         10.23
    58.63       2137.12         11.92          0.01          1.76
    58.64       2139.44         11.92          0.01          7.57
    58.65       2140.63         11.92          0.00          8.86
    58.66       2137.24         11.92          0.00          1.63
    58.67       2137.22         11.92          0.00          5.06
    58.68       2140.60         11.92          0.00          5.09
    58.69       2137.12         11.92          0.00          5.60
    58.70       2137.07         11.92          0.00          2.14
    58.71       2139.29         11.92          0.00          6.66
    58.72       2140.40         11.92          0.00          8.93
    58.73       2139.26         11.92          0.00          2.69
    58.74       2139.29         11.92          0.00          7.77
    58.75       2139.31         11.92          0.00          4.34
    58.76       2139.31         11.92          0.00          6.53
    58.77       2141.61         11.92          0.01          7.59
    58.78       2139.39         11.92          0.01          3.07
    58.79       2138.30         11.92          0.01          5.35
    58.80       2141.74         11.92          0.01          3.62
    58.81       2141.71         11.92          0.01          8.73
    58.82       2139.44         11.92          0.01          3.07
    58.83       2138.28         11.92          0.00          4.26
    58.84       2139.39         11.92          0.00          6.58
    58.85       2141.63         11.92          0.00          3.80
    58.86       2139.29         11.92          0.00          4.88
    58.87       2138.05         11.92          0.01          1.32
    58.88       2139.08         11.92          0.01          5.73
    58.89       2141.25         11.92          0.01          6.72
    58.90       2142.36         11.93          0.01          5.55
    58.91       2137.35         11.92          0.01          3.98
    58.92       2138.56         11.92          0.01          0.08
    58.93       2142.07         11.92          0.01          4.73
    58.94       2142.05         11.92          0.01          4.60
    58.95       2138.56         11.92          0.01         -0.10
    58.96       2138.51         11.92          0.01          3.15
    58.97       2141.87         11.92          0.02          4.21
    58.98       2139.62         11.92          0.01          4.26
    58.99       2138.49         11.92          0.01         -0.20
    59.00       2139.60         11.92          0.01          2.15
    59.01       2139.55         11.92          0.01          4.44
    59.02       2139.47         11.93          0.01          1.04
    59.03       2139.47         11.93          0.01          4.47
    59.04       2139.49         11.93          0.01          4.50
    59.05       2137.30         11.92          0.01         -1.13
    59.06       2139.67         11.92          0.01          4.70
    59.07       2140.91         11.92          0.00          3.72
    59.08       2137.63         11.92          0.00         -0.64
    59.09       2141.17         11.92         -0.00          2.97
    59.10       2141.32         11.91         -0.00          3.07
    59.11       2141.45         11.91         -0.00          3.12
    59.12       2138.17         11.91         -0.00         -0.29
    59.13       2143.36         11.91         -0.00          4.78
    59.14       2142.23         11.91         -0.00          3.56
    59.15       2138.79         11.91         -0.00          0.08
    59.16       2142.17         11.91         -0.00          3.49
    59.17       2142.15         11.91         -0.00          3.49
    59.18       2142.10         11.91         -0.00          3.46
    59.19       2142.07         11.91          0.00          3.41
    59.20       2140.88         11.91          0.00          2.14
    59.21       2141.99         11.91          0.00          3.23
    59.22       2142.05         11.91          0.00          3.28
    59.23       2142.02         11.91          0.00          3.31
    59.24       2140.86         11.91          0.00          2.25
    59.25       2141.97         11.91          0.00          1.11
    59.26       2141.87         11.91          0.00          3.31
    59.27       2140.65         11.92          0.00          2.17
    59.28       2141.76         11.92          0.00          0.98
    59.29       2141.74         11.92          0.00          3.25
    59.30       2141.71         11.92          0.00          3.30
    59.31       2141.71         11.92          0.00          1.11
    59.32       2141.66         11.92          0.00          4.52
    59.33       2138.10         11.92          0.00          1.01
    59.34       2140.27         11.92          0.00         -0.21
    59.35       2141.27         11.92          0.01          5.89
    59.36       2141.20         11.93          0.01          4.75
    59.37       2141.20         11.93          0.01          1.37
    59.38       2141.20         11.93          0.01          2.45
    59.39       2141.20         11.93          0.01          4.73
    59.40       2141.15         11.93          0.01          1.22
    59.41       2141.04         11.93          0.01          2.20
    59.42       2140.97         11.93          0.01          4.39
    59.43       2140.89         11.93          0.01          2.07
    59.44       2140.86         11.93          0.01          0.98
    59.45       2140.89         11.93          0.01          4.47
    59.46       2140.89         11.93          0.01          0.54
    59.47       2140.91         11.93          0.01          0.57
    59.48       2143.16         11.93          0.01          3.95
    59.49       2140.86         11.93          0.01          3.98
    59.50       2140.76         11.93          0.01          1.60
    59.51       2139.57         11.93          0.01          0.47
    59.52       2143.03         11.93          0.01          6.25
    59.53       2140.76         11.93          0.01          1.73
    59.54       2140.81         11.93          0.01          0.65
    59.55       2143.13         11.93          0.01          3.98
    59.56       2140.86         11.93          0.01          1.65
    59.57       2139.83         11.93          0.01         -0.56
    59.58       2139.93         11.93          0.01          0.62
    59.59       2140.06         11.93          0.01          3.05
    59.60       2143.57         11.92          0.01          4.23
    59.61       2140.29         11.92          0.00         -0.21
    59.62       2140.37         11.92          0.00          3.25
    59.63       2140.40         11.92          0.00          0.96
    59.64       2142.72         11.92          0.00          2.09
    59.65       2142.74         11.92          0.00          5.50
    59.66       2140.50         11.92          0.00          3.28
    59.67       2142.80         11.92          0.00          2.19
    59.68       2143.93         11.92          0.00          6.81
    59.69       2142.74         11.92          0.00          5.68
    59.70       2140.37         11.92          0.00          1.08
    59.71       2139.16         11.92          0.00         -1.24
    59.72       2142.41         11.92          0.00          3.15
    59.73       2143.47         11.93          0.01          4.18
    59.74       2142.28         11.93          0.01          2.97
    59.75       2139.93         11.93          0.01          0.62
    59.76       2138.72         11.93          0.01         -2.89
    59.77       2142.05         11.93          0.01          2.66
    59.78       2143.08         11.93          0.02          4.78
