#Written by Robertson Geologging WinLogger V1.5/410
~VERSION INFORMATION
#------------------------------------------------------------------------------
 VERS. 2.0 : CWLS LOG ASCII STANDARD - VERSION 2.0
 WRAP. NO  : ONE LINE PER DEPTH STEP
~WELL INFORMATION
#MNEM.UNIT         DATA                                DESCRIPTION OF MNEMONIC
#------------------------------------------------------------------------------
 STRT.M          0.0100                            :   START DEPTH
 STOP.M         89.0000                            :   STOP DEPTH
 STEP.M          0.0100                            :   STEP VALUE
 NULL.        -999.2500                            :   NULL VALUE
 COMP.    IWS                                      :   COMPANY NAME
 WELL.    Ladysmith                                :   WELL NAME
 FLD.     N/A                                      :   FIELD NAME
 LOC.     N/A                                      :   LOCATION
 PROV.    N/A                                      :   PROVINCE
 SRVC.    N/A                                      :   SERVICE COMPANY NAME
 DATE.    01 Feb 11                                :   DATE
 UWI.     N/A                                      :   UNIQUE WELL IDENTIFIER
~PARAMETER INFORMATION
#MNEMO.UNIT         VALUE                 DESCRIPTION OF MNEMONIC
#------------------------------------------------------------------------------
~OTHER INFORMATION SECTION
#------------------------------------------------------------------------------
 1365
~CURVE INFORMATION
#MNEMO.UNIT         API CODE              CURVE DESCRIPTION
#------------------------------------------------------------------------------
 DEPTH.M                                 :   0     Depth
 CN25.uS/cm                              :   1     Conductivity@25DegC
 TEMP.DegC                               :   2     Temperature
 DELT.DegC                               :   3     Delta T
 DELC.uS/cm                              :   4     Delta C
#------------------------------------------------------------------------------
~A  DEPTH          CN25          TEMP          DELT          DELC
# ...
    87.85       2251.36         12.00         -0.01         -2.02
    87.86       2255.41         12.00         -0.01          5.32
    87.87       2251.55         12.00         -0.01         -2.48
    87.88       2255.06         11.99         -0.02          5.04
    87.89       2251.06         11.99         -0.02         -2.89
    87.90       2255.06         11.99         -0.02          4.59
    87.91       2251.15         11.99         -0.02         -2.70
    87.92       2255.01         11.99         -0.02          5.13
    87.93       2250.98         12.00         -0.02         -2.94
    87.94       2254.22         12.00         -0.01          4.18
    87.95       2249.99         12.00         -0.01         -3.56
    87.96       2253.71         12.01         -0.00          4.05
    87.97       2249.58         12.01          0.00         -4.07
    87.98       2252.90         12.01          0.00          3.13
    87.99       2249.39         12.01          0.01         -4.40
    88.00       2253.28         12.01          0.01          3.35
    88.01       2249.21         12.02          0.01         -4.26
    88.02       2253.01         12.02          0.02          2.83
    88.03       2249.02         12.02          0.02         -5.29
    88.04       2252.98         12.02          0.02         -0.84
    88.05       2249.66         12.02          0.02         -4.15
    88.06       2253.71         12.02          0.02          3.35
    88.07       2249.83         12.01          0.02         -3.91
    88.08       2253.33         12.01          0.02         -0.40
    88.09       2249.96         12.01          0.02         -3.86
    88.10       2253.95         12.01          0.02          0.05
    88.11       2250.10         12.01          0.02         -3.78
    88.12       2253.52         12.01          0.01         -0.89
    88.13       2249.58         12.01          0.01         -4.78
    88.14       2253.58         12.01          0.01         -0.67
    88.15       2253.01         12.01          0.01          2.19
    88.16       2252.98         12.01          0.01         -1.16
    88.17       2249.10         12.01          0.01         -5.02
    88.18       2252.60         12.01          0.01         -1.48
    88.19       2253.17         12.01          0.00          3.13
    88.20       2253.22         12.01          0.00         -0.05
    88.21       2252.66         12.01         -0.00          3.56
    88.22       2252.58         12.01         -0.00         -0.35
    88.23       2252.55         12.01         -0.01          3.72
    88.24       2252.52         12.01         -0.01         -0.22
    88.25       2252.44         12.01         -0.00          3.67
    88.26       2248.96         12.01         -0.00         -3.13
    88.27       2252.93         12.01         -0.00          4.26
    88.28       2252.90         12.01         -0.00          0.30
    88.29       2253.47         12.01         -0.01          4.32
    88.30       2249.58         12.01         -0.01         -3.48
    88.31       2252.98         12.01         -0.01          3.37
    88.32       2249.66         12.01         -0.01         -3.89
    88.33       2253.14         12.01         -0.01          3.59
    88.34       2249.80         12.01         -0.01         -3.16
    88.35       2253.82         12.01         -0.01          4.80
    88.36       2249.88         12.00         -0.01         -2.54
    88.37       2253.90         12.00         -0.01          4.85
    88.38       2249.91         12.00         -0.01         -2.62
    88.39       2253.85         12.00         -0.01          5.23
    88.40       2249.82         12.01         -0.01         -2.83
    88.41       2253.66         12.01         -0.00          4.83
    88.42       2250.18         12.01         -0.00         -2.70
    88.43       2253.47         12.01          0.00          4.42
    88.44       2253.98         12.01          0.00          1.40
    88.45       2253.95         12.01          0.01          4.70
    88.46       2253.39         12.01          0.01          0.08
    88.47       2253.44         12.01          0.01          0.03
    88.48       2252.90         12.01          0.01         -0.57
    88.49       2252.93         12.01          0.01          2.86
    88.50       2252.39         12.01          0.01         -1.08
    88.51       2252.36         12.01          0.01         -1.02
    88.52       2251.77         12.01          0.01         -1.48
    88.53       2251.79         12.01          0.00         -0.81
    88.54       2251.79         12.01          0.00         -0.73
    88.55       2247.86         12.01          0.00         -5.21
    88.56       2251.31         12.01          0.00         -1.78
    88.57       2247.94         12.01          0.00         -5.13
    88.58       2251.90         12.01         -0.00          2.37
    88.59       2248.48         12.01         -0.00         -4.88
    88.60       2252.42         12.01         -0.01         -0.81
    88.61       2252.36         12.01         -0.01         -0.76
    88.62       2252.33         12.01         -0.01          3.18
    88.63       2252.39         12.01         -0.01         -0.76
    88.64       2252.44         12.01         -0.01          2.64
    88.65       2252.44         12.01         -0.01         -0.76
    88.66       2252.42         12.01         -0.01          3.24
    88.67       2252.90         12.01         -0.01         -0.19
    88.68       2252.87         12.01         -0.01          3.78
    88.69       2252.90         12.01         -0.01          0.35
    88.70       2252.98         12.01         -0.01          4.32
    88.71       2253.12         12.01         -0.01          0.35
    88.72       2249.82         12.01         -0.01          0.38
    88.73       2253.87         12.00         -0.01          0.40
    88.74       2250.47         12.00         -0.01          0.92
    88.75       2254.33         12.01         -0.00          0.81
    88.76       2254.30         12.01         -0.00          4.13
    88.77       2254.30         12.01         -0.00          0.05
    88.78       2253.82         12.01         -0.00          3.48
    88.79       2249.34         12.00         -0.00         -4.99
    88.80       2248.77         12.00         -0.00         -2.24
    88.81       2248.77         12.00          0.00         -6.26
    88.82       2248.72         12.01          0.00         -2.40
    88.83       2248.72         12.01          0.00         -6.50
    88.84       2248.72         12.01          0.01         -2.64
    88.85       2248.75         12.00          0.01         -6.66
    88.86       2248.77         12.00          0.01         -2.78
    88.87       2245.43         12.00          0.01         -9.63
    88.88       2249.39         12.00          0.01         -1.67
    88.89       2245.91         12.00          0.01         -9.15
    88.90       2254.33         12.01          0.01          3.19
    88.91       2250.88         12.01          0.01         -4.13
    88.92       2254.79         12.01          0.01          3.81
    88.93       2250.85         12.01          0.01         -3.37
    88.94       2254.82         12.01          0.00          4.83
    88.95       2254.25         12.01          0.00          0.54
    88.96       2254.17         12.01         -0.00          4.59
    88.97       2253.58         12.01         -0.00          0.67
    88.98       2253.55         12.01         -0.00          4.15
    88.99       2252.96         12.01         -0.00         -0.32
    89.00       2252.96         12.01         -0.01          3.75
