#Written by Robertson Geologging WinLogger V1.5/410
~VERSION INFORMATION
#------------------------------------------------------------------------------
 VERS. 2.0 : CWLS LOG ASCII STANDARD - VERSION 2.0
 WRAP. NO  : ONE LINE PER DEPTH STEP
~WELL INFORMATION
#MNEM.UNIT         DATA                                DESCRIPTION OF MNEMONIC
#------------------------------------------------------------------------------
 STRT.M          0.0600                            :   START DEPTH
 STOP.M         94.0500                            :   STOP DEPTH
 STEP.M          0.0100                            :   STEP VALUE
 NULL.        -999.2500                            :   NULL VALUE
 COMP.    Coal Authority                           :   COMPANY NAME
 WELL.    Ladysmith Shaft                          :   WELL NAME
 FLD.     N/A                                      :   FIELD NAME
 LOC.     N/A                                      :   LOCATION
 PROV.    N/A                                      :   PROVINCE
 SRVC.    N/A                                      :   SERVICE COMPANY NAME
 DATE.    15 Dec 08                                :   DATE
 UWI.     N/A                                      :   UNIQUE WELL IDENTIFIER
~PARAMETER INFORMATION
#MNEMO.UNIT         VALUE                 DESCRIPTION OF MNEMONIC
#------------------------------------------------------------------------------
~OTHER INFORMATION SECTION
#------------------------------------------------------------------------------
 TCDS 1365
 15,12,2008
~CURVE INFORMATION
#MNEMO.UNIT         API CODE              CURVE DESCRIPTION
#------------------------------------------------------------------------------
 DEPTH.M                                 :   0     Depth
 COND.uS/cm                              :   1     Conductivity@25DegC
 COND.uS/cm                              :   2     Absolute Conductivity
 TEMP.DegC                               :   3     Temperature
 DELT.DegC                               :   4     Delta T
 DELC.uS/cm                              :   5     Delta C
 NGAM.CPS                                :   6     Natural Gamma
#------------------------------------------------------------------------------
~A  DEPTH          COND          COND          TEMP          DELT          DELC          NGAM
# ...
    18.98       2335.24       1717.30         11.77          0.02         -0.51          1.82
    18.99       2335.29       1717.30         11.77          0.02         -5.02          1.82
    19.00       2335.43       1717.30         11.77          0.01         -4.85          1.82
    19.01       2339.56       1720.25         11.76          0.01          3.29          1.82
    19.02       2335.66       1717.30         11.76          0.01         -0.61          1.82
    19.03       2335.08       1716.88         11.76          0.01         -1.65          2.24
    19.04       2335.60       1717.30         11.76          0.01         -5.15          2.24
    19.05       2335.63       1717.30         11.76          0.01         -4.52          1.88
    19.06       2340.10       1720.67         11.76          0.01          4.00          1.53
    19.07       2336.06       1717.72         11.77          0.01         -0.12          1.53
    19.08       2335.49       1717.30         11.77          0.01         -0.86          1.53
    19.09       2335.46       1717.30         11.77          0.02         -5.65          1.53
    19.10       2339.47       1720.25         11.77          0.02          2.24          1.88
    19.11       2339.94       1720.67         11.77          0.02          2.65          1.47
    19.12       2335.21       1717.30         11.77          0.02         -1.97          1.47
    19.13       2335.04       1717.30         11.77          0.02         -6.56          1.47
    19.14       2335.45       1717.72         11.77          0.02         -6.04          1.47
    19.15       2335.42       1717.72         11.78          0.02         -1.34          0.76
    19.16       2339.35       1720.67         11.78          0.02          2.05          0.76
    19.17       2335.31       1717.72         11.78          0.02         -2.05          0.76
    19.18       2335.25       1717.72         11.78          0.02         -6.07          0.76
    19.19       2335.77       1718.14         11.78          0.02         -4.95          0.76
    19.20       2336.37       1718.56         11.78          0.02         -0.25          0.35
    19.21       2336.37       1718.56         11.78          0.02          0.38          0.76
    19.22       2335.94       1718.14         11.78          0.02         -4.64          0.76
    19.23       2336.02       1718.14         11.77          0.02         -4.04          0.76
    19.24       2336.08       1718.14         11.77          0.02         -0.03          0.76
    19.25       2340.12       1721.09         11.77          0.02          3.93          0.76
    19.26       2340.01       1721.09         11.78          0.02         -0.80          0.76
    19.27       2335.31       1717.72         11.78          0.02         -5.46          0.76
    19.28       2335.17       1717.72         11.78          0.02         -5.52          0.76
    19.29       2339.15       1720.67         11.78          0.02          3.16          0.76
    19.30       2338.55       1720.25         11.78          0.02          2.13          1.12
    19.31       2338.53       1720.25         11.78          0.02         -1.83          1.12
    19.32       2334.51       1717.30         11.78          0.02         -5.81          1.12
    19.33       2334.40       1717.30         11.78          0.02         -0.74          1.12
    19.34       2338.90       1720.67         11.78          0.02          3.08          1.12
    19.35       2338.82       1720.67         11.79          0.03         -1.19          1.12
    19.36       2334.78       1717.72         11.79          0.03         -5.25          1.12
    19.37       2338.79       1720.67         11.79          0.03          3.35          1.12
    19.38       2339.39       1721.09         11.79          0.03          3.97          1.12
    19.39       2338.93       1720.67         11.78          0.02         -0.39          1.12
    19.40       2334.92       1717.72         11.78          0.02         -4.40          1.12
    19.41       2339.53       1721.09         11.78          0.02          0.18          1.12
    19.42       2338.99       1720.67         11.78          0.02         -0.25          1.12
    19.43       2338.96       1720.67         11.78          0.02         -0.74          1.12
    19.44       2338.93       1720.67         11.78          0.02         -1.20          0.76
    19.45       2338.99       1720.67         11.78          0.02         -1.00          0.76
    19.46       2339.01       1720.67         11.78          0.01         -0.87          1.12
    19.47       2338.50       1720.25         11.78          0.01         -1.38          0.76
    19.48       2338.66       1720.25         11.78          0.01         -1.24          0.76
    19.49       2338.75       1720.25         11.78          0.01         -1.10          0.76
    19.50       2339.38       1720.67         11.78          0.01         -0.50          0.76
    19.51       2338.94       1720.25         11.77          0.00         -1.40          0.76
    19.52       2338.97       1720.25         11.77          0.00         -1.20          0.76
    19.53       2339.49       1720.67         11.77          0.00          3.87          0.76
    19.54       2338.86       1720.25         11.78          0.00         -0.71          0.76
    19.55       2339.32       1720.67         11.78          0.00         -0.28          0.35
    19.56       2339.27       1720.67         11.78          0.00         -0.31          0.35
    19.57       2338.78       1720.25         11.78          0.00          3.36          0.35
    19.58       2339.43       1720.67         11.78         -0.00          0.08          0.35
    19.59       2335.50       1717.72         11.77         -0.00         -3.76          0.35
    19.60       2339.54       1720.67         11.77         -0.00          0.25          0.35
    19.61       2339.54       1720.67         11.77         -0.00          4.21          0.76
    19.62       2340.06       1721.09         11.77         -0.00          0.60          0.76
    19.63       2336.05       1718.14         11.77          0.00         -3.01          0.41
    19.64       2340.12       1721.09         11.77          0.00          0.41          0.41
    19.65       2340.77       1721.51         11.77          0.00          0.92          0.41
    19.66       2340.31       1721.09         11.77          0.00         -0.14          0.41
    19.67       2340.31       1721.09         11.77          0.00          0.43          0.41
    19.68       2340.89       1721.51         11.77          0.00          1.01          0.76
    19.69       2340.28       1721.09         11.77          0.00          0.49          0.76
    19.70       2340.26       1721.09         11.77          0.00         -0.03          1.12
    19.71       2340.26       1721.09         11.77         -0.00          0.06          1.12
    19.72       2340.23       1721.09         11.77         -0.00          0.06          1.12
    19.73       2340.12       1721.09         11.77         -0.00          4.04          1.12
    19.74       2339.43       1720.67         11.78         -0.00         -1.09          1.12
    19.75       2339.35       1720.67         11.78         -0.00         -0.52          1.12
    19.76       2338.66       1720.25         11.78         -0.00          2.95          1.12
    19.77       2339.10       1720.67         11.78          0.00         -0.66          1.12
    19.78       2338.99       1720.67         11.78          0.00         -1.42          1.06
    19.79       2338.87       1720.67         11.78          0.01         -1.05          1.06
    19.80       2338.79       1720.67         11.79          0.01          2.77          1.06
    19.81       2338.71       1720.67         11.79          0.01         -1.44          1.06
    19.82       2338.68       1720.67         11.79          0.02         -1.63          1.06
    19.83       2338.05       1720.25         11.79          0.02         -1.80          1.06
