#Written by Robertson Geologging WinLogger V1.5/410
~VERSION INFORMATION
#------------------------------------------------------------------------------
 VERS. 2.0 : CWLS LOG ASCII STANDARD - VERSION 2.0
 WRAP. NO  : ONE LINE PER DEPTH STEP
~WELL INFORMATION
#MNEM.UNIT         DATA                                DESCRIPTION OF MNEMONIC
#------------------------------------------------------------------------------
 STRT.M          0.0100                            :   START DEPTH
 STOP.M         89.0000                            :   STOP DEPTH
 STEP.M          0.0100                            :   STEP VALUE
 NULL.        -999.2500                            :   NULL VALUE
 COMP.    IWS                                      :   COMPANY NAME
 WELL.    Ladysmith                                :   WELL NAME
 FLD.     N/A                                      :   FIELD NAME
 LOC.     N/A                                      :   LOCATION
 PROV.    N/A                                      :   PROVINCE
 SRVC.    N/A                                      :   SERVICE COMPANY NAME
 DATE.    01 Feb 11                                :   DATE
 UWI.     N/A                                      :   UNIQUE WELL IDENTIFIER
~PARAMETER INFORMATION
#MNEMO.UNIT         VALUE                 DESCRIPTION OF MNEMONIC
#------------------------------------------------------------------------------
~OTHER INFORMATION SECTION
#------------------------------------------------------------------------------
 1365
~CURVE INFORMATION
#MNEMO.UNIT         API CODE              CURVE DESCRIPTION
#------------------------------------------------------------------------------
 DEPTH.M                                 :   0     Depth
 CN25.uS/cm                              :   1     Conductivity@25DegC
 TEMP.DegC                               :   2     Temperature
 DELT.DegC                               :   3     Delta T
 DELC.uS/cm                              :   4     Delta C
#------------------------------------------------------------------------------
~A  DEPTH          CN25          TEMP          DELT          DELC
# ...
    35.39       2024.61         11.81          0.01          0.08
    35.40       2021.24         11.81          0.01         -2.12
    35.41       2025.33         11.80          0.01          0.25
    35.42       2025.40         11.80          0.00          1.51
    35.43       2025.45         11.80          0.00          0.50
    35.44       2025.52         11.80         -0.00          4.58
    35.45       2025.52         11.80         -0.00          2.38
    35.46       2022.08         11.80         -0.00         -2.21
    35.47       2026.02         11.80         -0.00          2.87
    35.48       2027.13         11.80          0.00          6.27
    35.49       2025.97         11.80          0.00          1.07
    35.50       2023.69         11.80          0.00         -0.07
    35.51       2027.08         11.80          0.00          2.11
    35.52       2023.00         11.80          0.01         -0.34
    35.53       2026.37         11.81          0.01          1.89
    35.54       2026.34         11.81          0.01          2.95
    35.55       2022.90         11.81          0.01         -0.51
    35.56       2022.93         11.81          0.01          1.82
    35.57       2026.34         11.81          0.01          3.00
    35.58       2022.36         11.81          0.01         -2.10
    35.59       2024.63         11.81          0.01         -2.07
    35.60       2025.75         11.81          0.01          3.00
    35.61       2025.75         11.81          0.01          2.93
    35.62       2022.36         11.81          0.01         -0.49
    35.63       2026.37         11.81          0.01          5.80
    35.64       2024.09         11.81          0.01          1.22
    35.65       2022.90         11.81          0.01         -1.08
    35.66       2023.99         11.81          0.01          1.22
    35.67       2027.98         11.81          0.01          1.27
    35.68       2024.56         11.81          0.01          1.32
    35.69       2024.59         11.81          0.01          1.42
    35.70       2022.28         11.81          0.00          1.47
    35.71       2024.51         11.81          0.00          1.51
    35.72       2024.54         11.81          0.00          0.47
    35.73       2027.91         11.81          0.00          3.86
    35.74       2023.87         11.81          0.00         -2.50
    35.75       2023.87         11.81          0.01         -0.29
    35.76       2027.24         11.81          0.01          3.05
    35.77       2027.26         11.81          0.01          3.03
    35.78       2023.28         11.81          0.01          3.03
    35.79       2023.28         11.81          0.01         -2.05
    35.80       2027.24         11.81          0.01          1.91
    35.81       2026.07         11.81          0.01          1.84
    35.82       2023.82         11.81          0.01          1.86
    35.83       2026.00         11.81          0.01          0.01
    35.84       2023.75         11.81          0.01         -1.06
    35.85       2022.63         11.81          0.01          0.25
    35.86       2026.60         11.81          0.00          4.29
    35.87       2024.34         11.81          0.00         -0.22
    35.88       2023.20         11.81          0.00         -2.50
    35.89       2027.14         11.81          0.01          1.34
    35.90       2027.14         11.81          0.01          2.90
    35.91       2023.18         11.81          0.01         -1.06
    35.92       2026.57         11.81          0.01          1.22
    35.93       2026.57         11.81          0.01          2.41
    35.94       2023.13         11.81          0.01         -0.91
    35.95       2027.07         11.81          0.01          3.08
    35.96       2027.04         11.81          0.01          2.98
    35.97       2023.03         11.81          0.01         -1.06
    35.98       2027.02         11.81          0.01          2.90
    35.99       2026.99         11.81          0.01          2.81
    36.00       2023.06         11.81          0.01          0.06
    36.01       2024.22         11.81          0.01         -0.41
    36.02       2026.47         11.81          0.01          2.98
    36.03       2024.20         11.81          0.01          0.75
    36.04       2024.12         11.82          0.01         -2.77
    36.05       2027.54         11.82          0.01          4.64
    36.06       2023.55         11.82          0.01          0.58
    36.07       2024.79         11.81          0.01          1.79
    36.08       2027.14         11.81          0.01          1.86
    36.09       2023.13         11.81          0.01          0.13
    36.10       2024.29         11.81          0.01         -0.86
    36.11       2026.50         11.81          0.01          1.39
    36.12       2026.47         11.81          0.00          5.43
    36.13       2023.08         11.81          0.00         -1.38
    36.14       2027.12         11.81          0.00          3.74
    36.15       2027.19         11.81          0.00          6.07
    36.16       2023.85         11.81          0.00          2.65
    36.17       2027.91         11.81          0.00          3.30
    36.18       2027.93         11.81          0.00          4.48
    36.19       2024.51         11.81          0.00         -0.62
    36.20       2024.51         11.81          0.00          0.55
    36.21       2028.45         11.81          0.00          6.71
    36.22       2024.96         11.81          0.00         -0.19
    36.23       2024.84         11.81          0.01         -0.37
    36.24       2029.87         11.81          0.01          8.03
    36.25       2024.67         11.82          0.01         -2.29
    36.26       2024.62         11.82          0.01         -1.25
    36.27       2027.99         11.82          0.01          2.12
    36.28       2023.95         11.82          0.01         -1.89
    36.29       2026.11         11.82          0.01         -0.83
    36.30       2027.17         11.82          0.01          5.43
    36.31       2026.08         11.82          0.01          3.23
    36.32       2024.37         11.82          0.01         -0.68
    36.33       2025.54         11.82          0.01          2.76
    36.34       2025.56         11.82          0.01          0.48
    36.35       2023.83         11.82          0.01         -2.39
    36.36       2023.83         11.82          0.01          2.69
    36.37       2023.83         11.82          0.01          1.52
    36.38       2025.56         11.82          0.01          0.95
    36.39       2024.45         11.82          0.01          3.21
    36.40       2022.20         11.82          0.02         -3.13
    36.41       2026.25         11.82          0.02          0.85
    36.42       2026.25         11.82          0.02          0.81
    36.43       2023.98         11.82          0.02         -1.54
    36.44       2028.08         11.82          0.02          2.56
    36.45       2027.09         11.81          0.01          5.01
    36.46       2027.21         11.81          0.01          1.20
    36.47       2028.45         11.81          0.01          1.32
    36.48       2027.29         11.81          0.01          1.32
    36.49       2027.24         11.81          0.01          3.55
    36.50       2027.14         11.81          0.01          0.06
    36.51       2027.09         11.81          0.01          4.09
    36.52       2025.33         11.81          0.01         -1.03
    36.53       2025.31         11.81          0.01         -1.03
    36.54       2029.32         11.81          0.01          6.42
    36.55       2024.17         11.81          0.01          1.25
    36.56       2025.24         11.82          0.01         -1.11
    36.57       2025.19         11.82          0.01          2.83
    36.58       2025.09         11.82          0.01          0.46
    36.59       2026.20         11.82          0.01          0.46
    36.60       2024.47         11.82          0.01         -1.28
