#Written by Robertson Geologging WinLogger V1.0/406
~VERSION INFORMATION
#------------------------------------------------------------------------------
 VERS. 2.0 : CWLS LOG ASCII STANDARD - VERSION 2.0
 WRAP. NO  : ONE LINE PER DEPTH STEP
~WELL INFORMATION
#MNEM.UNIT         DATA                                DESCRIPTION OF MNEMONIC
#------------------------------------------------------------------------------
 STRT.M          0.0600                            :   START DEPTH
 STOP.M         95.0200                            :   STOP DEPTH
 STEP.M          0.0100                            :   STEP VALUE
 NULL.        -999.2500                            :   NULL VALUE
 COMP.    Coal Authority                           :   COMPANY NAME
 WELL.    Ladysmith Shaft                          :   WELL NAME
 FLD.     Ladysmith                                :   FIELD NAME
 LOC.     N/A                                      :   LOCATION
 PROV.    N/A                                      :   PROVINCE
 SRVC.    N/A                                      :   SERVICE COMPANY NAME
 DATE.    20 May 08                                :   DATE
 UWI.     N/A                                      :   UNIQUE WELL IDENTIFIER
~PARAMETER INFORMATION
#MNEMO.UNIT         VALUE                 DESCRIPTION OF MNEMONIC
#------------------------------------------------------------------------------
~OTHER INFORMATION SECTION
#------------------------------------------------------------------------------
 TCDS 1365
~CURVE INFORMATION
#MNEMO.UNIT         API CODE              CURVE DESCRIPTION
#------------------------------------------------------------------------------
 DEPTH.M                                 :   0     Depth
 TEMP.DegC                               :   1     Temperature
 COND.uS/cm                              :   2     Absolute Conductivity
 COND.uS/cm                              :   3     Conductivity@25DegC
 DELT.DegC                               :   4     Delta T
 DELC.uS/cm                              :   5     Delta C
#------------------------------------------------------------------------------
~A  DEPTH     TEMP      COND      COND      DELT      DELC      
# ...
    25.14     12.00   1722.15   2327.29      0.05     -3.04 
    25.15     11.99   1729.39   2337.68      0.04      7.05 
    25.16     11.98   1722.15   2328.80      0.01     -0.91 
    25.17     11.98   1722.15   2328.80      0.01     -0.61 
    25.18     11.98   1729.39   2337.98      0.04      7.35 
    25.19     12.00   1722.15   2327.29      0.05     -3.34 
    25.20     12.00   1722.15   2326.98      0.06     -3.65 
    25.21     12.00   1729.39   2337.07      0.05      6.74 
    25.22     11.99   1722.15   2327.59      0.03     -1.82 
    25.23     11.98   1729.39   2337.98      0.01      8.87 
    25.24     11.98   1722.15   2328.20      0.02     -0.30 
    25.25     11.99   1722.15   2327.89      0.03     -1.82 
    25.26     11.98   1729.39   2337.98      0.03      7.96 
    25.27     11.98   1722.15   2328.20      0.03     -1.82 
    25.28     11.98   1729.39   2338.29      0.01      8.87 
    25.29     11.98   1722.15   2328.50      0.01     -0.91 
    25.30     11.98   1729.39   2338.59      0.00     -0.31 
    25.31     11.98   1722.15   2328.80      0.00     -0.30 
    25.32     11.98   1729.39   2338.29      0.01     10.40 
    25.33     11.97   1722.15   2329.11     -0.01     -1.84 
    25.34     11.98   1722.15   2328.80     -0.01      2.13 
    25.35     11.98   1729.39   2338.59     -0.01     10.70 
    25.36     11.98   1722.15   2328.50      0.00      0.00 
    25.37     11.99   1729.39   2337.68      0.03      7.96 
    25.38     11.98   1722.15   2328.20      0.02     -1.52 
    25.39     11.98   1729.39   2337.98      0.02      8.27 
    25.40     11.98   1722.15   2328.20      0.01     -0.91 
    25.41     11.98   1729.39   2338.29     -0.00      0.31 
    25.42     11.98   1722.15   2328.20      0.00      0.92 
    25.43     11.99   1729.39   2337.68      0.00      9.48 
    25.44     11.99   1722.15   2327.59      0.01     -0.91 
    25.45     12.00   1727.58   2334.62      0.03      5.51 
    25.46     11.99   1729.39   2337.68      0.02      8.57 
    25.47     11.99   1722.15   2327.89      0.02    -11.31 
    25.48     11.99   1729.39   2337.68      0.01      8.87 
    25.49     11.99   1729.39   2337.37      0.01      9.18 
    25.50     12.00   1729.39   2337.07      0.01     10.09 
    25.51     11.99   1729.39   2337.37      0.01      9.18 
    25.52     11.98   1729.39   2337.98      0.01      9.18 
    25.53     11.98   1727.58   2335.84      0.01     -3.06 
    25.54     11.98   1737.53   2349.30      0.01     20.19 
    25.55     11.98   1729.39   2337.98      0.01      9.18 
    25.56     11.98   1729.39   2337.98      0.00      9.48 
    25.57     11.98   1729.39   2337.98      0.00      9.79 
    25.58     11.98   1729.39   2337.98     -0.00      2.75 
    25.59     11.99   1737.53   2348.68      0.00     20.49 
    25.60     11.99   1727.58   2335.23      0.01      6.73 
    25.61     11.99   1729.39   2337.37      0.02      8.57 
    25.62     12.00   1737.53   2347.77      0.03      9.17 
    25.63     12.00   1729.39   2336.76      0.03      7.96 
    25.64     12.00   1729.39   2336.76      0.03      7.96 
    25.65     12.01   1737.53   2347.46      0.03     18.96 
    25.66     12.00   1733.92   2343.18      0.01      5.20 
    25.67     12.00   1729.39   2337.07      0.02      8.57 
    25.68     12.01   1729.39   2336.15      0.02      9.48 
    25.69     12.01   1737.53   2347.15      0.02      9.48 
    25.70     12.02   1729.39   2335.54      0.04      7.04 
    25.71     12.02   1729.39   2335.54      0.04      7.35 
    25.72     12.01   1737.53   2347.15      0.04     18.35 
    25.73     12.00   1733.92   2342.87      0.03      4.28 
    25.74     12.00   1729.39   2336.76      0.02      8.57 
    25.75     12.00   1737.53   2348.07      0.01     19.88 
    25.76     12.00   1729.39   2336.76      0.02      8.26 
    25.77     12.01   1729.39   2336.46      0.03     -1.83 
    25.78     12.00   1737.53   2347.77      0.02     19.27 
    25.79     12.00   1729.39   2336.76      0.02      8.26 
    25.80     12.01   1737.53   2347.15      0.03      9.17 
    25.81     12.03   1729.39   2335.24      0.04      7.35 
    25.82     12.03   1737.53   2345.93      0.05     17.43 
    25.83     12.05   1733.92   2340.13      0.06     11.93 
    25.84     12.03   1729.39   2335.24      0.04     -2.44 
    25.85     12.02   1737.53   2346.85      0.03     18.65 
    25.86     12.01   1729.39   2336.15      0.02      8.26 
    25.87     12.01   1737.53   2347.46      0.02      9.78 
    25.88     12.01   1729.39   2336.46      0.02      8.56 
    25.89     12.00   1737.53   2348.07      0.00     21.71 
    25.90     12.01   1729.39   2336.15      0.02     -1.22 
    25.91     12.01   1733.92   2342.57      0.03     14.07 
    25.92     12.01   1737.53   2347.15      0.03     18.96 
    25.93     12.03   1729.39   2334.93      0.05     -3.35 
    25.94     12.02   1737.53   2346.54      0.05     17.43 
    25.95     12.02   1729.39   2335.85      0.04      7.04 
    25.96     12.02   1729.39   2335.85      0.05     -3.05 
    25.97     12.01   1729.39   2336.15      0.04      7.35 
    25.98     12.02   1737.53   2346.85      0.03     18.65 
    25.99     12.03   1729.39   2335.24      0.04     -2.44 
    26.00     12.03   1737.53   2346.24      0.03     18.65 
    26.01     12.02   1729.39   2335.54      0.03      7.95 
    26.02     12.03   1737.53   2346.24      0.03     11.61 
    26.03     12.03   1733.92   2341.04      0.04     13.45 
    26.04     12.03   1737.53   2346.24      0.04     18.34 
    26.05     12.03   1729.39   2334.93      0.03     -7.02 
    26.06     12.04   1737.53   2345.62      0.04     19.26 
    26.07     12.03   1729.39   2335.24      0.03      7.65 
    26.08     12.03   1737.53   2346.24      0.03      8.86 
    26.09     12.02   1729.39   2335.54      0.04      7.04 
    26.10     12.02   1737.53   2346.85      0.04     18.35 
    26.11     12.03   1737.53   2345.93      0.05      7.95 
    26.12     12.03   1729.39   2334.93      0.04      7.04 
    26.13     12.04   1737.53   2345.62      0.04     18.34 
    26.14     12.03   1729.39   2334.93      0.04     -2.74 
    26.15     12.03   1737.53   2346.24      0.05     17.43 
    26.16     12.02   1737.53   2346.54      0.05     17.74 
    26.17     12.03   1729.39   2335.24      0.04     -2.74 
    26.18     12.03   1737.53   2346.24      0.03     18.95 
    26.19     12.02   1729.39   2335.54      0.02      8.56 
    26.20     12.02   1737.53   2346.85      0.02      9.78 
    26.21     12.02   1737.53   2346.85      0.02     19.26 
    26.22     12.00   1729.39   2336.76      0.02     -1.22 
    26.23     12.01   1737.53   2347.15      0.03     18.96 
    26.24     12.01   1729.39   2336.15      0.02      8.26 
    26.25     12.01   1737.53   2347.15      0.03      9.17 
    26.26     12.02   1737.53   2346.54      0.04     18.34 
    26.27     12.01   1729.39   2336.15      0.03     -2.13 
    26.28     12.02   1737.53   2346.54      0.04     18.04 
    26.29     12.02   1729.39   2335.54      0.05     -3.05 
    26.30     12.03   1737.53   2345.93      0.06     17.13 
    26.31     12.04   1737.53   2345.62      0.06      7.34 
    26.32     12.03   1729.39   2335.24      0.06      6.13 
    26.33     12.05   1737.53   2345.01      0.07     16.21 
    26.34     12.04   1729.39   2334.33      0.07     -4.27 
    26.35     12.05   1737.53   2345.01      0.07     16.51 
    26.36     12.05   1737.53   2344.71      0.06      7.03 
    26.37     12.04   1729.39   2334.63      0.05      6.43 
    26.38     12.03   1733.92   2341.04      0.05      3.06 
    26.39     12.03   1737.53   2346.24      0.04     18.04 
    26.40     12.02   1737.53   2346.54      0.04      8.25 
    26.41     12.02   1729.39   2335.85      0.03      7.65 
    26.42     12.01   1737.53   2347.15      0.02      9.48 
    26.43     12.02   1737.53   2346.85      0.02     19.26 
    26.44     12.02   1729.39   2335.54      0.02      0.92 
    26.45     12.03   1737.53   2346.24      0.04      8.56 
