#Written by Robertson Geologging WinLogger V1.5/410
~VERSION INFORMATION
#------------------------------------------------------------------------------
 VERS. 2.0 : CWLS LOG ASCII STANDARD - VERSION 2.0
 WRAP. NO  : ONE LINE PER DEPTH STEP
~WELL INFORMATION
#MNEM.UNIT         DATA                                DESCRIPTION OF MNEMONIC
#------------------------------------------------------------------------------
 STRT.M          2.0200                            :   START DEPTH
 STOP.M         91.0000                            :   STOP DEPTH
 STEP.M          0.0100                            :   STEP VALUE
 NULL.        -999.2500                            :   NULL VALUE
 COMP.    IWS                                      :   COMPANY NAME
 WELL.    LADYSMITH                                :   WELL NAME
 FLD.     DURHAM                                   :   FIELD NAME
 LOC.     N/A                                      :   LOCATION
 PROV.    N/A                                      :   PROVINCE
 SRVC.    N/A                                      :   SERVICE COMPANY NAME
 DATE.    16 Dec 09                                :   DATE
 UWI.     N/A                                      :   UNIQUE WELL IDENTIFIER
~PARAMETER INFORMATION
#MNEMO.UNIT         VALUE                 DESCRIPTION OF MNEMONIC
#------------------------------------------------------------------------------
~OTHER INFORMATION SECTION
#------------------------------------------------------------------------------
 TCDS 1365
~CURVE INFORMATION
#MNEMO.UNIT         API CODE              CURVE DESCRIPTION
#------------------------------------------------------------------------------
 DEPTH.M                                 :   0     Depth
 TEMP.DegC                               :   1     Temperature
 COND.uS/cm                              :   2     Conductivity@25DegC
 COND.uS/cm                              :   3     Absolute Conductivity
 DELT.DegC                               :   4     Delta T
 DELC.uS/cm                              :   5     Delta C
#------------------------------------------------------------------------------
~A  DEPTH          TEMP          COND          COND          DELT          DELC
# ...
    14.02         10.20       1253.60        882.62          0.05         -6.50
    14.03         10.20       1252.42        881.79          0.05         -7.62
    14.04         10.20       1253.63        882.62          0.05         -6.37
    14.05         10.20       1253.66        882.62          0.04         -6.28
    14.06         10.20       1252.53        881.79          0.04         -7.34
    14.07         10.20       1253.74        882.62          0.04         -6.10
    14.08         10.20       1253.71        882.62          0.04         -6.09
    14.09         10.20       1253.69        882.62          0.04         -6.04
    14.10         10.20       1253.63        882.62          0.04         -6.06
    14.11         10.20       1253.63        882.62          0.04         -6.04
    14.12         10.20       1253.63        882.62          0.04         -6.04
    14.13         10.20       1253.61        882.62          0.04         -6.07
    14.14         10.20       1253.58        882.62          0.04         -6.13
    14.15         10.21       1253.52        882.62          0.04         -5.04
    14.16         10.21       1249.33        879.69          0.04        -10.47
    14.17         10.21       1254.04        883.04          0.05         -5.81
    14.18         10.21       1249.86        880.11          0.05         -9.98
    14.19         10.21       1249.89        880.11          0.05        -14.72
    14.20         10.21       1249.87        880.11          0.05        -10.55
    14.21         10.21       1249.87        880.11          0.05        -10.53
    14.22         10.21       1249.83        880.11          0.05        -10.56
    14.23         10.21       1249.83        880.11          0.05         -9.36
    14.24         10.21       1249.83        880.11          0.05        -10.53
    14.25         10.21       1251.00        880.95          0.04         -9.33
    14.26         10.21       1249.84        880.11          0.04        -10.44
    14.27         10.21       1253.99        883.04          0.04         -6.21
    14.28         10.21       1250.41        880.53          0.04         -9.73
    14.29         10.21       1253.43        882.62          0.04         -5.48
    14.30         10.21       1253.46        882.62          0.03         -1.84
    14.31         10.21       1254.68        883.46          0.03         -4.79
    14.32         10.21       1253.52        882.62          0.03         -5.93
    14.33         10.21       1253.52        882.62          0.03         -5.93
    14.34         10.21       1253.44        882.62          0.03         -3.00
    14.35         10.21       1253.38        882.62          0.03         -6.60
    14.36         10.21       1249.19        879.69          0.03        -10.74
    14.37         10.21       1250.31        880.53          0.03        -10.74
    14.38         10.21       1249.11        879.69          0.03        -10.72
    14.39         10.21       1249.11        879.69          0.03        -10.66
    14.40         10.21       1249.05        879.69          0.03        -10.69
    14.41         10.21       1249.05        879.69          0.03        -10.66
    14.42         10.21       1249.05        879.69          0.03        -10.66
    14.43         10.21       1250.24        880.53          0.03         -5.90
    14.44         10.21       1249.08        879.69          0.03         -5.83
    14.45         10.21       1250.28        880.53          0.03         -8.79
    14.46         10.21       1249.11        879.69          0.03         -5.21
    14.47         10.21       1253.26        882.62          0.03         -1.14
    14.48         10.21       1253.27        882.62          0.03         -1.20
    14.49         10.21       1250.30        880.53          0.03         -4.19
    14.50         10.21       1253.85        883.04          0.04         -0.67
    14.51         10.21       1250.89        880.95          0.03         -4.78
    14.52         10.21       1249.64        880.11          0.04         -9.59
    14.53         10.22       1249.59        880.11          0.04         -5.47
    14.54         10.22       1249.59        880.11          0.04         -5.46
    14.55         10.22       1249.61        880.11          0.04        -10.23
    14.56         10.21       1249.67        880.11          0.03        -10.17
    14.57         10.21       1250.89        880.95          0.03         -5.96
    14.58         10.21       1249.75        880.11          0.03        -10.64
    14.59         10.21       1249.78        880.11          0.03        -10.55
    14.60         10.21       1254.02        883.04          0.02         -6.24
    14.61         10.21       1249.33        879.69          0.02        -10.88
    14.62         10.21       1249.33        879.69          0.02        -10.83
    14.63         10.21       1254.10        883.04          0.02         -2.42
    14.64         10.21       1249.95        880.11          0.02         -9.52
    14.65         10.21       1249.95        880.11          0.02         -9.53
    14.66         10.21       1249.95        880.11          0.02         -4.77
    14.67         10.21       1249.87        880.11          0.02         -4.86
    14.68         10.21       1249.77        880.11          0.02         -9.14
    14.69         10.21       1249.63        880.11          0.03         -5.66
    14.70         10.22       1249.50        880.11          0.03         -4.58
    14.71         10.22       1248.17        879.27          0.03         -7.11
    14.72         10.23       1249.24        880.11          0.04         -4.89
    14.73         10.23       1249.18        880.11          0.04         -5.01
    14.74         10.23       1245.56        877.60          0.04         -8.69
    14.75         10.23       1248.50        879.69          0.04         -6.91
    14.76         10.23       1247.28        878.85          0.04         -6.91
    14.77         10.23       1248.41        879.69          0.04         -6.92
    14.78         10.23       1248.41        879.69          0.04         -5.70
    14.79         10.23       1248.46        879.69          0.04         -5.64
    14.80         10.23       1248.50        879.69          0.04         -5.56
    14.81         10.23       1244.36        876.76          0.04         -9.69
    14.82         10.23       1244.34        876.76          0.04         -9.71
    14.83         10.23       1247.91        879.27          0.04         -6.14
    14.84         10.23       1247.89        879.27          0.04         -6.15
    14.85         10.23       1247.89        879.27          0.04         -6.14
    14.86         10.23       1249.05        880.11          0.04         -4.97
    14.87         10.23       1250.19        880.95          0.04         -3.78
    14.88         10.23       1249.01        880.11          0.04         -4.89
    14.89         10.23       1244.81        877.18          0.04         -8.99
    14.90         10.23       1243.64        876.34          0.03        -10.11
    14.91         10.23       1244.85        877.18          0.03         -8.92
    14.92         10.23       1248.99        880.11          0.03         -4.79
    14.93         10.23       1250.19        880.95          0.03         -3.56
    14.94         10.23       1245.44        877.60          0.03         -9.44
    14.95         10.23       1248.43        879.69          0.03         -5.20
    14.96         10.23       1248.44        879.69          0.03         -5.12
    14.97         10.23       1244.31        876.76          0.03         -8.05
    14.98         10.23       1244.33        876.76          0.02         -9.21
    14.99         10.23       1244.33        876.76          0.03         -9.22
    15.00         10.23       1248.50        879.69          0.03         -5.08
    15.01         10.23       1248.49        879.69          0.03         -5.11
