#Written by Robertson Geologging WinLogger V1.5/410
~VERSION INFORMATION
#------------------------------------------------------------------------------
 VERS. 2.0 : CWLS LOG ASCII STANDARD - VERSION 2.0
 WRAP. NO  : ONE LINE PER DEPTH STEP
~WELL INFORMATION
#MNEM.UNIT         DATA                                DESCRIPTION OF MNEMONIC
#------------------------------------------------------------------------------
 STRT.M          0.0600                            :   START DEPTH
 STOP.M         94.0500                            :   STOP DEPTH
 STEP.M          0.0100                            :   STEP VALUE
 NULL.        -999.2500                            :   NULL VALUE
 COMP.    Coal Authority                           :   COMPANY NAME
 WELL.    Ladysmith Shaft                          :   WELL NAME
 FLD.     N/A                                      :   FIELD NAME
 LOC.     N/A                                      :   LOCATION
 PROV.    N/A                                      :   PROVINCE
 SRVC.    N/A                                      :   SERVICE COMPANY NAME
 DATE.    15 Dec 08                                :   DATE
 UWI.     N/A                                      :   UNIQUE WELL IDENTIFIER
~PARAMETER INFORMATION
#MNEMO.UNIT         VALUE                 DESCRIPTION OF MNEMONIC
#------------------------------------------------------------------------------
~OTHER INFORMATION SECTION
#------------------------------------------------------------------------------
 TCDS 1365
 15,12,2008
~CURVE INFORMATION
#MNEMO.UNIT         API CODE              CURVE DESCRIPTION
#------------------------------------------------------------------------------
 DEPTH.M                                 :   0     Depth
 COND.uS/cm                              :   1     Conductivity@25DegC
 COND.uS/cm                              :   2     Absolute Conductivity
 TEMP.DegC                               :   3     Temperature
 DELT.DegC                               :   4     Delta T
 DELC.uS/cm                              :   5     Delta C
 NGAM.CPS                                :   6     Natural Gamma
#------------------------------------------------------------------------------
~A  DEPTH          COND          COND          TEMP          DELT          DELC          NGAM
# ...
     6.08       1319.19        891.28          8.78          4.18        942.59          1.88
     6.09       1317.67        890.47          8.79          4.19        941.07          1.53
     6.10       1317.46        890.47          8.79          4.20        940.86          1.53
     6.11       1317.24        890.47          8.80          4.21        902.24          1.53
     6.12       1320.72        892.89          8.80          4.21        860.63          1.12
     6.13       1320.72        892.89          8.80          4.21        810.17          1.12
     6.14       1320.67        892.89          8.80          4.21        704.98          1.12
     6.15       1320.58        892.89          8.81          4.21        601.14          1.12
     6.16       1320.41        892.89          8.81          4.21        500.52          1.12
     6.17       1316.04        890.06          8.82          4.22        392.37          1.12
     6.18       1315.89        890.06          8.82          4.22        286.43          1.12
     6.19       1319.98        892.89          8.82          4.22        191.39          1.12
     6.20       1320.03        892.89          8.82          4.22         85.76          1.12
     6.21       1320.07        892.89          8.82          4.21        -14.32          1.47
     6.22       1320.12        892.89          8.82          4.19        -75.52          1.47
     6.23       1320.12        892.89          8.82          4.17       -134.23          1.47
     6.24       1320.00        892.89          8.82          4.13       -182.91          1.06
     6.25       1319.91        892.89          8.82          4.08       -178.85          1.06
     6.26       1315.67        890.06          8.83          4.01       -179.41          1.47
     6.27       1315.62        890.06          8.83          3.92       -176.38          1.47
     6.28       1319.84        892.89          8.83          3.81       -166.83          1.82
     6.29       1319.89        892.89          8.82          3.69       -159.44          2.53
     6.30       1318.70        892.08          8.82          3.55       -150.64          2.53
     6.31       1318.67        892.08          8.83          3.40       -142.12          2.53
     6.32       1320.92        893.70          8.83          3.25       -133.62          2.53
     6.33       1316.64        890.87          8.83          3.08       -133.99          2.94
     6.34       1316.55        890.87          8.83          2.92       -121.64          2.94
     6.35       1315.31        890.06          8.83          2.75       -115.21          2.94
     6.36       1315.31        890.06          8.83          2.59       -109.11          2.94
     6.37       1319.42        892.89          8.84          2.44        -98.04          2.94
     6.38       1320.58        893.70          8.84          2.30        -90.33          2.59
     6.39       1319.35        892.89          8.84          2.16        -81.68          2.59
     6.40       1320.51        893.70          8.84          2.03        -74.78          2.59
     6.41       1320.51        893.70          8.84          1.91        -73.80          2.59
     6.42       1317.51        891.68          8.84          1.79        -71.68          2.24
     6.43       1315.12        890.06          8.84          1.68        -68.00          2.24
     6.44       1318.07        892.08          8.84          1.58        -60.63          2.24
     6.45       1319.24        892.89          8.84          1.48        -55.38          1.88
     6.46       1319.21        892.89          8.84          1.39        -51.64          1.18
     6.47       1320.40        893.70          8.84          1.31        -45.69          1.18
     6.48       1319.21        892.89          8.84          1.23        -44.85          1.18
     6.49       1317.97        892.08          8.84          1.16        -43.00          1.18
     6.50       1319.11        892.89          8.84          1.09        -38.95          0.76
     6.51       1317.79        892.08          8.85          1.03        -38.73          0.76
     6.52       1317.64        892.08          8.85          0.97        -36.31          0.76
     6.53       1321.69        894.91          8.85          0.91        -29.86          1.12
     6.54       1321.66        894.91          8.86          0.86        -27.68          1.53
     6.55       1321.68        894.91          8.85          0.81        -22.54          1.53
     6.56       1320.55        894.10          8.85          0.76        -24.77          1.53
     6.57       1321.81        894.91          8.85          0.71        -22.94          1.53
     6.58       1320.60        894.10          8.85          0.67        -22.59          1.53
     6.59       1320.67        894.10          8.85          0.64        -16.88          1.53
     6.60       1320.78        894.10          8.85          0.61        -14.35          1.47
     6.61       1319.68        893.29          8.84          0.57        -17.93          1.47
     6.62       1316.82        891.27          8.84          0.54        -19.72          2.29
     6.63       1316.87        891.27          8.84          0.52        -17.47          2.29
     6.64       1316.84        891.27          8.84          0.50        -17.82          1.94
     6.65       1316.74        891.27          8.84          0.48        -13.41          1.94
     6.66       1316.64        891.27          8.85          0.46        -15.77          1.94
     6.67       1317.71        892.08          8.85          0.45        -15.17          1.94
     6.68       1316.43        891.27          8.85          0.43        -14.45          1.94
     6.69       1317.62        892.08          8.85          0.41        -12.47          1.94
     6.70       1317.64        892.08          8.85          0.39        -15.82          1.59
     6.71       1318.82        892.89          8.85          0.37        -13.83          1.18
     6.72       1318.78        892.89          8.85          0.35        -10.13          1.18
     6.73       1321.71        894.91          8.85          0.33         -5.37          1.18
     6.74       1322.90        895.71          8.85          0.32         -4.78          1.18
     6.75       1321.15        894.50          8.85          0.30         -4.72          1.18
     6.76       1321.22        894.50          8.85          0.29         -7.71          1.18
     6.77       1321.24        894.50          8.85          0.27         -8.34          0.82
     6.78       1320.04        893.70          8.85          0.26         -7.82          0.82
     6.79       1321.27        894.50          8.85          0.25         -3.16          0.41
     6.80       1320.13        893.70          8.85          0.24         -5.09          0.76
     6.81       1320.14        893.70          8.85          0.23         -3.52          1.18
     6.82       1320.18        893.70          8.85          0.22         -3.18          1.18
     6.83       1317.81        892.08          8.85          0.21         -9.42          1.18
     6.84       1317.81        892.08          8.85          0.20         -9.09          1.53
     6.85       1317.85        892.08          8.85          0.19         -7.54          1.94
     6.86       1318.48        892.48          8.85          0.18         -3.02          1.94
     6.87       1319.69        893.29          8.84          0.18         -1.52          1.94
     6.88       1319.70        893.29          8.84          0.17         -0.04          1.94
     6.89       1319.67        893.29          8.85          0.16          0.13          1.94
     6.90       1319.62        893.29          8.85          0.16         -2.73          1.94
     6.91       1319.48        893.29          8.85          0.16         -2.68          2.29
     6.92       1319.34        893.29          8.85          0.16         -2.62          2.29
     6.93       1319.28        893.29          8.86          0.15          0.05          2.29
