#Written by Robertson Geologging WinLogger V1.5/410
~VERSION INFORMATION
#------------------------------------------------------------------------------
 VERS. 2.0 : CWLS LOG ASCII STANDARD - VERSION 2.0
 WRAP. NO  : ONE LINE PER DEPTH STEP
~WELL INFORMATION
#MNEM.UNIT         DATA                                DESCRIPTION OF MNEMONIC
#------------------------------------------------------------------------------
 STRT.M          0.0100                            :   START DEPTH
 STOP.M         89.0000                            :   STOP DEPTH
 STEP.M          0.0100                            :   STEP VALUE
 NULL.        -999.2500                            :   NULL VALUE
 COMP.    IWS                                      :   COMPANY NAME
 WELL.    Ladysmith                                :   WELL NAME
 FLD.     N/A                                      :   FIELD NAME
 LOC.     N/A                                      :   LOCATION
 PROV.    N/A                                      :   PROVINCE
 SRVC.    N/A                                      :   SERVICE COMPANY NAME
 DATE.    01 Feb 11                                :   DATE
 UWI.     N/A                                      :   UNIQUE WELL IDENTIFIER
~PARAMETER INFORMATION
#MNEMO.UNIT         VALUE                 DESCRIPTION OF MNEMONIC
#------------------------------------------------------------------------------
~OTHER INFORMATION SECTION
#------------------------------------------------------------------------------
 1365
~CURVE INFORMATION
#MNEMO.UNIT         API CODE              CURVE DESCRIPTION
#------------------------------------------------------------------------------
 DEPTH.M                                 :   0     Depth
 CN25.uS/cm                              :   1     Conductivity@25DegC
 TEMP.DegC                               :   2     Temperature
 DELT.DegC                               :   3     Delta T
 DELC.uS/cm                              :   4     Delta C
#------------------------------------------------------------------------------
~A  DEPTH          CN25          TEMP          DELT          DELC
     0.01         15.89          0.00          0.00          0.00
     0.02         15.89          0.00          0.00          0.00
     0.03         15.89          0.00          0.00          0.00
     0.04         15.89          0.00          0.00          0.00
     0.05         15.89          0.00          0.00          0.00
     0.06         15.89          0.00          0.00          0.00
     0.07         15.89          0.00          0.00          0.00
     0.08         15.89          0.00          0.00          0.00
     0.09         15.89          0.00          0.00          0.00
     0.10         15.89          0.00          0.00          0.00
     0.11         15.89          0.00          0.00          0.00
     0.12         15.89          0.00          0.00          0.00
     0.13         15.89          0.00          0.00          0.00
     0.14         15.89          0.00          0.00          0.00
     0.15         15.89          0.00          0.00          0.00
     0.16         15.89          0.00          0.00          0.00
     0.17         15.89          0.00          0.00          0.00
     0.18         15.89          0.00          0.00          0.00
     0.19         15.89          0.00          0.00          0.00
     0.20         15.89          0.00          0.00          0.00
     0.21         15.89          0.00          0.00          0.00
     0.22         15.89          0.00          0.00          0.00
     0.23         15.89          0.00          0.00          0.00
     0.24         15.89          0.00          0.00          0.00
     0.25         15.89          0.00          0.00          0.00
     0.26         15.89          0.00          0.00          0.00
     0.27         15.89          0.00          0.00          0.00
     0.28         15.89          0.00          0.00          0.00
     0.29         15.89          0.00          0.00          0.00
     0.30         15.89          0.00          0.00          0.00
     0.31         15.89          0.00          0.00          0.00
     0.32         15.89          0.00          0.00          0.00
     0.33         15.89          0.00          0.00          0.00
     0.34         15.89          0.00          0.00          0.00
     0.35         15.89          0.00          0.00          0.00
     0.36         15.89          0.00          0.00          0.00
     0.37         15.89          0.00          0.00          0.00
     0.38         15.89          0.00          0.00          0.00
     0.39         15.89          0.00          0.00          0.00
     0.40         15.89          0.00          0.00          0.00
     0.41         15.89          0.00          0.00          0.00
     0.42         15.89          0.00          0.00          0.00
     0.43         15.89          0.00          0.00          0.00
     0.44         15.89          0.00          0.00          0.00
     0.45         15.89          0.00          0.00          0.00
     0.46         15.89          0.00          0.00          0.00
     0.47         15.89          0.00          0.00          0.00
     0.48         15.89          0.00          0.00          0.00
     0.49         15.89          0.00          0.00          0.00
     0.50         15.89          0.00          0.00          0.00
     0.51         15.89          0.00          0.00          0.00
     0.52         15.89          0.00          0.00          0.00
     0.53         15.89          0.00          0.00          0.00
     0.54         15.89          0.00          0.00          0.00
     0.55         15.89          0.00          0.00          0.00
     0.56         15.89          0.00          0.00          0.00
     0.57         15.89          0.00          0.00          0.00
     0.58         15.89          0.00          0.00          0.00
     0.59         15.89          0.00          0.00          0.00
     0.60         15.89          0.00          0.00          0.00
     0.61         15.89          0.00          0.00          0.00
     0.62         15.89          0.00          0.00          0.00
     0.63         15.89          0.00          0.00          0.00
     0.64         15.89          0.00          0.00          0.00
     0.65         15.89          0.00          0.00          0.00
     0.66         15.89          0.00          0.00          0.00
     0.67         15.89          0.00          0.00          0.00
     0.68         15.89          0.00          0.00          0.00
     0.69         15.89          0.00          0.00          0.00
     0.70         15.89          0.00          0.00          0.00
     0.71         15.89          0.00          0.00          0.00
     0.72         15.89          0.00          0.00          0.00
     0.73         15.89          0.00          0.00          0.00
     0.74         15.89          0.00          0.00          0.00
     0.75         15.89          0.00          0.00          0.00
     0.76         15.89          0.00          0.00          0.00
     0.77         15.89          0.00          0.00          0.00
     0.78         15.89          0.00          0.00          0.00
     0.79         15.89          0.00          0.00          0.00
     0.80         15.89          0.00          0.00          0.00
     0.81         15.89          0.00          0.00          0.00
     0.82         15.89          0.00          0.00          0.00
     0.83         15.89          0.00          0.00          0.00
     0.84         15.89          0.00          0.00          0.00
     0.85         15.89          0.00          0.00          0.00
     0.86         15.89          0.00          0.00          0.00
     0.87         15.89          0.00          0.00          0.00
     0.88         15.89          0.00          0.00          0.00
     0.89         15.89          0.00          0.00          0.00
     0.90         15.89          0.00          0.00          0.00
     0.91         15.89          0.00          0.00          0.00
     0.92         15.89          0.00          0.00          0.00
     0.93         15.89          0.00          0.00          0.00
     0.94         15.89          0.00          0.00          0.00
     0.95         15.89          0.00          0.00          0.00
     0.96         15.89          0.00          0.00          0.00
     0.97         15.89          0.00          0.00          0.00
     0.98         15.89          0.00          0.00          0.00
     0.99         15.89          0.00          0.00          0.00
     1.00         15.89          0.00          0.00          0.00
     1.01         15.89          0.00          0.00          0.00
     1.02         15.89          0.00          0.00          0.00
     1.03         15.89          0.00          0.00          0.00
     1.04         15.89          0.00          0.00          0.00
     1.05         15.89          0.00          0.00          0.00
     1.06         15.89          0.00          0.00          0.00
     1.07         15.89          0.00          0.00          0.00
     1.08         15.89          0.00          0.00          0.00
     1.09         15.89          0.00          0.00          0.00
     1.10         15.89          0.00          0.00          0.00
     1.11         15.89          0.00          0.00          0.00
     1.12         15.89          0.00          0.00          0.00
     1.13         15.89          0.00          0.00          0.00
     1.14         15.89          0.00          0.00          0.00
     1.15         15.89          0.00          0.00          0.00
     1.16         15.89          0.00          0.00          0.00
     1.17         15.89          0.00          0.00          0.00
     1.18         15.89          0.00          0.00          0.00
     1.19         15.89          0.00          0.00          0.00
     1.20         15.89          0.00          0.00          0.00
     1.21         15.89          0.00          0.00          0.00
     1.22         15.89          0.00          0.00          0.00
