#Written by Robertson Geologging WinLogger V1.5/410
~VERSION INFORMATION
#------------------------------------------------------------------------------
 VERS. 2.0 : CWLS LOG ASCII STANDARD - VERSION 2.0
 WRAP. NO  : ONE LINE PER DEPTH STEP
~WELL INFORMATION
#MNEM.UNIT         DATA                                DESCRIPTION OF MNEMONIC
#------------------------------------------------------------------------------
 STRT.M          2.0200                            :   START DEPTH
 STOP.M         91.0000                            :   STOP DEPTH
 STEP.M          0.0100                            :   STEP VALUE
 NULL.        -999.2500                            :   NULL VALUE
 COMP.    IWS                                      :   COMPANY NAME
 WELL.    LADYSMITH                                :   WELL NAME
 FLD.     DURHAM                                   :   FIELD NAME
 LOC.     N/A                                      :   LOCATION
 PROV.    N/A                                      :   PROVINCE
 SRVC.    N/A                                      :   SERVICE COMPANY NAME
 DATE.    16 Dec 09                                :   DATE
 UWI.     N/A                                      :   UNIQUE WELL IDENTIFIER
~PARAMETER INFORMATION
#MNEMO.UNIT         VALUE                 DESCRIPTION OF MNEMONIC
#------------------------------------------------------------------------------
~OTHER INFORMATION SECTION
#------------------------------------------------------------------------------
 TCDS 1365
~CURVE INFORMATION
#MNEMO.UNIT         API CODE              CURVE DESCRIPTION
#------------------------------------------------------------------------------
 DEPTH.M                                 :   0     Depth
 TEMP.DegC                               :   1     Temperature
 COND.uS/cm                              :   2     Conductivity@25DegC
 COND.uS/cm                              :   3     Absolute Conductivity
 DELT.DegC                               :   4     Delta T
 DELC.uS/cm                              :   5     Delta C
#------------------------------------------------------------------------------
~A  DEPTH          TEMP          COND          COND          DELT          DELC
# ...
    61.02         11.61       1946.38       1425.24          0.01         16.69
    61.03         11.61       1946.33       1425.24          0.01         16.74
    61.04         11.62       1950.24       1428.17          0.01         20.67
    61.05         11.62       1946.19       1425.24          0.01         16.64
    61.06         11.62       1946.12       1425.24          0.01         11.99
    61.07         11.62       1946.05       1425.24          0.01         11.92
    61.08         11.62       1949.99       1428.17          0.01         15.91
    61.09         11.62       1945.93       1425.24          0.01         11.85
    61.10         11.62       1945.91       1425.24          0.01         11.83
    61.11         11.62       1950.47       1428.59          0.02         16.34
    61.12         11.62       1945.91       1425.24          0.02         11.74
    61.13         11.62       1945.93       1425.24          0.02         11.74
    61.14         11.62       1949.99       1428.17          0.02         15.74
    61.15         11.62       1945.98       1425.24          0.02         11.76
    61.16         11.62       1946.00       1425.24          0.01         11.81
    61.17         11.62       1950.65       1428.59          0.01         16.48
    61.18         11.62       1950.65       1428.59          0.01         16.48
    61.19         11.62       1946.72       1425.66          0.01         12.57
    61.20         11.62       1950.75       1428.59          0.01         16.57
    61.21         11.62       1950.72       1428.59          0.01         16.55
    61.22         11.62       1950.15       1428.17          0.01         16.00
    61.23         11.62       1950.10       1428.17          0.01         15.91
    61.24         11.62       1950.06       1428.17          0.01         15.81
    61.25         11.62       1950.01       1428.17          0.02         15.70
    61.26         11.62       1950.03       1428.17          0.02         15.68
    61.27         11.62       1950.01       1428.17          0.02         15.63
    61.28         11.62       1949.99       1428.17          0.02         15.65
    61.29         11.62       1950.01       1428.17          0.02         15.77
    61.30         11.62       1954.57       1431.52          0.02         20.35
    61.31         11.62       1950.54       1428.59          0.01         16.43
    61.32         11.62       1950.51       1428.59          0.01         16.46
    61.33         11.62       1950.49       1428.59          0.01         16.46
    61.34         11.62       1950.49       1428.59          0.01         16.55
    61.35         11.62       1950.51       1428.59          0.01         16.62
    61.36         11.62       1950.51       1428.59          0.01         16.73
    61.37         11.62       1950.54       1428.59          0.01         12.22
    61.38         11.62       1954.57       1431.52          0.01         16.28
    61.39         11.62       1950.01       1428.17          0.01         11.70
    61.40         11.62       1954.09       1431.11          0.01         15.70
    61.41         11.62       1949.55       1427.75          0.01         11.15
    61.42         11.62       1949.60       1427.75          0.01         11.17
    61.43         11.61       1954.27       1431.11          0.00         15.87
    61.44         11.61       1950.31       1428.17          0.00         11.95
    61.45         11.61       1954.92       1431.52         -0.00         16.65
    61.46         11.61       1954.99       1431.52         -0.00         16.81
    61.47         11.61       1955.58       1431.94         -0.00         17.43
    61.48         11.61       1955.54       1431.94         -0.01         18.02
    61.49         11.61       1956.08       1432.36         -0.01         18.60
    61.50         11.61       1955.99       1432.36         -0.00         18.50
    61.51         11.62       1956.47       1432.78         -0.00         18.98
    61.52         11.62       1956.45       1432.78         -0.00         18.94
    61.53         11.62       1960.48       1435.72         -0.00         22.92
    61.54         11.62       1955.92       1432.36         -0.00         18.36
    61.55         11.62       1959.97       1435.30         -0.00         18.36
    61.56         11.61       1955.42       1431.94          0.00         13.69
    61.57         11.62       1959.36       1434.88          0.00         17.49
    61.58         11.62       1954.78       1431.52          0.01         12.77
    61.59         11.62       1958.81       1434.46          0.01         20.72
    61.60         11.62       1954.25       1431.11          0.01         21.27
    61.61         11.61       1958.35       1434.04          0.01         21.41
    61.62         11.61       1953.79       1430.69          0.00         16.92
    61.63         11.61       1957.76       1433.62          0.00         20.93
    61.64         11.62       1958.21       1434.04          0.01         21.45
    61.65         11.62       1958.09       1434.04          0.01         21.33
    61.66         11.62       1958.02       1434.04          0.01         21.31
    61.67         11.62       1958.00       1434.04          0.01         21.38
    61.68         11.62       1958.02       1434.04          0.00         21.52
    61.69         11.62       1958.02       1434.04          0.00         21.66
    61.70         11.62       1958.00       1434.04          0.00         17.70
    61.71         11.62       1962.51       1437.39          0.00         17.12
    61.72         11.62       1958.46       1434.46          0.00         17.08
    61.73         11.62       1962.99       1437.81          0.00         21.56
    61.74         11.62       1962.99       1437.81          0.00         17.49
    61.75         11.62       1958.50       1434.46          0.01         12.89
    61.76         11.62       1962.53       1437.39          0.01         16.82
    61.77         11.62       1958.57       1434.46          0.01         16.78
    61.78         11.62       1962.65       1437.39          0.01         16.78
    61.79         11.62       1963.29       1437.81          0.01         17.33
    61.80         11.62       1963.39       1437.81          0.01         17.33
    61.81         11.61       1964.03       1438.23          0.01         21.93
    61.82         11.61       1963.55       1437.81          0.01         17.40
    61.83         11.61       1963.60       1437.81          0.01         17.45
    61.84         11.61       1963.09       1437.39          0.00         17.01
    61.85         11.61       1963.69       1437.81          0.00         21.69
    61.86         11.61       1963.67       1437.81          0.00         17.15
    61.87         11.61       1964.26       1438.23         -0.00         17.82
    61.88         11.61       1968.22       1441.17         -0.00         21.83
    61.89         11.61       1964.17       1438.23         -0.00         21.78
    61.90         11.61       1963.55       1437.81          0.00         16.60
    61.91         11.61       1968.04       1441.17          0.00         21.13
    61.92         11.62       1963.41       1437.81          0.00         16.48
    61.93         11.62       1963.96       1438.23          0.00         17.03
    61.94         11.62       1967.92       1441.17          0.00         20.95
    61.95         11.62       1963.91       1438.23          0.01         16.85
    61.96         11.62       1963.36       1437.81          0.01         16.28
    61.97         11.62       1967.94       1441.17          0.01         21.43
    61.98         11.62       1967.39       1440.75          0.01         20.88
    61.99         11.61       1963.43       1437.81          0.00         16.94
    62.00         11.61       1967.44       1440.75          0.00         16.41
    62.01         11.61       1968.01       1441.17          0.00         21.64
