#Written by Robertson Geologging WinLogger V1.0/406
~VERSION INFORMATION
#------------------------------------------------------------------------------
 VERS. 2.0 : CWLS LOG ASCII STANDARD - VERSION 2.0
 WRAP. NO  : ONE LINE PER DEPTH STEP
~WELL INFORMATION
#MNEM.UNIT         DATA                                DESCRIPTION OF MNEMONIC
#------------------------------------------------------------------------------
 STRT.M          0.0600                            :   START DEPTH
 STOP.M         95.0200                            :   STOP DEPTH
 STEP.M          0.0100                            :   STEP VALUE
 NULL.        -999.2500                            :   NULL VALUE
 COMP.    Coal Authority                           :   COMPANY NAME
 WELL.    Ladysmith Shaft                          :   WELL NAME
 FLD.     Ladysmith                                :   FIELD NAME
 LOC.     N/A                                      :   LOCATION
 PROV.    N/A                                      :   PROVINCE
 SRVC.    N/A                                      :   SERVICE COMPANY NAME
 DATE.    20 May 08                                :   DATE
 UWI.     N/A                                      :   UNIQUE WELL IDENTIFIER
~PARAMETER INFORMATION
#MNEMO.UNIT         VALUE                 DESCRIPTION OF MNEMONIC
#------------------------------------------------------------------------------
~OTHER INFORMATION SECTION
#------------------------------------------------------------------------------
 TCDS 1365
~CURVE INFORMATION
#MNEMO.UNIT         API CODE              CURVE DESCRIPTION
#------------------------------------------------------------------------------
 DEPTH.M                                 :   0     Depth
 TEMP.DegC                               :   1     Temperature
 COND.uS/cm                              :   2     Absolute Conductivity
 COND.uS/cm                              :   3     Conductivity@25DegC
 DELT.DegC                               :   4     Delta T
 DELC.uS/cm                              :   5     Delta C
#------------------------------------------------------------------------------
~A  DEPTH     TEMP      COND      COND      DELT      DELC      
# ...
    11.94     11.83   1706.77   2317.08     -0.01      2.14 
    11.95     11.84   1706.77   2316.47     -0.01      0.91 
    11.96     11.84   1705.87   2315.25     -0.02     -0.01 
    11.97     11.84   1706.77   2316.17     -0.02      1.21 
    11.98     11.84   1706.77   2316.47     -0.02      1.52 
    11.99     11.84   1706.77   2316.47     -0.01      0.91 
    12.00     11.83   1699.54   2307.26     -0.01     -8.91 
    12.01     11.83   1706.77   2317.08      0.00      0.00 
    12.02     11.84   1705.87   2315.55      0.01     -0.91 
    12.03     11.83   1707.68   2318.31     -0.00      1.53 
    12.04     11.84   1706.77   2316.47      0.00     -0.30 
    12.05     11.84   1705.87   2314.94      0.00     -1.23 
    12.06     11.84   1706.77   2316.78     -0.01      0.61 
    12.07     11.84   1706.77   2316.47      0.00      0.00 
    12.08     11.84   1706.77   2316.17      0.00     -0.30 
    12.09     11.84   1706.77   2316.47      0.01     -0.61 
    12.10     11.84   1706.77   2316.47      0.01     -0.91 
    12.11     11.84   1706.77   2316.47      0.01     -0.61 
    12.12     11.84   1705.87   2315.25      0.00     -1.53 
    12.13     11.84   1706.77   2316.47     -0.00      1.53 
    12.14     11.84   1707.68   2317.40     -0.00      1.53 
    12.15     11.84   1705.87   2315.25     -0.00     -2.15 
    12.16     11.84   1706.77   2316.47     -0.01      2.14 
    12.17     11.83   1706.77   2317.08     -0.02      1.52 
    12.18     11.84   1705.87   2315.55     -0.02     -0.01 
    12.19     11.84   1706.77   2316.78     -0.02      1.21 
    12.20     11.84   1699.54   2306.35      0.00     -9.82 
    12.21     11.85   1706.77   2315.56      0.01     -0.61 
    12.22     11.85   1705.87   2314.34      0.01     -1.83 
    12.23     11.85   1706.77   2315.56      0.00     -0.30 
    12.24     11.85   1706.77   2315.56     -0.00      0.30 
    12.25     11.85   1706.77   2315.87      0.00      0.00 
    12.26     11.84   1706.77   2316.17     -0.00      0.30 
    12.27     11.84   1706.77   2316.17      0.00      0.92 
    12.28     11.83   1705.87   2315.85     -0.00     -0.92 
    12.29     11.83   1706.77   2317.08     -0.01      0.61 
    12.30     11.83   1706.77   2317.38     -0.01      0.91 
    12.31     11.82   1706.77   2317.69     -0.02      1.52 
    12.32     11.83   1705.87   2315.85     -0.01     -0.32 
    12.33     11.84   1701.35   2309.41     -0.01     -6.76 
    12.34     11.84   1714.92   2327.22      0.00     10.75 
    12.35     11.84   1699.54   2306.35      0.01    -10.73 
    12.36     11.84   1706.77   2316.17      0.02     -1.21 
    12.37     11.84   1706.77   2316.47      0.01     -0.61 
    12.38     11.84   1706.77   2316.78     -0.00      0.30 
    12.39     11.83   1706.77   2317.08     -0.02      1.21 
    12.40     11.83   1706.77   2317.38     -0.02      1.52 
    12.41     11.83   1706.77   2317.38     -0.04     12.24 
    12.42     11.83   1706.77   2317.38     -0.03      2.12 
    12.43     11.83   1699.54   2307.26     -0.01     -8.91 
    12.44     11.84   1706.77   2316.78     -0.02      1.21 
    12.45     11.84   1706.77   2316.17      0.00      9.82 
    12.46     11.84   1706.77   2316.47      0.00     -0.30 
    12.47     11.84   1706.77   2316.17      0.00      0.00 
    12.48     11.84   1706.77   2316.47      0.00      1.23 
    12.49     11.84   1706.77   2316.78      0.00      0.00 
    12.50     11.84   1706.77   2316.47      0.00      0.00 
    12.51     11.84   1706.77   2316.47     -0.00      0.30 
    12.52     11.84   1699.54   2306.65     -0.01     -9.22 
    12.53     11.84   1706.77   2316.17      0.00      0.00 
    12.54     11.84   1706.77   2316.17     -0.01      0.61 
    12.55     11.84   1706.77   2316.47     -0.01      0.61 
    12.56     11.84   1705.87   2314.94      0.01     -1.83 
    12.57     11.84   1707.68   2317.70      0.00      0.92 
    12.58     11.84   1706.77   2316.78      0.00     -0.30 
    12.59     11.83   1706.77   2317.08     -0.01      0.61 
    12.60     11.84   1705.87   2315.55     -0.01      0.91 
    12.61     11.83   1707.68   2318.31     -0.02      2.44 
    12.62     11.84   1706.77   2316.78     -0.02      1.21 
    12.63     11.84   1705.87   2315.25     -0.01     -0.32 
    12.64     11.84   1701.35   2309.41     -0.01     -6.46 
    12.65     11.84   1706.77   2316.17     -0.00      0.30 
    12.66     11.85   1705.87   2314.64     -0.00     -0.92 
    12.67     11.86   1706.77   2315.26      0.01     -0.61 
    12.68     11.86   1706.77   2315.26      0.00     -0.30 
    12.69     11.85   1706.77   2315.56      0.00      0.00 
    12.70     11.84   1706.77   2316.78     -0.01      1.83 
    12.71     11.84   1706.77   2316.78     -0.01      0.91 
    12.72     11.84   1706.77   2316.17      0.00     -0.30 
    12.73     11.84   1706.77   2316.47      0.00      0.00 
    12.74     11.85   1699.54   2306.05      0.01     -0.91 
    12.75     11.84   1706.77   2316.17      0.00      0.00 
    12.76     11.83   1706.77   2317.38     -0.02      1.52 
    12.77     11.83   1706.77   2317.38     -0.02      2.75 
    12.78     11.83   1706.77   2317.08     -0.01      0.91 
    12.79     11.84   1706.77   2316.78      0.00     -0.30 
    12.80     11.84   1706.77   2316.17      0.01     -0.61 
    12.81     11.84   1706.77   2316.47      0.01     -0.61 
    12.82     11.84   1706.77   2316.78      0.00      0.00 
    12.83     11.83   1699.54   2307.56     -0.01     -8.92 
    12.84     11.83   1706.77   2317.38     -0.01      2.14 
    12.85     11.83   1706.77   2317.38     -0.02      1.52 
    12.86     11.83   1705.87   2315.85     -0.02     -0.01 
    12.87     11.84   1706.77   2316.78     -0.01      0.91 
    12.88     11.84   1707.68   2317.40      0.00      1.23 
    12.89     11.84   1705.87   2314.94      0.00     -1.53 
    12.90     11.84   1706.77   2316.17      0.01     -0.61 
    12.91     11.85   1706.77   2315.87      0.02     -1.21 
    12.92     11.84   1706.77   2316.17      0.01     -0.91 
    12.93     11.84   1699.54   2306.35      0.01    -10.73 
    12.94     11.84   1706.77   2316.47      0.00      0.00 
    12.95     11.84   1706.77   2316.78     -0.00      1.53 
    12.96     11.84   1705.87   2315.55     -0.01     -0.62 
    12.97     11.84   1707.68   2317.40      0.00      0.92 
    12.98     11.84   1705.87   2315.25      0.00     -1.23 
    12.99     11.84   1706.77   2316.17      0.01      8.91 
    13.00     11.84   1706.77   2316.78      0.00     -0.30 
    13.01     11.83   1706.77   2317.08     -0.00      1.53 
    13.02     11.83   1706.77   2317.08      0.00     -1.23 
    13.03     11.84   1699.54   2306.95     -0.00     -9.52 
    13.04     11.83   1706.77   2317.08     -0.01      2.14 
    13.05     11.84   1706.77   2316.78      0.00      0.00 
    13.06     11.84   1705.87   2315.25      0.00     -1.23 
    13.07     11.84   1706.77   2316.78     -0.01      0.61 
    13.08     11.84   1706.77   2316.78     -0.00      0.30 
    13.09     11.83   1706.77   2317.38     -0.01      0.91 
    13.10     11.83   1706.77   2317.38     -0.01      0.91 
    13.11     11.83   1699.54   2307.56     -0.01     -7.69 
    13.12     11.83   1705.87   2315.85     -0.01     -0.62 
    13.13     11.84   1706.77   2316.78     -0.01     -0.62 
    13.14     11.84   1706.77   2316.47      0.00      1.23 
    13.15     11.84   1706.77   2316.47      0.00      0.00 
    13.16     11.84   1706.77   2316.78      0.00     -0.30 
    13.17     11.83   1706.77   2317.08     -0.00      1.53 
    13.18     11.84   1699.54   2306.95      0.00     -9.82 
    13.19     11.84   1705.87   2315.25     -0.00      8.90 
    13.20     11.84   1706.77   2316.78     -0.02      1.21 
    13.21     11.85   1706.77   2315.87     -0.00      1.53 
    13.22     11.85   1706.77   2315.56      0.00      0.00 
    13.23     11.85   1706.77   2315.56      0.00      0.00 
    13.24     11.85   1706.77   2315.56      0.00     -0.30 
    13.25     11.84   1699.54   2306.35      0.00     -9.82 
