#Written by Robertson Geologging WinLogger V1.5/410
~VERSION INFORMATION
#------------------------------------------------------------------------------
 VERS. 2.0 : CWLS LOG ASCII STANDARD - VERSION 2.0
 WRAP. NO  : ONE LINE PER DEPTH STEP
~WELL INFORMATION
#MNEM.UNIT         DATA                                DESCRIPTION OF MNEMONIC
#------------------------------------------------------------------------------
 STRT.M          2.0200                            :   START DEPTH
 STOP.M         91.0000                            :   STOP DEPTH
 STEP.M          0.0100                            :   STEP VALUE
 NULL.        -999.2500                            :   NULL VALUE
 COMP.    IWS                                      :   COMPANY NAME
 WELL.    LADYSMITH                                :   WELL NAME
 FLD.     DURHAM                                   :   FIELD NAME
 LOC.     N/A                                      :   LOCATION
 PROV.    N/A                                      :   PROVINCE
 SRVC.    N/A                                      :   SERVICE COMPANY NAME
 DATE.    16 Dec 09                                :   DATE
 UWI.     N/A                                      :   UNIQUE WELL IDENTIFIER
~PARAMETER INFORMATION
#MNEMO.UNIT         VALUE                 DESCRIPTION OF MNEMONIC
#------------------------------------------------------------------------------
~OTHER INFORMATION SECTION
#------------------------------------------------------------------------------
 TCDS 1365
~CURVE INFORMATION
#MNEMO.UNIT         API CODE              CURVE DESCRIPTION
#------------------------------------------------------------------------------
 DEPTH.M                                 :   0     Depth
 TEMP.DegC                               :   1     Temperature
 COND.uS/cm                              :   2     Conductivity@25DegC
 COND.uS/cm                              :   3     Absolute Conductivity
 DELT.DegC                               :   4     Delta T
 DELC.uS/cm                              :   5     Delta C
#------------------------------------------------------------------------------
~A  DEPTH          TEMP          COND          COND          DELT          DELC
# ...
    43.02         11.55       1825.74       1334.70         -0.01          7.78
    43.03         11.55       1826.95       1335.53         -0.01          6.17
    43.04         11.55       1822.93       1332.60         -0.01          6.17
    43.05         11.55       1825.84       1334.70         -0.01          7.95
    43.06         11.55       1827.10       1335.53         -0.01          9.27
    43.07         11.55       1823.13       1332.60         -0.01          6.45
    43.08         11.55       1827.19       1335.53         -0.02          4.86
    43.09         11.55       1827.19       1335.53         -0.02          9.01
    43.10         11.55       1823.17       1332.60         -0.02          2.15
    43.11         11.55       1827.17       1335.53         -0.02          5.04
    43.12         11.55       1826.02       1334.70         -0.02          7.90
    43.13         11.55       1823.20       1332.60         -0.02          2.15
    43.14         11.55       1823.11       1332.60         -0.02          4.91
    43.15         11.55       1825.91       1334.70         -0.02          3.76
    43.16         11.55       1826.95       1335.53         -0.02          6.01
    43.17         11.55       1822.76       1332.60         -0.01          1.82
    43.18         11.56       1825.56       1334.70         -0.01          3.50
    43.19         11.56       1825.56       1334.70         -0.01          7.49
    43.20         11.56       1822.67       1332.60         -0.01          1.67
    43.21         11.56       1825.52       1334.70         -0.01          7.38
    43.22         11.56       1825.50       1334.70         -0.01          7.31
    43.23         11.56       1826.60       1335.53         -0.01          5.53
    43.24         11.56       1829.42       1337.63         -0.01         11.22
    43.25         11.56       1825.47       1334.70         -0.01          3.21
    43.26         11.56       1826.71       1335.53         -0.01          8.37
    43.27         11.56       1822.72       1332.60         -0.00          4.25
    43.28         11.55       1825.63       1334.70         -0.00          3.06
    43.29         11.56       1826.73       1335.53         -0.00          8.13
    43.30         11.56       1825.52       1334.70         -0.00          2.89
    43.31         11.56       1825.50       1334.70          0.00          7.41
    43.32         11.56       1826.62       1335.53          0.00          4.43
    43.33         11.56       1826.58       1335.53          0.00          8.36
    43.34         11.56       1825.41       1334.70          0.01          7.10
    43.35         11.56       1822.48       1332.60          0.01          0.12
    43.36         11.56       1825.21       1334.70          0.01          6.86
    43.37         11.56       1825.12       1334.70          0.01          3.91
    43.38         11.56       1825.10       1334.70          0.01          2.79
    43.39         11.56       1826.25       1335.53          0.01          8.03
    43.40         11.56       1825.15       1334.70          0.01          4.17
    43.41         11.56       1826.31       1335.53          0.01          5.36
    43.42         11.56       1826.29       1335.53          0.01          3.66
    43.43         11.56       1825.15       1334.70          0.01          3.69
    43.44         11.56       1825.19       1334.70          0.01          3.69
    43.45         11.56       1822.32       1332.60          0.01         -0.26
    43.46         11.56       1825.19       1334.70          0.00          3.84
    43.47         11.56       1826.40       1335.53          0.00          5.12
    43.48         11.56       1826.40       1335.53         -0.00          4.03
    43.49         11.56       1826.42       1335.53         -0.00          8.11
    43.50         11.56       1825.34       1334.70         -0.00          4.10
    43.51         11.56       1826.51       1335.53         -0.00          4.06
    43.52         11.56       1825.39       1334.70         -0.00          4.08
    43.53         11.56       1825.47       1334.70         -0.00          4.21
    43.54         11.56       1826.66       1335.53         -0.01          4.36
    43.55         11.56       1826.73       1335.53         -0.01          4.49
    43.56         11.55       1829.71       1337.63         -0.01          8.61
    43.57         11.55       1826.97       1335.53         -0.01          4.65
    43.58         11.55       1827.06       1335.53         -0.01          1.76
    43.59         11.55       1826.00       1334.70         -0.01          4.65
    43.60         11.55       1830.08       1337.63         -0.01          4.69
    43.61         11.55       1827.14       1335.53         -0.01          1.80
    43.62         11.55       1825.95       1334.70         -0.01          4.62
    43.63         11.55       1827.08       1335.53         -0.01          4.60
    43.64         11.55       1826.95       1335.53         -0.01          1.52
    43.65         11.55       1825.74       1334.70         -0.00          4.21
    43.66         11.55       1825.67       1334.70         -0.00          0.11
    43.67         11.56       1826.69       1335.53          0.00         -0.04
    43.68         11.56       1829.49       1337.63          0.00          3.93
    43.69         11.56       1825.41       1334.70          0.00          2.74
    43.70         11.56       1826.47       1335.53          0.00         -0.24
    43.71         11.56       1825.26       1334.70          0.01         -0.35
    43.72         11.56       1829.27       1337.63          0.01          6.51
    43.73         11.56       1826.45       1335.53          0.01         -0.31
    43.74         11.56       1826.47       1335.53          0.01          0.84
    43.75         11.56       1829.44       1337.63          0.00          6.68
    43.76         11.56       1826.64       1335.53          0.00         -0.15
    43.77         11.56       1826.64       1335.53          0.00          0.97
    43.78         11.56       1826.69       1335.53          0.00          5.03
    43.79         11.56       1826.64       1335.53          0.00          3.82
    43.80         11.56       1826.64       1335.53          0.00          3.82
    43.81         11.56       1826.69       1335.53          0.00          5.01
    43.82         11.56       1826.66       1335.53          0.00          3.86
    43.83         11.56       1826.64       1335.53          0.00          3.88
    43.84         11.56       1826.60       1335.53          0.00          4.99
    43.85         11.56       1826.51       1335.53          0.00          3.77
    43.86         11.56       1821.86       1332.18          0.01         -4.85
    43.87         11.56       1825.83       1335.11          0.01          4.90
    43.88         11.56       1821.82       1332.18          0.00         -0.22
    43.89         11.56       1821.84       1332.18          0.00         -4.14
    43.90         11.56       1821.95       1332.18         -0.00          0.04
    43.91         11.56       1826.03       1335.11         -0.00          1.32
    43.92         11.56       1822.03       1332.18         -0.00         -3.79
    43.93         11.56       1822.08       1332.18         -0.00          0.24
    43.94         11.56       1822.10       1332.18         -0.00         -2.67
    43.95         11.56       1826.11       1335.11         -0.00          0.11
    43.96         11.55       1825.03       1334.28         -0.00          3.00
    43.97         11.55       1826.77       1335.53         -0.00          5.82
    43.98         11.55       1826.75       1335.53         -0.00          0.02
    43.99         11.55       1829.62       1337.63          0.00          6.86
    44.00         11.56       1829.60       1337.63          0.00          6.75
    44.01         11.56       1826.66       1335.53          0.00          0.93
