#Written by Robertson Geologging WinLogger V1.0/406
~VERSION INFORMATION
#------------------------------------------------------------------------------
 VERS. 2.0 : CWLS LOG ASCII STANDARD - VERSION 2.0
 WRAP. NO  : ONE LINE PER DEPTH STEP
~WELL INFORMATION
#MNEM.UNIT         DATA                                DESCRIPTION OF MNEMONIC
#------------------------------------------------------------------------------
 STRT.M          0.0600                            :   START DEPTH
 STOP.M         95.0200                            :   STOP DEPTH
 STEP.M          0.0100                            :   STEP VALUE
 NULL.        -999.2500                            :   NULL VALUE
 COMP.    Coal Authority                           :   COMPANY NAME
 WELL.    Ladysmith Shaft                          :   WELL NAME
 FLD.     Ladysmith                                :   FIELD NAME
 LOC.     N/A                                      :   LOCATION
 PROV.    N/A                                      :   PROVINCE
 SRVC.    N/A                                      :   SERVICE COMPANY NAME
 DATE.    20 May 08                                :   DATE
 UWI.     N/A                                      :   UNIQUE WELL IDENTIFIER
~PARAMETER INFORMATION
#MNEMO.UNIT         VALUE                 DESCRIPTION OF MNEMONIC
#------------------------------------------------------------------------------
~OTHER INFORMATION SECTION
#------------------------------------------------------------------------------
 TCDS 1365
~CURVE INFORMATION
#MNEMO.UNIT         API CODE              CURVE DESCRIPTION
#------------------------------------------------------------------------------
 DEPTH.M                                 :   0     Depth
 TEMP.DegC                               :   1     Temperature
 COND.uS/cm                              :   2     Absolute Conductivity
 COND.uS/cm                              :   3     Conductivity@25DegC
 DELT.DegC                               :   4     Delta T
 DELC.uS/cm                              :   5     Delta C
#------------------------------------------------------------------------------
~A  DEPTH     TEMP      COND      COND      DELT      DELC      
# ...
    43.62     12.04   1737.53   2345.62     -0.00     -9.47 
    43.63     12.05   1740.25   2348.68      0.00      3.36 
    43.64     12.04   1737.53   2345.32     -0.00      0.31 
    43.65     12.05   1744.77   2354.78     -0.01      0.61 
    43.66     12.04   1737.53   2345.32     -0.01     -3.05 
    43.67     12.03   1737.53   2345.93     -0.01      0.61 
    43.68     12.04   1744.77   2355.40      0.00      9.77 
    43.69     12.03   1737.53   2345.93      0.00     -9.77 
    43.70     12.04   1737.53   2345.62      0.00     -0.31 
    43.71     12.05   1740.25   2348.68      0.02      2.44 
    43.72     12.04   1737.53   2345.32      0.00    -10.08 
    43.73     12.05   1744.77   2354.78      0.01      8.85 
    43.74     12.03   1737.53   2345.93      0.00      0.00 
    43.75     12.02   1737.53   2346.54     -0.01     -8.86 
    43.76     12.02   1744.77   2356.32     -0.01     10.39 
    43.77     12.02   1737.53   2346.85     -0.02     -8.55 
    43.78     12.02   1737.53   2346.85     -0.02      1.53 
    43.79     12.03   1744.77   2355.70     -0.00     10.08 
    43.80     12.03   1737.53   2345.93     -0.01      0.61 
    43.81     12.03   1740.25   2349.59     -0.02      4.89 
    43.82     12.04   1737.53   2345.62     -0.01      0.92 
    43.83     12.03   1744.77   2355.70     -0.01      0.92 
    43.84     12.03   1737.53   2346.24     -0.02      1.53 
    43.85     12.02   1737.53   2346.54     -0.01      0.92 
    43.86     12.02   1744.77   2356.62     -0.02      7.34 
    43.87     12.02   1737.53   2346.85     -0.01     -8.86 
    43.88     12.02   1737.53   2346.85     -0.02      1.22 
    43.89     12.02   1744.77   2356.32     -0.01     10.69 
    43.90     12.03   1737.53   2346.24     -0.01     -8.85 
    43.91     12.03   1737.53   2346.24     -0.02      1.22 
    43.92     12.03   1740.25   2349.59      0.00      3.36 
    43.93     12.02   1744.77   2356.32      0.00     -0.31 
    43.94     12.02   1737.53   2346.85      0.00      0.00 
    43.95     12.02   1737.53   2346.54      0.00     -0.31 
    43.96     12.02   1744.77   2356.32     -0.00      0.31 
    43.97     12.03   1737.53   2345.93     -0.01      0.92 
    43.98     12.04   1737.53   2345.62     -0.00      0.31 
    43.99     12.04   1744.77   2355.40     -0.01      0.61 
    44.00     12.03   1737.53   2345.93     -0.02      1.22 
    44.01     12.04   1737.53   2345.32     -0.00      0.31 
    44.02     12.05   1744.77   2354.48      0.00      6.11 
    44.03     12.06   1737.53   2344.40      0.01    -10.38 
    44.04     12.05   1744.77   2354.48      0.00      9.46 
    44.05     12.05   1737.53   2345.01      0.00     -0.31 
    44.06     12.04   1737.53   2345.62      0.00    -10.08 
    44.07     12.03   1744.77   2355.70      0.00      9.47 
    44.08     12.05   1737.53   2345.01      0.03     -1.83 
    44.09     12.04   1737.53   2345.32      0.02    -11.31 
    44.10     12.05   1744.77   2354.78      0.02      8.55 
    44.11     12.05   1737.53   2345.01      0.02     -5.19 
    44.12     12.05   1737.53   2345.01      0.02     -1.22 
    44.13     12.06   1740.25   2348.06      0.03     -7.95 
    44.14     12.05   1742.06   2351.12      0.02      4.58 
    44.15     12.04   1737.53   2345.62      0.00     -0.31 
    44.16     12.04   1740.25   2349.29      0.01     -7.03 
    44.17     12.03   1744.77   2356.01      0.00      9.47 
    44.18     12.03   1737.53   2346.24      0.00     -6.42 
    44.19     12.03   1737.53   2345.93     -0.00      0.31 
    44.20     12.03   1742.06   2352.34     -0.03      4.59 
    44.21     12.04   1740.25   2349.29     -0.02     -0.91 
    44.22     12.04   1737.53   2345.62     -0.01     -2.75 
    44.23     12.04   1744.77   2355.09      0.00      3.66 
    44.24     12.05   1742.06   2350.81      0.02      9.46 
    44.25     12.04   1737.53   2345.32      0.01     -6.72 
    44.26     12.04   1740.25   2348.98      0.00     -6.11 
    44.27     12.03   1737.53   2346.24     -0.01     -2.75 
    44.28     12.02   1744.77   2356.62     -0.03     11.92 
    44.29     12.02   1737.53   2346.85     -0.03     -3.97 
    44.30     12.02   1737.53   2346.54     -0.02      1.53 
    44.31     12.03   1744.77   2356.01     -0.02     11.00 
    44.32     12.03   1737.53   2346.24     -0.01     -9.16 
    44.33     12.03   1737.53   2346.24     -0.01      0.61 
    44.34     12.02   1744.77   2356.32     -0.01     10.69 
    44.35     12.03   1737.53   2346.24     -0.00     -9.47 
    44.36     12.03   1737.53   2345.93     -0.00      0.31 
    44.37     12.04   1744.77   2355.40     -0.00     10.08 
    44.38     12.04   1737.53   2345.32     -0.00     -9.46 
    44.39     12.04   1740.25   2348.98     -0.01      4.58 
    44.40     12.03   1737.53   2346.24     -0.03      2.14 
    44.41     12.03   1744.77   2356.01     -0.03      8.25 
    44.42     12.03   1737.53   2346.24     -0.03     -7.63 
    44.43     12.03   1737.53   2345.93     -0.01      0.92 
    44.44     12.03   1744.77   2356.01     -0.01     10.69 
    44.45     12.02   1737.53   2346.54     -0.00     -9.47 
    44.46     12.02   1737.53   2346.54      0.00      0.00 
    44.47     12.02   1744.77   2356.32     -0.01     10.69 
    44.48     12.04   1737.53   2345.62     -0.00     -9.47 
    44.49     12.05   1737.53   2345.01      0.00     -3.97 
    44.50     12.05   1744.77   2354.78      0.00      9.46 
    44.51     12.04   1737.53   2345.62      0.00     -0.31 
    44.52     12.03   1744.77   2355.70      0.01     -0.92 
    44.53     12.03   1737.53   2345.93      0.01     -0.61 
    44.54     12.03   1737.53   2345.93      0.00     -0.31 
    44.55     12.04   1744.77   2355.09      0.00     -0.31 
    44.56     12.04   1737.53   2345.32      0.00      4.89 
    44.57     12.04   1737.53   2345.32      0.00    -10.08 
    44.58     12.04   1744.77   2355.09      0.01      9.16 
    44.59     12.04   1737.53   2345.62      0.01     -0.92 
    44.60     12.04   1737.53   2345.62      0.01    -10.39 
    44.61     12.04   1744.77   2355.09      0.00      9.47 
    44.62     12.03   1737.53   2345.93     -0.01     -2.75 
    44.63     12.03   1737.53   2346.24     -0.01      0.92 
    44.64     12.03   1744.77   2356.01     -0.02      1.23 
    44.65     12.02   1737.53   2346.54     -0.02      1.22 
    44.66     12.03   1740.25   2349.90     -0.00      3.97 
    44.67     12.03   1742.06   2352.04     -0.00     -3.36 
    44.68     12.02   1740.25   2350.21     -0.01      4.28 
    44.69     12.02   1737.53   2346.54     -0.01      0.92 
    44.70     12.02   1737.53   2346.85     -0.03     -1.83 
    44.71     12.02   1744.77   2356.32     -0.02     11.00 
    44.72     12.03   1737.53   2346.24     -0.02     -8.55 
    44.73     12.02   1737.53   2346.54     -0.01      0.61 
    44.74     12.03   1744.77   2356.01      0.00      9.47 
    44.75     12.03   1737.53   2346.24      0.00    -10.08 
    44.76     12.03   1737.53   2346.24      0.01     -0.61 
    44.77     12.03   1744.77   2355.70      0.01      8.86 
    44.78     12.04   1737.53   2345.62      0.00    -10.08 
    44.79     12.04   1740.25   2349.29      0.00      3.36 
    44.80     12.04   1737.53   2345.32      0.01     -4.28 
    44.81     12.04   1744.77   2355.09      0.00      9.47 
    44.82     12.04   1737.53   2345.62      0.00    -10.08 
    44.83     12.04   1737.53   2345.62      0.01     -0.61 
    44.84     12.04   1744.77   2355.09      0.02      8.55 
    44.85     12.04   1737.53   2345.32      0.02    -11.31 
    44.86     12.05   1740.25   2348.68      0.03      1.83 
    44.87     12.04   1737.53   2345.32      0.02     -1.53 
    44.88     12.03   1744.77   2355.70      0.01     -0.61 
    44.89     12.03   1737.53   2345.93      0.00     -0.31 
    44.90     12.02   1737.53   2346.54     -0.00      0.31 
    44.91     12.03   1744.77   2356.01     -0.00      6.42 
    44.92     12.04   1737.53   2345.32      0.02    -11.00 
    44.93     12.03   1737.53   2345.93      0.01     -0.92 
