#Written by Robertson Geologging WinLogger V1.5/410
~VERSION INFORMATION
#------------------------------------------------------------------------------
 VERS. 2.0 : CWLS LOG ASCII STANDARD - VERSION 2.0
 WRAP. NO  : ONE LINE PER DEPTH STEP
~WELL INFORMATION
#MNEM.UNIT         DATA                                DESCRIPTION OF MNEMONIC
#------------------------------------------------------------------------------
 STRT.M          0.0600                            :   START DEPTH
 STOP.M         94.0500                            :   STOP DEPTH
 STEP.M          0.0100                            :   STEP VALUE
 NULL.        -999.2500                            :   NULL VALUE
 COMP.    Coal Authority                           :   COMPANY NAME
 WELL.    Ladysmith Shaft                          :   WELL NAME
 FLD.     N/A                                      :   FIELD NAME
 LOC.     N/A                                      :   LOCATION
 PROV.    N/A                                      :   PROVINCE
 SRVC.    N/A                                      :   SERVICE COMPANY NAME
 DATE.    15 Dec 08                                :   DATE
 UWI.     N/A                                      :   UNIQUE WELL IDENTIFIER
~PARAMETER INFORMATION
#MNEMO.UNIT         VALUE                 DESCRIPTION OF MNEMONIC
#------------------------------------------------------------------------------
~OTHER INFORMATION SECTION
#------------------------------------------------------------------------------
 TCDS 1365
 15,12,2008
~CURVE INFORMATION
#MNEMO.UNIT         API CODE              CURVE DESCRIPTION
#------------------------------------------------------------------------------
 DEPTH.M                                 :   0     Depth
 COND.uS/cm                              :   1     Conductivity@25DegC
 COND.uS/cm                              :   2     Absolute Conductivity
 TEMP.DegC                               :   3     Temperature
 DELT.DegC                               :   4     Delta T
 DELC.uS/cm                              :   5     Delta C
 NGAM.CPS                                :   6     Natural Gamma
#------------------------------------------------------------------------------
~A  DEPTH          COND          COND          TEMP          DELT          DELC          NGAM
# ...
    86.92       2393.28       1766.24         11.90         -0.00          0.89          0.76
    86.93       2393.79       1766.66         11.90         -0.00          4.63          0.76
    86.94       2390.27       1764.13         11.90          0.00          0.95          0.76
    86.95       2393.62       1766.66         11.90          0.01          0.17          1.18
    86.96       2393.59       1766.66         11.90          0.01          3.49          1.18
    86.97       2393.56       1766.66         11.90          0.01          3.44          1.18
    86.98       2393.48       1766.66         11.91          0.01         -0.68          1.18
    86.99       2393.34       1766.66         11.91          0.01          2.64          1.18
    87.00       2393.77       1767.08         11.91          0.01          2.58          1.18
    87.01       2393.11       1766.66         11.91          0.01          1.89          1.59
    87.02       2393.11       1766.66         11.91          0.02          1.86          1.59
    87.03       2393.17       1766.66         11.91          0.01          1.32          1.18
    87.04       2393.22       1766.66         11.91          0.01          1.38          1.18
    87.05       2396.65       1769.19         11.91          0.01          4.87          1.18
    87.06       2393.17       1766.66         11.91          0.01          2.06          1.18
    87.07       2393.11       1766.66         11.91          0.01         -1.26          1.18
    87.08       2393.08       1766.66         11.91          0.01          2.26          1.18
    87.09       2397.14       1769.62         11.91          0.01          7.01          0.82
    87.10       2393.79       1767.08         11.91          0.00         -0.28          0.82
    87.11       2393.34       1766.66         11.91          0.00          3.26          0.82
    87.12       2393.99       1767.08         11.91          0.00          0.52          0.41
    87.13       2394.05       1767.08         11.91         -0.00          0.63          0.41
    87.14       2394.14       1767.08         11.90         -0.00          4.78          0.41
    87.15       2394.22       1767.08         11.90         -0.01          1.49          0.76
    87.16       2394.34       1767.08         11.90         -0.01          1.08          0.76
    87.17       2394.45       1767.08         11.90         -0.01          4.55          0.76
    87.18       2394.53       1767.08         11.90         -0.01          4.55          0.35
    87.19       2394.53       1767.08         11.90         -0.01          0.43          0.35
    87.20       2394.51       1767.08         11.90         -0.00          3.72          0.35
    87.21       2394.53       1767.08         11.90         -0.00          4.26          0.35
    87.22       2395.05       1767.51         11.90         -0.00          1.26          0.35
    87.23       2394.39       1767.08         11.90          0.00          4.01          0.35
    87.24       2398.31       1770.04         11.90          0.00          7.87          1.06
    87.25       2394.77       1767.51         11.90          0.00          0.86          1.06
    87.26       2394.71       1767.51         11.90          0.01          4.18          1.06
    87.27       2394.74       1767.51         11.90          0.01          4.15          1.06
    87.28       2398.14       1770.04         11.90          0.01          4.18          1.41
    87.29       2394.71       1767.51         11.90          0.01          4.18          1.41
    87.30       2394.74       1767.51         11.90          0.00          4.32          1.41
    87.31       2394.19       1767.08         11.90          0.00          0.46          1.76
    87.32       2398.26       1770.04         11.90          0.00          7.98          1.41
    87.33       2394.28       1767.08         11.90         -0.00          4.09          1.41
    87.34       2394.34       1767.08         11.90         -0.00          0.17          1.41
    87.35       2394.42       1767.08         11.90         -0.00          0.26          1.41
    87.36       2397.80       1769.62         11.90         -0.00          7.09          1.41
    87.37       2393.76       1766.66         11.90         -0.00         -0.29          1.41
    87.38       2394.19       1767.08         11.90         -0.00          0.23          1.76
    87.39       2394.11       1767.08         11.90         -0.00          3.66          1.76
    87.40       2397.51       1769.62         11.91         -0.00          3.69          1.76
    87.41       2397.45       1769.62         11.91         -0.00          3.60          1.06
    87.42       2393.99       1767.08         11.91         -0.00          3.52          1.06
    87.43       2393.31       1766.66         11.91          0.00         -0.63          1.06
    87.44       2397.26       1769.62         11.91          0.00          2.69          1.41
    87.45       2397.17       1769.62         11.91          0.00          6.64          1.41
    87.46       2396.51       1769.19         11.91          0.00          5.98          1.41
    87.47       2393.08       1766.66         11.91          0.01         -0.91          1.41
    87.48       2396.46       1769.19         11.91          0.01          1.92          1.41
    87.49       2395.91       1768.77         11.91          0.01          5.32          1.41
    87.50       2396.54       1769.19         11.91          0.01          2.40          1.41
    87.51       2393.14       1766.66         11.91          0.01         -1.11          1.41
    87.52       2393.22       1766.66         11.91          0.01          2.84          1.41
    87.53       2397.23       1769.62         11.91          0.01          2.75          1.41
    87.54       2397.23       1769.62         11.91          0.01          2.78          1.41
    87.55       2396.68       1769.19         11.91          0.01          2.89          1.06
    87.56       2393.28       1766.66         11.91          0.01         -0.48          1.06
    87.57       2393.85       1767.08         11.91          0.01          0.12          1.06
    87.58       2397.31       1769.62         11.91          0.01          3.61          1.06
    87.59       2397.34       1769.62         11.91          0.01          7.58          1.06
    87.60       2397.34       1769.62         11.91          0.01          4.24          1.06
    87.61       2393.31       1766.66         11.91          0.00          0.34          0.71
    87.62       2396.63       1769.19         11.91          0.00          7.24          0.35
    87.63       2396.48       1769.19         11.91          0.00          3.86          0.35
    87.64       2395.83       1768.77         11.91          0.00          3.83          0.35
    87.65       2392.37       1766.24         11.91          0.00          3.78          0.00
    87.66       2392.37       1766.24         11.91          0.00          3.75          0.00
    87.67       2395.85       1768.77         11.91          0.00          3.15          0.00
    87.68       2395.37       1768.35         11.91          0.00          2.69          0.00
    87.69       2395.48       1768.35         11.91          0.00          6.26          0.00
    87.70       2396.11       1768.77         11.91          0.00          2.86          0.00
    87.71       2392.74       1766.24         11.91          0.00         -0.57          0.00
    87.72       2396.22       1768.77         11.91          0.00          6.26          0.00
    87.73       2396.28       1768.77         11.91          0.00          2.26          0.00
    87.74       2396.97       1769.19         11.90          0.00          2.86          0.00
    87.75       2397.05       1769.19         11.90         -0.00          2.97          0.00
    87.76       2397.08       1769.19         11.90         -0.00          3.00          0.35
    87.77       2397.71       1769.62         11.90         -0.00          3.06          0.71
