#Written by Robertson Geologging WinLogger V1.5/410
~VERSION INFORMATION
#------------------------------------------------------------------------------
 VERS. 2.0 : CWLS LOG ASCII STANDARD - VERSION 2.0
 WRAP. NO  : ONE LINE PER DEPTH STEP
~WELL INFORMATION
#MNEM.UNIT         DATA                                DESCRIPTION OF MNEMONIC
#------------------------------------------------------------------------------
 STRT.M          0.0100                            :   START DEPTH
 STOP.M         89.0000                            :   STOP DEPTH
 STEP.M          0.0100                            :   STEP VALUE
 NULL.        -999.2500                            :   NULL VALUE
 COMP.    IWS                                      :   COMPANY NAME
 WELL.    Ladysmith                                :   WELL NAME
 FLD.     N/A                                      :   FIELD NAME
 LOC.     N/A                                      :   LOCATION
 PROV.    N/A                                      :   PROVINCE
 SRVC.    N/A                                      :   SERVICE COMPANY NAME
 DATE.    01 Feb 11                                :   DATE
 UWI.     N/A                                      :   UNIQUE WELL IDENTIFIER
~PARAMETER INFORMATION
#MNEMO.UNIT         VALUE                 DESCRIPTION OF MNEMONIC
#------------------------------------------------------------------------------
~OTHER INFORMATION SECTION
#------------------------------------------------------------------------------
 1365
~CURVE INFORMATION
#MNEMO.UNIT         API CODE              CURVE DESCRIPTION
#------------------------------------------------------------------------------
 DEPTH.M                                 :   0     Depth
 CN25.uS/cm                              :   1     Conductivity@25DegC
 TEMP.DegC                               :   2     Temperature
 DELT.DegC                               :   3     Delta T
 DELC.uS/cm                              :   4     Delta C
#------------------------------------------------------------------------------
~A  DEPTH          CN25          TEMP          DELT          DELC
# ...
    52.47       2085.49         11.89         -0.00          3.66
    52.48       2087.09         11.89         -0.01          5.41
    52.49       2087.07         11.89         -0.01          3.24
    52.50       2083.66         11.89         -0.01         -1.92
    52.51       2087.09         11.89         -0.01          3.19
    52.52       2087.17         11.89         -0.01          3.27
    52.53       2083.78         11.89         -0.01         -0.14
    52.54       2085.51         11.89         -0.01          1.56
    52.55       2087.79         11.89         -0.01          3.81
    52.56       2086.08         11.89         -0.01         -1.97
    52.57       2086.13         11.89         -0.00          1.31
    52.58       2087.84         11.89         -0.00          0.62
    52.59       2086.13         11.89          0.00         -2.87
    52.60       2090.11         11.89          0.00          1.01
    52.61       2090.09         11.89          0.00          2.69
    52.62       2084.43         11.89          0.00         -2.94
    52.63       2090.14         11.89          0.00          4.96
    52.64       2087.89         11.88          0.00          0.99
    52.65       2086.21         11.88          0.00         -0.72
    52.66       2087.94         11.88          0.00          3.21
    52.67       2086.31         11.88          0.00          3.29
    52.68       2089.82         11.88         -0.00          5.14
    52.69       2085.99         11.88         -0.00          1.36
    52.70       2086.11         11.88         -0.01          3.24
    52.71       2086.16         11.88         -0.01          1.61
    52.72       2086.16         11.88         -0.01          1.61
    52.73       2090.09         11.88         -0.01          5.49
    52.74       2086.66         11.88         -0.01         -1.90
    52.75       2088.93         11.88         -0.01          3.79
    52.76       2090.66         11.88         -0.01          5.49
    52.77       2088.98         11.88         -0.01         -0.17
    52.78       2088.93         11.88         -0.00         -0.29
    52.79       2087.15         11.88         -0.00         -0.37
    52.80       2089.40         11.88         -0.00          0.18
    52.81       2089.37         11.88         -0.00          0.18
    52.82       2089.40         11.88         -0.01          2.03
    52.83       2089.45         11.88         -0.01          4.43
    52.84       2087.69         11.88         -0.01         -0.66
    52.85       2089.32         11.88         -0.01          2.70
    52.86       2089.25         11.88         -0.01          4.92
    52.87       2087.39         11.88         -0.00         -0.32
    52.88       2090.65         11.89         -0.00          4.72
    52.89       2088.30         11.89         -0.00          2.52
    52.90       2089.93         11.89         -0.00          6.45
    52.91       2089.86         11.89         -0.00          4.67
    52.92       2089.83         11.89         -0.00          4.60
    52.93       2089.78         11.89          0.00          6.64
    52.94       2089.73         11.89          0.01          4.22
    52.95       2089.76         11.89          0.01          4.17
    52.96       2089.81         11.89          0.01          6.47
    52.97       2089.86         11.89          0.01          4.25
    52.98       2089.98         11.89          0.00          4.40
    52.99       2088.41         11.89          0.00          5.09
    53.00       2090.78         11.88         -0.00          7.41
    53.01       2087.49         11.88         -0.00          1.88
    53.02       2087.54         11.88         -0.00          3.69
    53.03       2089.25         11.88         -0.01          5.42
    53.04       2087.59         11.88         -0.01          1.61
    53.05       2091.03         11.88         -0.01          3.44
    53.06       2088.81         11.88         -0.01          4.66
    53.07       2087.15         11.88         -0.01          0.78
    53.08       2090.56         11.88         -0.01          2.43
    53.09       2090.56         11.88         -0.01          5.77
    53.10       2090.54         11.88         -0.01          3.37
    53.11       2090.44         11.88         -0.01          1.46
    53.12       2090.29         11.88         -0.00          1.26
    53.13       2090.16         11.88          0.00          1.06
    53.14       2090.06         11.89          0.00          0.91
    53.15       2089.98         11.89          0.01          0.79
    53.16       2086.52         11.89          0.01         -2.75
    53.17       2092.13         11.89          0.01          2.83
    53.18       2089.78         11.89          0.01          0.43
    53.19       2086.37         11.89          0.01         -2.95
    53.20       2089.76         11.89          0.01          0.48
    53.21       2085.78         11.89          0.01         -1.12
    53.22       2089.29         11.89          0.01          0.79
    53.23       2089.34         11.89          0.00          0.86
    53.24       2091.17         11.89          0.00          6.69
    53.25       2089.64         11.88         -0.00          1.76
    53.26       2089.74         11.88         -0.00          1.83
    53.27       2091.55         11.88         -0.00          5.37
    53.28       2088.21         11.88         -0.01          4.30
    53.29       2090.49         11.88         -0.01          3.19
    53.30       2092.12         11.88         -0.00          6.50
    53.31       2088.63         11.88         -0.00          5.29
    53.32       2090.80         11.88         -0.00          1.73
    53.33       2088.95         11.89          0.00          3.21
    53.34       2088.87         11.89          0.01          5.38
    53.35       2088.77         11.89          0.01         -0.43
    53.36       2088.60         11.89          0.01          2.81
    53.37       2091.86         11.89          0.01          8.37
    53.38       2087.78         11.90          0.01          0.85
    53.39       2087.65         11.90          0.02         -1.55
    53.40       2089.31         11.90          0.02          5.82
    53.41       2087.55         11.90          0.02          0.68
    53.42       2090.89         11.90          0.02          1.74
    53.43       2088.64         11.90          0.02          5.17
    53.44       2090.42         11.90          0.02          3.62
    53.45       2088.27         11.90          0.01         -0.73
    53.46       2090.10         11.90          0.01          4.61
    53.47       2090.23         11.89          0.00          3.13
    53.48       2088.62         11.89          0.00          1.55
    53.49       2090.90         11.89          0.00          7.24
    53.50       2088.67         11.89          0.00          1.58
    53.51       2090.35         11.89          0.00          3.18
    53.52       2090.38         11.89          0.00          6.59
    53.53       2088.80         11.89          0.00          3.28
    53.54       2091.12         11.89          0.00          3.33
    53.55       2087.76         11.89          0.00          1.68
    53.56       2091.76         11.89          0.00          5.63
    53.57       2088.30         11.89          0.00          0.47
    53.58       2090.01         11.89          0.00          3.88
    53.59       2088.30         11.89          0.00         -1.81
    53.60       2088.35         11.89          0.00         -1.73
    53.61       2092.38         11.89          0.00          7.96
    53.62       2089.12         11.88         -0.00         -1.01
    53.63       2091.00         11.88         -0.00          3.12
    53.64       2089.35         11.88         -0.01          3.14
    53.65       2089.35         11.88         -0.00          1.41
    53.66       2090.98         11.88         -0.00          4.67
    53.67       2089.15         11.88          0.00         -0.67
    53.68       2092.51         11.88          0.01          6.52
