#Written by Robertson Geologging WinLogger V1.5/410
~VERSION INFORMATION
#------------------------------------------------------------------------------
 VERS. 2.0 : CWLS LOG ASCII STANDARD - VERSION 2.0
 WRAP. NO  : ONE LINE PER DEPTH STEP
~WELL INFORMATION
#MNEM.UNIT         DATA                                DESCRIPTION OF MNEMONIC
#------------------------------------------------------------------------------
 STRT.M          0.0600                            :   START DEPTH
 STOP.M         94.0500                            :   STOP DEPTH
 STEP.M          0.0100                            :   STEP VALUE
 NULL.        -999.2500                            :   NULL VALUE
 COMP.    Coal Authority                           :   COMPANY NAME
 WELL.    Ladysmith Shaft                          :   WELL NAME
 FLD.     N/A                                      :   FIELD NAME
 LOC.     N/A                                      :   LOCATION
 PROV.    N/A                                      :   PROVINCE
 SRVC.    N/A                                      :   SERVICE COMPANY NAME
 DATE.    15 Dec 08                                :   DATE
 UWI.     N/A                                      :   UNIQUE WELL IDENTIFIER
~PARAMETER INFORMATION
#MNEMO.UNIT         VALUE                 DESCRIPTION OF MNEMONIC
#------------------------------------------------------------------------------
~OTHER INFORMATION SECTION
#------------------------------------------------------------------------------
 TCDS 1365
 15,12,2008
~CURVE INFORMATION
#MNEMO.UNIT         API CODE              CURVE DESCRIPTION
#------------------------------------------------------------------------------
 DEPTH.M                                 :   0     Depth
 COND.uS/cm                              :   1     Conductivity@25DegC
 COND.uS/cm                              :   2     Absolute Conductivity
 TEMP.DegC                               :   3     Temperature
 DELT.DegC                               :   4     Delta T
 DELC.uS/cm                              :   5     Delta C
 NGAM.CPS                                :   6     Natural Gamma
#------------------------------------------------------------------------------
~A  DEPTH          COND          COND          TEMP          DELT          DELC          NGAM
# ...
    92.94       2417.20       1785.26         11.93         -0.00          4.29          0.76
    92.95       2413.60       1782.72         11.93         -0.00          0.69          0.76
    92.96       2416.34       1784.83         11.93          0.00          6.27          1.18
    92.97       2416.72       1785.26         11.94          0.00          3.69          1.18
    92.98       2416.69       1785.26         11.94          0.01          3.52          1.18
    92.99       2416.12       1784.83         11.94          0.01          2.89          1.18
    93.00       2416.14       1784.83         11.94          0.01          2.95          1.18
    93.01       2417.38       1785.68         11.93          0.00          4.27          0.76
    93.02       2416.78       1785.26         11.93          0.00          3.78          0.76
    93.03       2416.75       1785.26         11.94          0.00          4.44          0.41
    93.04       2417.75       1786.10         11.94          0.00          4.92          0.41
    93.05       2417.12       1785.68         11.94          0.00          4.30          0.41
    93.06       2420.61       1788.22         11.94          0.00          7.79          0.41
    93.07       2417.75       1786.10         11.94          0.00          4.90          0.41
    93.08       2417.23       1785.68         11.94          0.00          4.44          0.41
    93.09       2418.41       1786.53         11.94         -0.00          5.76          0.41
    93.10       2418.41       1786.53         11.94         -0.00          5.30          0.76
    93.11       2418.38       1786.53         11.94         -0.00          5.96          1.18
    93.12       2418.29       1786.53         11.94         -0.00          4.75          1.18
    93.13       2418.21       1786.53         11.94          0.00          4.58          0.76
    93.14       2421.56       1789.06         11.94          0.00          7.87          0.76
    93.15       2417.55       1786.10         11.94          0.00          3.75          0.76
    93.16       2417.63       1786.10         11.94          0.00          3.81          1.18
    93.17       2417.69       1786.10         11.94          0.00          3.32          1.18
    93.18       2417.18       1785.68         11.94          0.00          3.38          1.18
    93.19       2420.64       1788.22         11.94          0.00          9.70          1.18
    93.20       2416.49       1785.26         11.94          0.00          2.03          1.18
    93.21       2416.32       1785.26         11.94          0.01          1.80          1.18
    93.22       2419.63       1787.79         11.94          0.01          5.04          1.18
    93.23       2415.00       1784.41         11.94          0.01          4.38          1.18
    93.24       2415.66       1784.83         11.94          0.01          1.63          1.18
    93.25       2415.83       1784.83         11.94          0.01          1.80          1.18
    93.26       2415.37       1784.41         11.94          0.01          1.37          1.18
    93.27       2419.98       1787.79         11.94          0.00          9.45          0.82
    93.28       2416.49       1785.26         11.94          0.01          3.06          0.41
    93.29       2417.00       1785.68         11.94          0.01          3.55          0.76
    93.30       2416.97       1785.68         11.94          0.01          3.52          0.76
    93.31       2416.49       1785.26         11.94          0.01          3.03          0.76
    93.32       2417.20       1785.68         11.94          0.00          4.26          0.76
    93.33       2417.32       1785.68         11.94          0.00          4.35          0.35
    93.34       2417.40       1785.68         11.93          0.00          4.44          0.35
    93.35       2421.41       1788.64         11.93          0.00          8.47          0.35
    93.36       2417.92       1786.10         11.93          0.00          4.44          0.35
    93.37       2418.44       1786.53         11.94          0.00          5.61          0.35
    93.38       2417.23       1785.68         11.94          0.00          0.97          0.35
    93.39       2417.20       1785.68         11.94          0.00          3.86          0.35
    93.40       2421.15       1788.64         11.94          0.00          7.93          0.35
    93.41       2417.58       1786.10         11.94          0.00          1.49          0.35
    93.42       2418.03       1786.53         11.94          0.01          4.78          0.71
    93.43       2420.75       1788.64         11.94          0.01          7.47          0.71
    93.44       2417.23       1786.10         11.95          0.01          3.86          0.71
    93.45       2421.81       1789.49         11.95          0.01          5.49          0.71
    93.46       2417.26       1786.10         11.94          0.01          3.78          0.35
    93.47       2417.89       1786.53         11.94          0.01          4.95          0.35
    93.48       2420.81       1788.64         11.94          0.01          4.35          0.35
    93.49       2418.00       1786.53         11.94          0.01          4.38          0.35
    93.50       2421.52       1789.06         11.94          0.01          8.41          0.35
    93.51       2417.00       1785.68         11.94          0.01          0.37          0.71
    93.52       2417.72       1786.10         11.94          0.01          4.55          0.71
    93.53       2420.67       1788.22         11.94          0.01          7.58          0.71
    93.54       2417.89       1786.10         11.94          0.00          1.43          0.71
    93.55       2421.38       1788.64         11.93          0.00          5.04          0.71
    93.56       2416.80       1785.26         11.93          0.00          3.95          1.06
    93.57       2420.29       1787.79         11.93          0.00          7.44          1.06
    93.58       2420.29       1787.79         11.93          0.00          3.98          1.06
    93.59       2416.95       1785.26         11.93         -0.00          4.06          0.71
    93.60       2419.89       1787.37         11.93         -0.00          7.07          0.71
    93.61       2416.52       1784.83         11.93         -0.00          0.29          0.71
    93.62       2420.10       1787.37         11.93         -0.01          7.33          0.71
    93.63       2419.55       1786.95         11.93         -0.01          3.35          0.71
    93.64       2419.49       1786.95         11.93         -0.01          3.24          0.71
    93.65       2419.38       1786.95         11.93         -0.00          6.58          0.71
    93.66       2419.21       1786.95         11.93         -0.00          3.01          0.71
    93.67       2419.06       1786.95         11.93          0.00          2.29          0.71
    93.68       2418.92       1786.95         11.94          0.00          2.75          0.35
    93.69       2418.86       1786.95         11.94          0.00          2.72          0.35
    93.70       2418.72       1786.95         11.94          0.00          2.60          0.76
    93.71       2418.63       1786.95         11.94          0.00          3.15          0.76
    93.72       2419.09       1787.37         11.94          0.01          3.63          0.76
    93.73       2418.92       1787.37         11.95          0.01          3.52          0.41
    93.74       2418.80       1787.37         11.95          0.01          6.26          0.41
    93.75       2418.80       1787.37         11.95          0.01          3.43          0.41
    93.76       2418.86       1787.37         11.95          0.01          3.43          0.41
    93.77       2418.92       1787.37         11.95          0.01          3.40          0.41
    93.78       2419.00       1787.37         11.94          0.01          3.49          0.41
    93.79       2418.95       1787.37         11.95          0.01          3.40          0.41
