#Written by Robertson Geologging WinLogger V1.5/410
~VERSION INFORMATION
#------------------------------------------------------------------------------
 VERS. 2.0 : CWLS LOG ASCII STANDARD - VERSION 2.0
 WRAP. NO  : ONE LINE PER DEPTH STEP
~WELL INFORMATION
#MNEM.UNIT         DATA                                DESCRIPTION OF MNEMONIC
#------------------------------------------------------------------------------
 STRT.M          0.0100                            :   START DEPTH
 STOP.M         89.0000                            :   STOP DEPTH
 STEP.M          0.0100                            :   STEP VALUE
 NULL.        -999.2500                            :   NULL VALUE
 COMP.    IWS                                      :   COMPANY NAME
 WELL.    Ladysmith                                :   WELL NAME
 FLD.     N/A                                      :   FIELD NAME
 LOC.     N/A                                      :   LOCATION
 PROV.    N/A                                      :   PROVINCE
 SRVC.    N/A                                      :   SERVICE COMPANY NAME
 DATE.    01 Feb 11                                :   DATE
 UWI.     N/A                                      :   UNIQUE WELL IDENTIFIER
~PARAMETER INFORMATION
#MNEMO.UNIT         VALUE                 DESCRIPTION OF MNEMONIC
#------------------------------------------------------------------------------
~OTHER INFORMATION SECTION
#------------------------------------------------------------------------------
 1365
~CURVE INFORMATION
#MNEMO.UNIT         API CODE              CURVE DESCRIPTION
#------------------------------------------------------------------------------
 DEPTH.M                                 :   0     Depth
 CN25.uS/cm                              :   1     Conductivity@25DegC
 TEMP.DegC                               :   2     Temperature
 DELT.DegC                               :   3     Delta T
 DELC.uS/cm                              :   4     Delta C
#------------------------------------------------------------------------------
~A  DEPTH          CN25          TEMP          DELT          DELC
# ...
    46.37       2072.31         11.86          0.01          6.75
    46.38       2068.32         11.86          0.01          2.67
    46.39       2072.33         11.86          0.01          6.60
    46.40       2070.01         11.86          0.02          4.22
    46.41       2072.23         11.86          0.02          6.42
    46.42       2068.22         11.86          0.02          6.40
    46.43       2068.30         11.86          0.02          2.47
    46.44       2068.32         11.86          0.02          2.52
    46.45       2068.40         11.86          0.01          2.59
    46.46       2068.42         11.86          0.01          2.67
    46.47       2070.60         11.86          0.01          4.87
    46.48       2068.32         11.86          0.01          6.60
    46.49       2070.52         11.86          0.01          4.89
    46.50       2068.12         11.86          0.02          2.52
    46.51       2070.37         11.86          0.01          4.87
    46.52       2066.39         11.86          0.01         -0.72
    46.53       2072.08         11.86          0.01          2.77
    46.54       2070.37         11.86          0.01          5.17
    46.55       2070.35         11.86          0.01          7.49
    46.56       2070.33         11.86          0.01          3.53
    46.57       2070.33         11.86          0.01          5.26
    46.58       2070.42         11.86          0.00          5.41
    46.59       2070.47         11.86          0.00          3.81
    46.60       2070.57         11.86          0.00          5.59
    46.61       2068.97         11.86         -0.00          4.01
    46.62       2068.99         11.86          0.00          6.18
    46.63       2070.72         11.86          0.00          5.46
    46.64       2068.94         11.86          0.01          3.58
    46.65       2072.85         11.86          0.01          5.61
    46.66       2068.84         11.86          0.01          3.24
    46.67       2072.77         11.86          0.01          7.12
    46.68       2068.77         11.86          0.02          1.36
    46.69       2066.49         11.86          0.02         -0.92
    46.70       2068.72         11.86          0.02          3.04
    46.71       2068.62         11.86          0.02          1.36
    46.72       2070.28         11.86          0.02          3.11
    46.73       2070.20         11.87          0.01          0.91
    46.74       2070.20         11.87          0.01          3.36
    46.75       2070.30         11.86          0.01          3.56
    46.76       2070.35         11.86          0.00          3.73
    46.77       2072.13         11.86          0.00          5.61
    46.78       2070.45         11.86         -0.00          4.01
    46.79       2070.42         11.86         -0.00          4.06
    46.80       2070.40         11.86         -0.00          4.08
    46.81       2070.35         11.86         -0.00          4.03
    46.82       2070.35         11.86         -0.00          4.03
    46.83       2070.40         11.86         -0.00          4.08
    46.84       2070.45         11.86         -0.00          6.40
    46.85       2072.75         11.86         -0.00          6.45
    46.86       2070.47         11.86         -0.00          6.40
    46.87       2070.45         11.86         -0.00          4.08
    46.88       2068.67         11.86          0.00          0.54
    46.89       2070.33         11.86          0.00          2.18
    46.90       2070.30         11.86          0.00          3.88
    46.91       2072.53         11.87          0.00          8.41
    46.92       2070.25         11.87          0.00          2.18
    46.93       2070.28         11.86          0.00          6.11
    46.94       2072.50         11.87          0.00          4.30
    46.95       2070.23         11.87          0.01         -0.30
    46.96       2070.23         11.87          0.01          1.90
    46.97       2068.47         11.87          0.01          1.90
    46.98       2070.18         11.87          0.01          1.93
    46.99       2070.20         11.87          0.00          3.71
    47.00       2068.52         11.87          0.00          2.05
    47.01       2074.28         11.86          0.00          3.78
    47.02       2070.35         11.86          0.00         -0.25
    47.03       2072.67         11.86          0.01          5.93
    47.04       2072.70         11.86          0.01          3.66
    47.05       2070.45         11.86          0.01          3.66
    47.06       2072.72         11.86          0.01          5.93
    47.07       2068.67         11.86          0.01         -0.35
    47.08       2074.36         11.86          0.01          3.61
    47.09       2072.70         11.86          0.01          7.66
    47.10       2072.77         11.86          0.00          3.71
    47.11       2074.63         11.86          0.00          7.74
    47.12       2068.97         11.86          0.00          2.03
    47.13       2072.95         11.86          0.00          3.73
    47.14       2070.65         11.86          0.00         -0.20
    47.15       2070.60         11.86          0.00         -0.15
    47.16       2070.60         11.86          0.00         -0.05
    47.17       2070.62         11.86         -0.00          4.03
    47.18       2074.68         11.86         -0.00          8.14
    47.19       2070.72         11.86         -0.00          1.96
    47.20       2070.65         11.86         -0.00          0.20
    47.21       2072.26         11.86         -0.00          1.83
    47.22       2070.37         11.86         -0.00          0.05
    47.23       2074.23         11.87          0.00          3.96
    47.24       2071.88         11.87          0.00          5.66
    47.25       2074.08         11.87          0.00          7.86
    47.26       2070.03         11.87          0.00          2.03
    47.27       2073.93         11.87          0.01          7.56
    47.28       2073.83         11.87          0.01          3.36
    47.29       2069.78         11.87          0.01          1.48
    47.30       2073.76         11.87          0.02          5.38
    47.31       2069.88         11.87          0.01          1.50
    47.32       2072.23         11.87          0.01          3.90
    47.33       2070.05         11.87          0.01          1.75
    47.34       2070.15         11.87          0.01          1.88
    47.35       2072.48         11.87          0.01          2.45
    47.36       2070.25         11.87          0.01         -2.05
    47.37       2074.33         11.86          0.00          6.01
    47.38       2072.65         11.86          0.00          0.32
    47.39       2070.37         11.86          0.00          0.37
    47.40       2074.33         11.86          0.00          2.10
    47.41       2072.50         11.87          0.00          4.28
    47.42       2074.08         11.87          0.01          5.78
    47.43       2074.06         11.87          0.01          5.73
    47.44       2072.33         11.87          0.01          3.93
    47.45       2072.43         11.87          0.01          4.00
    47.46       2070.28         11.86          0.01         -0.32
    47.47       2072.65         11.86          0.00          4.33
    47.48       2074.36         11.86          0.00          3.83
    47.49       2070.35         11.86          0.00          2.23
    47.50       2074.28         11.86          0.00          3.91
    47.51       2070.23         11.87          0.00          3.83
    47.52       2071.96         11.87          0.00         -0.12
    47.53       2070.23         11.87          0.00         -0.15
    47.54       2071.93         11.87          0.00          1.58
    47.55       2071.93         11.87          0.00          1.61
    47.56       2073.54         11.87          0.00          3.21
    47.57       2075.71         11.87          0.01          5.29
    47.58       2071.58         11.87          0.01          1.11
