#Written by Robertson Geologging WinLogger V1.5/410
~VERSION INFORMATION
#------------------------------------------------------------------------------
 VERS. 2.0 : CWLS LOG ASCII STANDARD - VERSION 2.0
 WRAP. NO  : ONE LINE PER DEPTH STEP
~WELL INFORMATION
#MNEM.UNIT         DATA                                DESCRIPTION OF MNEMONIC
#------------------------------------------------------------------------------
 STRT.M          0.0600                            :   START DEPTH
 STOP.M         94.0500                            :   STOP DEPTH
 STEP.M          0.0100                            :   STEP VALUE
 NULL.        -999.2500                            :   NULL VALUE
 COMP.    Coal Authority                           :   COMPANY NAME
 WELL.    Ladysmith Shaft                          :   WELL NAME
 FLD.     N/A                                      :   FIELD NAME
 LOC.     N/A                                      :   LOCATION
 PROV.    N/A                                      :   PROVINCE
 SRVC.    N/A                                      :   SERVICE COMPANY NAME
 DATE.    15 Dec 08                                :   DATE
 UWI.     N/A                                      :   UNIQUE WELL IDENTIFIER
~PARAMETER INFORMATION
#MNEMO.UNIT         VALUE                 DESCRIPTION OF MNEMONIC
#------------------------------------------------------------------------------
~OTHER INFORMATION SECTION
#------------------------------------------------------------------------------
 TCDS 1365
 15,12,2008
~CURVE INFORMATION
#MNEMO.UNIT         API CODE              CURVE DESCRIPTION
#------------------------------------------------------------------------------
 DEPTH.M                                 :   0     Depth
 COND.uS/cm                              :   1     Conductivity@25DegC
 COND.uS/cm                              :   2     Absolute Conductivity
 TEMP.DegC                               :   3     Temperature
 DELT.DegC                               :   4     Delta T
 DELC.uS/cm                              :   5     Delta C
 NGAM.CPS                                :   6     Natural Gamma
#------------------------------------------------------------------------------
~A  DEPTH          COND          COND          TEMP          DELT          DELC          NGAM
# ...
    12.10       2206.55       1604.27         11.35          2.11        391.47          1.59
    12.11       2208.42       1605.94         11.36          2.07        384.24          1.59
    12.12       2210.38       1607.62         11.37          2.03        370.05          1.59
    12.13       2211.84       1608.87         11.37          1.99        362.59          0.76
    12.14       2215.56       1611.81         11.37          1.95        356.19          0.76
    12.15       2213.51       1610.55         11.38          1.91        348.91          0.76
    12.16       2218.79       1614.75         11.39          1.87        348.34          0.76
    12.17       2215.87       1613.07         11.40          1.83        340.84          0.76
    12.18       2219.18       1616.00         11.41          1.80        338.91          1.18
    12.19       2220.24       1617.26         11.42          1.76        338.99          1.53
    12.20       2223.68       1620.20         11.43          1.72        341.50          1.53
    12.21       2220.84       1618.52         11.44          1.68        337.81          1.53
    12.22       2224.41       1621.45         11.45          1.64        340.68          1.53
    12.23       2227.90       1624.39         11.46          1.59        346.35          1.53
    12.24       2227.31       1624.39         11.47          1.55        340.27          1.53
    12.25       2228.37       1625.65         11.48          1.51        342.79          1.53
    12.26       2231.77       1628.58         11.49          1.48        341.56          1.59
    12.27       2231.24       1628.58         11.50          1.44        334.54          1.59
    12.28       2233.08       1630.26         11.50          1.41        335.09          1.18
    12.29       2236.13       1632.78         11.51          1.38        331.54          1.18
    12.30       2231.68       1629.84         11.52          1.34        320.48          1.18
    12.31       2234.61       1632.36         11.52          1.31        314.33          1.18
    12.32       2237.99       1635.30         11.53          1.29        308.46          1.18
    12.33       2237.37       1635.30         11.55          1.26        300.87          1.18
    12.34       2236.73       1635.30         11.56          1.24        291.41          1.18
    12.35       2241.87       1639.49         11.57          1.22        291.78          1.12
    12.36       2241.39       1639.49         11.57          1.20        285.44          0.76
    12.37       2242.57       1640.75         11.58          1.18        280.74          0.76
    12.38       2240.37       1639.49         11.59          1.15        274.43          0.76
    12.39       2241.53       1640.75         11.60          1.13        271.52          0.76
    12.40       2241.02       1640.75         11.61          1.11        268.62          0.76
    12.41       2244.49       1643.69         11.62          1.09        267.87          0.76
    12.42       2242.31       1642.43         11.62          1.07        263.80          0.76
    12.43       2243.68       1643.69         11.63          1.04        264.96          0.35
    12.44       2244.89       1644.95         11.64          1.02        261.83          0.35
    12.45       2246.26       1646.21         11.64          1.00        264.66          0.35
    12.46       2245.83       1646.21         11.65          0.99        262.13          0.35
    12.47       2245.37       1646.21         11.66          0.97        258.97          0.35
    12.48       2246.79       1647.47         11.66          0.95        258.25          0.76
    12.49       2248.13       1648.73         11.67          0.93        257.32          0.76
    12.50       2249.56       1649.99         11.67          0.92        259.89          0.76
    12.51       2249.26       1649.99         11.68          0.90        258.95          1.18
    12.52       2250.68       1651.25         11.68          0.89        259.08          0.82
    12.53       2252.10       1652.51         11.69          0.88        261.52          0.82
    12.54       2248.43       1649.99         11.69          0.86        254.84          0.82
    12.55       2252.33       1652.93         11.69          0.85        257.37          0.82
    12.56       2253.91       1654.19         11.70          0.83        256.39          0.82
    12.57       2252.11       1652.93         11.70          0.82        251.99          0.82
    12.58       2252.06       1652.93         11.70          0.81        248.62          1.65
    12.59       2250.18       1651.67         11.70          0.79        247.53          2.00
    12.60       2251.82       1652.93         11.70          0.78        249.95          2.00
    12.61       2254.03       1654.61         11.70          0.77        247.71          2.00
    12.62       2254.00       1654.61         11.70          0.76        248.42          2.41
    12.63       2252.34       1653.35         11.70          0.74        246.26          2.41
    12.64       2252.36       1653.35         11.70          0.73        243.43          2.41
    12.65       2255.74       1655.87         11.70          0.72        248.51          2.00
    12.66       2253.32       1654.19         11.71          0.71        245.54          2.00
    12.67       2255.36       1655.87         11.71          0.71        245.84          2.35
    12.68       2256.78       1657.13         11.71          0.70        247.77          1.94
    12.69       2258.28       1658.39         11.72          0.70        246.30          1.94
    12.70       2262.15       1661.33         11.72          0.69        247.07          2.35
    12.71       2262.15       1661.33         11.72          0.69        244.56          2.35
    12.72       2258.26       1658.39         11.72          0.68        233.49          2.35
    12.73       2261.72       1660.91         11.72          0.67        230.95          2.35
    12.74       2263.38       1662.17         11.72          0.67        229.47          2.35
    12.75       2261.50       1660.91         11.72          0.67        220.28          1.53
    12.76       2264.86       1663.43         11.72          0.67        218.59          1.18
    12.77       2264.83       1663.43         11.72          0.67        211.13          1.18
    12.78       2262.57       1661.75         11.72          0.66        204.36          1.18
    12.79       2264.91       1663.43         11.72          0.66        199.37          0.76
    12.80       2264.91       1663.43         11.72          0.66        194.37          0.76
    12.81       2262.57       1661.75         11.72          0.65        184.70          1.12
    12.82       2264.77       1663.43         11.72          0.65        182.46          1.12
    12.83       2266.44       1664.69         11.72          0.65        184.27          1.12
    12.84       2266.35       1664.69         11.73          0.65        179.75          0.76
    12.85       2264.61       1663.43         11.73          0.64        174.24          0.76
    12.86       2269.73       1667.22         11.73          0.64        179.77          0.76
    12.87       2264.48       1663.43         11.73          0.63        170.43          0.76
    12.88       2267.75       1665.96         11.73          0.62        174.23          0.76
    12.89       2265.87       1664.70         11.73          0.62        168.85          0.76
    12.90       2266.91       1665.54         11.74          0.61        167.01          0.76
    12.91       2265.08       1664.28         11.74          0.60        165.85          0.76
    12.92       2268.57       1666.80         11.74          0.58        166.69          0.76
    12.93       2268.60       1666.80         11.74          0.57        163.64          1.12
    12.94       2268.60       1666.80         11.74          0.55        156.53          1.12
    12.95       2268.68       1666.80         11.74          0.53        150.61          1.47
