#Written by Robertson Geologging WinLogger V1.5/410
~VERSION INFORMATION
#------------------------------------------------------------------------------
 VERS. 2.0 : CWLS LOG ASCII STANDARD - VERSION 2.0
 WRAP. NO  : ONE LINE PER DEPTH STEP
~WELL INFORMATION
#MNEM.UNIT         DATA                                DESCRIPTION OF MNEMONIC
#------------------------------------------------------------------------------
 STRT.M          0.0100                            :   START DEPTH
 STOP.M         89.0000                            :   STOP DEPTH
 STEP.M          0.0100                            :   STEP VALUE
 NULL.        -999.2500                            :   NULL VALUE
 COMP.    IWS                                      :   COMPANY NAME
 WELL.    Ladysmith                                :   WELL NAME
 FLD.     N/A                                      :   FIELD NAME
 LOC.     N/A                                      :   LOCATION
 PROV.    N/A                                      :   PROVINCE
 SRVC.    N/A                                      :   SERVICE COMPANY NAME
 DATE.    01 Feb 11                                :   DATE
 UWI.     N/A                                      :   UNIQUE WELL IDENTIFIER
~PARAMETER INFORMATION
#MNEMO.UNIT         VALUE                 DESCRIPTION OF MNEMONIC
#------------------------------------------------------------------------------
~OTHER INFORMATION SECTION
#------------------------------------------------------------------------------
 1365
~CURVE INFORMATION
#MNEMO.UNIT         API CODE              CURVE DESCRIPTION
#------------------------------------------------------------------------------
 DEPTH.M                                 :   0     Depth
 CN25.uS/cm                              :   1     Conductivity@25DegC
 TEMP.DegC                               :   2     Temperature
 DELT.DegC                               :   3     Delta T
 DELC.uS/cm                              :   4     Delta C
#------------------------------------------------------------------------------
~A  DEPTH          CN25          TEMP          DELT          DELC
# ...
     6.11       1230.56          8.94          2.57       1066.53
     6.12       1232.81          8.94          2.58       1012.12
     6.13       1228.27          8.95          2.58        940.89
     6.14       1228.06          8.95          2.59        849.97
     6.15       1227.79          8.96          2.59        740.30
     6.16       1231.78          8.97          2.60        634.93
     6.17       1228.98          8.98          2.61        524.81
     6.18       1228.61          8.99          2.61        415.25
     6.19       1228.26          9.00          2.61        305.22
     6.20       1223.59          9.01          2.60        191.75
     6.21       1225.67          9.02          2.59         85.31
     6.22       1225.29          9.03          2.57         12.07
     6.23       1226.80          9.04          2.55        -37.69
     6.24       1226.51          9.05          2.52        -78.94
     6.25       1226.30          9.05          2.48        -95.85
     6.26       1228.60          9.06          2.44        -91.44
     6.27       1224.10          9.06          2.39        -91.62
     6.28       1223.93          9.07          2.33        -86.70
     6.29       1228.05          9.07          2.28        -84.63
     6.30       1227.86          9.08          2.22        -82.29
     6.31       1227.70          9.08          2.16        -79.89
     6.32       1227.53          9.09          2.11        -72.97
     6.33       1227.35          9.09          2.05        -75.26
     6.34       1222.83          9.10          2.00        -77.24
     6.35       1222.59          9.10          1.94        -74.95
     6.36       1226.57          9.11          1.89        -63.93
     6.37       1221.93          9.12          1.84        -66.23
     6.38       1225.97          9.13          1.79        -61.87
     6.39       1225.67          9.14          1.75        -62.58
     6.40       1221.11          9.14          1.70        -60.50
     6.41       1223.30          9.15          1.65        -56.14
     6.42       1223.00          9.16          1.61        -54.35
     6.43       1220.31          9.17          1.56        -54.98
     6.44       1224.41          9.17          1.52        -46.34
     6.45       1222.35          9.18          1.48        -49.15
     6.46       1226.40          9.18          1.44        -43.44
     6.47       1221.89          9.19          1.41        -46.42
     6.48       1223.55          9.19          1.38        -43.25
     6.49       1221.59          9.20          1.34        -43.79
     6.50       1221.54          9.20          1.31        -42.41
     6.51       1221.46          9.20          1.28        -41.08
     6.52       1223.20          9.20          1.24        -37.94
     6.53       1221.24          9.21          1.21        -38.47
     6.54       1225.36          9.21          1.18        -32.97
     6.55       1219.10          9.22          1.15        -37.94
     6.56       1225.08          9.22          1.12        -32.64
     6.57       1220.75          9.22          1.09        -35.83
     6.58       1223.15          9.22          1.06        -30.43
     6.59       1223.10          9.22          1.04        -29.40
     6.60       1220.57          9.23          1.01        -35.29
     6.61       1222.88          9.23          0.99        -29.49
     6.62       1222.76          9.23          0.97        -28.72
     6.63       1222.65          9.24          0.95        -28.10
     6.64       1222.56          9.24          0.94        -30.09
     6.65       1222.51          9.24          0.93        -26.41
     6.66       1224.25          9.24          0.92        -26.65
     6.67       1219.92          9.24          0.90        -26.00
     6.68       1222.26          9.25          0.89        -23.05
     6.69       1219.68          9.25          0.88        -26.91
     6.70       1219.53          9.26          0.86        -26.42
     6.71       1221.76          9.26          0.85        -23.56
     6.72       1219.18          9.26          0.84        -25.47
     6.73       1223.33          9.27          0.82        -20.59
     6.74       1221.40          9.27          0.80        -21.72
     6.75       1223.20          9.27          0.78        -16.63
     6.76       1221.29          9.27          0.77        -20.93
     6.77       1221.22          9.28          0.75        -22.13
     6.78       1221.16          9.28          0.73        -21.50
     6.79       1221.10          9.28          0.72        -20.87
     6.80       1221.03          9.28          0.70        -20.23
     6.81       1223.37          9.28          0.68        -17.21
     6.82       1220.81          9.29          0.67        -14.75
     6.83       1224.91          9.29          0.66        -14.40
     6.84       1220.43          9.30          0.65        -18.26
     6.85       1220.26          9.30          0.64        -17.83
     6.86       1220.04          9.31          0.62        -17.40
     6.87       1217.42          9.31          0.61        -19.31
     6.88       1219.74          9.32          0.59        -16.30
     6.89       1219.58          9.32          0.58        -15.77
     6.90       1216.96          9.33          0.57        -17.72
     6.91       1219.23          9.33          0.56        -17.30
     6.92       1220.87          9.34          0.55        -11.99
     6.93       1220.70          9.34          0.53        -14.08
     6.94       1218.74          9.34          0.52        -11.15
     6.95       1218.65          9.35          0.51        -13.28
     6.96       1216.10          9.35          0.51        -17.90
     6.97       1218.46          9.35          0.50        -15.23
     6.98       1218.38          9.35          0.50        -15.05
     6.99       1218.24          9.36          0.49        -10.59
     7.00       1218.09          9.36          0.49        -10.44
     7.01       1220.37          9.37          0.49        -12.22
     7.02       1217.78          9.37          0.48        -12.06
     7.03       1217.72          9.37          0.48        -14.97
     7.04       1217.64          9.37          0.47        -12.37
     7.05       1217.57          9.38          0.47        -14.71
     7.06       1217.51          9.38          0.47        -12.10
     7.07       1217.35          9.38          0.47         -9.59
     7.08       1219.09          9.39          0.46        -11.95
     7.09       1218.98          9.39          0.46        -11.82
     7.10       1216.43          9.39          0.45        -14.13
     7.11       1218.77          9.39          0.45        -14.04
     7.12       1216.24          9.40          0.45        -12.03
     7.13       1220.42          9.40          0.44         -7.64
     7.14       1216.08          9.40          0.44        -11.70
     7.15       1216.01          9.40          0.43        -15.78
     7.16       1213.48          9.41          0.43        -15.50
     7.17       1215.79          9.41          0.42        -12.82
     7.18       1215.74          9.41          0.41        -12.52
     7.19       1213.85          9.41          0.40         -9.74
     7.20       1216.22          9.41          0.40         -9.45
     7.21       1216.16          9.42          0.39         -9.13
     7.22       1217.89          9.42          0.38         -8.91
     7.23       1217.78          9.42          0.37         -8.73
     7.24       1213.43          9.42          0.37        -12.87
     7.25       1217.59          9.43          0.37        -11.01
     7.26       1217.54          9.43          0.37         -6.56
     7.27       1217.48          9.43          0.36         -6.45
     7.28       1217.40          9.43          0.36        -10.65
     7.29       1217.29          9.44          0.36        -10.57
     7.30       1218.94          9.44          0.36         -8.76
     7.31       1216.37          9.44          0.36        -11.16
     7.32       1218.67          9.45          0.36         -8.68
