#Written by Robertson Geologging WinLogger V1.5/410
~VERSION INFORMATION
#------------------------------------------------------------------------------
 VERS. 2.0 : CWLS LOG ASCII STANDARD - VERSION 2.0
 WRAP. NO  : ONE LINE PER DEPTH STEP
~WELL INFORMATION
#MNEM.UNIT         DATA                                DESCRIPTION OF MNEMONIC
#------------------------------------------------------------------------------
 STRT.M          0.0600                            :   START DEPTH
 STOP.M         94.0500                            :   STOP DEPTH
 STEP.M          0.0100                            :   STEP VALUE
 NULL.        -999.2500                            :   NULL VALUE
 COMP.    Coal Authority                           :   COMPANY NAME
 WELL.    Ladysmith Shaft                          :   WELL NAME
 FLD.     N/A                                      :   FIELD NAME
 LOC.     N/A                                      :   LOCATION
 PROV.    N/A                                      :   PROVINCE
 SRVC.    N/A                                      :   SERVICE COMPANY NAME
 DATE.    15 Dec 08                                :   DATE
 UWI.     N/A                                      :   UNIQUE WELL IDENTIFIER
~PARAMETER INFORMATION
#MNEMO.UNIT         VALUE                 DESCRIPTION OF MNEMONIC
#------------------------------------------------------------------------------
~OTHER INFORMATION SECTION
#------------------------------------------------------------------------------
 TCDS 1365
 15,12,2008
~CURVE INFORMATION
#MNEMO.UNIT         API CODE              CURVE DESCRIPTION
#------------------------------------------------------------------------------
 DEPTH.M                                 :   0     Depth
 COND.uS/cm                              :   1     Conductivity@25DegC
 COND.uS/cm                              :   2     Absolute Conductivity
 TEMP.DegC                               :   3     Temperature
 DELT.DegC                               :   4     Delta T
 DELC.uS/cm                              :   5     Delta C
 NGAM.CPS                                :   6     Natural Gamma
#------------------------------------------------------------------------------
~A  DEPTH          COND          COND          TEMP          DELT          DELC          NGAM
# ...
    68.00       2295.88       1690.35         11.81         -0.00          0.08          1.47
    68.01       2299.33       1692.87         11.81         -0.00         -1.03          1.47
    68.02       2298.16       1692.03         11.81         -0.00          2.34          1.47
    68.03       2295.31       1689.93         11.81          0.00         -5.17          1.47
    68.04       2298.71       1692.45         11.81          0.00         -1.88          1.47
    68.05       2297.51       1691.61         11.81          0.00          0.27          1.82
    68.06       2298.06       1692.03         11.81          0.00         -3.16          1.82
    68.07       2298.11       1692.03         11.81          0.00         -3.05          1.82
    68.08       2298.19       1692.03         11.81          0.00          1.69          1.47
    68.09       2298.33       1692.03         11.81         -0.00         -1.52          1.06
    68.10       2299.58       1692.88         11.81         -0.00         -0.27          0.71
    68.11       2302.44       1694.98         11.81         -0.01          3.79          0.71
    68.12       2299.04       1692.45         11.81         -0.01          0.41          0.35
    68.13       2300.18       1693.30         11.81         -0.01          1.58          0.35
    68.14       2303.04       1695.40         11.81         -0.01          7.90          0.35
    68.15       2299.58       1692.87         11.81         -0.01          1.09          0.35
    68.16       2300.70       1693.72         11.81         -0.01          3.35          0.35
    68.17       2300.15       1693.29         11.81         -0.01          5.64          0.35
    68.18       2300.10       1693.29         11.81         -0.01          2.09          0.35
    68.19       2304.70       1696.66         11.81         -0.00          6.59          0.35
    68.20       2300.12       1693.29         11.81         -0.00          5.39          0.35
    68.21       2300.10       1693.29         11.81         -0.00          2.42          0.35
    68.22       2300.70       1693.72         11.81         -0.00          1.77          0.35
    68.23       2299.53       1692.87         11.81          0.00          4.00          0.35
    68.24       2302.96       1695.40         11.81          0.00          3.40          0.71
    68.25       2300.15       1693.30         11.81         -0.00          0.63          0.71
    68.26       2300.24       1693.30         11.81         -0.00          1.25          0.71
    68.27       2303.18       1695.40         11.81         -0.00          3.05          0.71
    68.28       2300.32       1693.30         11.81         -0.00          1.34          0.71
    68.29       2303.80       1695.82         11.80         -0.00          4.80          0.71
    68.30       2299.20       1692.45         11.81         -0.00         -0.89          0.71
    68.31       2300.26       1693.30         11.81         -0.00          1.28          0.71
    68.32       2303.69       1695.82         11.81         -0.00          4.17          0.71
    68.33       2300.18       1693.30         11.81         -0.00          0.74          0.71
    68.34       2304.10       1696.24         11.81         -0.00          5.80          0.71
    68.35       2300.64       1693.72         11.81         -0.00          1.80          0.71
    68.36       2300.59       1693.72         11.81          0.00          1.71          0.71
    68.37       2303.36       1695.82         11.81          0.00          8.46          0.71
    68.38       2300.42       1693.72         11.81          0.00          2.12          0.71
    68.39       2303.83       1696.24         11.81          0.00          4.43          0.35
    68.40       2299.20       1692.87         11.81          0.00          3.32          0.35
    68.41       2303.74       1696.24         11.81          0.00          5.12          0.00
    68.42       2302.63       1695.40         11.81         -0.00          3.05          0.00
    68.43       2299.14       1692.87         11.82         -0.00          3.10          0.00
    68.44       2301.95       1694.98         11.82         -0.00          5.99          0.00
    68.45       2299.06       1692.87         11.82         -0.00         -1.41          0.00
    68.46       2301.86       1694.98         11.82         -0.00          4.82          0.00
    68.47       2301.75       1694.98         11.82         -0.00          4.68          0.00
    68.48       2302.24       1695.40         11.82         -0.00          1.17          0.00
    68.49       2301.05       1694.56         11.82          0.00          3.32          0.00
    68.50       2300.99       1694.56         11.82          0.00          3.16          0.00
    68.51       2300.96       1694.56         11.82          0.01         -0.38          0.00
    68.52       2300.91       1694.56         11.82          0.01          3.46          0.00
    68.53       2301.97       1695.40         11.82          0.01          4.49          0.00
    68.54       2304.75       1697.51         11.83          0.01          3.81          0.00
    68.55       2301.89       1695.40         11.83          0.01          2.06          0.00
    68.56       2301.94       1695.40         11.83          0.01          5.55          0.00
    68.57       2302.05       1695.40         11.82          0.01          2.20          0.00
    68.58       2302.19       1695.40         11.82          0.01          2.39          0.00
    68.59       2302.35       1695.40         11.82          0.00          5.50          0.35
    68.60       2303.69       1696.24         11.82         -0.00          4.11          0.35
    68.61       2303.20       1695.82         11.81         -0.00          3.70          0.35
    68.62       2304.40       1696.66         11.81         -0.01          8.36          0.35
    68.63       2301.02       1694.14         11.81         -0.01          3.84          0.35
    68.64       2304.48       1696.66         11.81         -0.01          3.76          0.71
    68.65       2301.73       1694.56         11.81         -0.01          5.55          1.06
    68.66       2304.73       1696.66         11.81         -0.01          7.33          1.06
    68.67       2304.67       1696.66         11.81         -0.00          3.73          1.06
    68.68       2305.13       1697.08         11.81         -0.00          7.57          1.06
    68.69       2305.00       1697.08         11.81          0.00          7.38          1.06
    68.70       2301.37       1694.56         11.82          0.00          3.70          1.06
    68.71       2304.07       1696.66         11.82          0.01          6.37          1.06
    68.72       2304.61       1697.08         11.82          0.01          6.86          1.06
    68.73       2304.58       1697.08         11.82          0.01          6.75          1.06
    68.74       2304.61       1697.08         11.82          0.01          3.32          1.06
    68.75       2304.72       1697.08         11.82          0.01          8.00          1.06
    68.76       2303.55       1696.24         11.82          0.01          5.71          0.71
    68.77       2304.07       1696.66         11.82          0.01          2.85          0.71
    68.78       2304.12       1696.66         11.82          0.01          6.40          0.71
    68.79       2304.18       1696.66         11.82          0.01          3.67          0.71
    68.80       2304.23       1696.66         11.82          0.00          3.76          0.71
    68.81       2304.26       1696.66         11.82          0.00          3.81          0.35
    68.82       2304.78       1697.08         11.82          0.00          4.33          0.00
    68.83       2301.21       1694.56         11.82          0.01          0.79          0.82
    68.84       2304.50       1697.08         11.82          0.01          4.22          1.18
    68.85       2303.22       1696.24         11.82          0.01          3.05          1.18
