#Written by Robertson Geologging WinLogger V1.0/406
~VERSION INFORMATION
#------------------------------------------------------------------------------
 VERS. 2.0 : CWLS LOG ASCII STANDARD - VERSION 2.0
 WRAP. NO  : ONE LINE PER DEPTH STEP
~WELL INFORMATION
#MNEM.UNIT         DATA                                DESCRIPTION OF MNEMONIC
#------------------------------------------------------------------------------
 STRT.M          0.0600                            :   START DEPTH
 STOP.M         95.0200                            :   STOP DEPTH
 STEP.M          0.0100                            :   STEP VALUE
 NULL.        -999.2500                            :   NULL VALUE
 COMP.    Coal Authority                           :   COMPANY NAME
 WELL.    Ladysmith Shaft                          :   WELL NAME
 FLD.     Ladysmith                                :   FIELD NAME
 LOC.     N/A                                      :   LOCATION
 PROV.    N/A                                      :   PROVINCE
 SRVC.    N/A                                      :   SERVICE COMPANY NAME
 DATE.    20 May 08                                :   DATE
 UWI.     N/A                                      :   UNIQUE WELL IDENTIFIER
~PARAMETER INFORMATION
#MNEMO.UNIT         VALUE                 DESCRIPTION OF MNEMONIC
#------------------------------------------------------------------------------
~OTHER INFORMATION SECTION
#------------------------------------------------------------------------------
 TCDS 1365
~CURVE INFORMATION
#MNEMO.UNIT         API CODE              CURVE DESCRIPTION
#------------------------------------------------------------------------------
 DEPTH.M                                 :   0     Depth
 TEMP.DegC                               :   1     Temperature
 COND.uS/cm                              :   2     Absolute Conductivity
 COND.uS/cm                              :   3     Conductivity@25DegC
 DELT.DegC                               :   4     Delta T
 DELC.uS/cm                              :   5     Delta C
#------------------------------------------------------------------------------
~A  DEPTH     TEMP      COND      COND      DELT      DELC      
# ...
    31.74     12.02   1737.53   2346.54      0.00      0.00 
    31.75     12.03   1729.39   2335.24      0.00      0.00 
    31.76     12.02   1737.53   2346.54     -0.01      0.92 
    31.77     12.04   1737.53   2345.62      0.00      4.58 
    31.78     12.03   1737.53   2345.93      0.00     -0.31 
    31.79     12.03   1729.39   2335.24      0.00    -11.30 
    31.80     12.03   1737.53   2345.93      0.02     -1.22 
    31.81     12.03   1737.53   2345.93      0.02      9.78 
    31.82     12.03   1733.92   2341.04      0.01     -5.80 
    31.83     12.03   1733.01   2340.13      0.01     -6.72 
    31.84     12.03   1737.53   2346.24      0.01      4.28 
    31.85     12.03   1737.53   2345.93      0.02     -1.22 
    31.86     12.03   1729.39   2335.24      0.01    -11.91 
    31.87     12.03   1737.53   2346.24      0.01     10.39 
    31.88     12.03   1733.92   2341.04      0.01     -5.50 
    31.89     12.02   1737.53   2346.54     -0.00      0.31 
    31.90     12.02   1737.53   2346.85     -0.01     11.61 
    31.91     12.01   1737.53   2347.15     -0.02      1.53 
    31.92     12.01   1729.39   2336.15     -0.02     -4.59 
    31.93     12.03   1737.53   2346.24     -0.01      0.61 
    31.94     12.03   1737.53   2346.24     -0.00      0.31 
    31.95     12.04   1733.92   2340.74      0.01     -5.80 
    31.96     12.03   1737.53   2346.24      0.00     10.69 
    31.97     12.02   1729.39   2335.85     -0.01    -10.39 
    31.98     12.02   1737.53   2346.54     -0.00      0.31 
    31.99     12.02   1737.53   2346.85     -0.01      0.61 
    32.00     12.03   1737.53   2346.24      0.00      4.89 
    32.01     12.03   1729.39   2334.93      0.02    -12.22 
    32.02     12.03   1737.53   2346.24      0.00     10.69 
    32.03     12.03   1733.92   2341.04      0.02     -6.42 
    32.04     12.03   1737.53   2346.24      0.02     -1.22 
    32.05     12.02   1737.53   2346.54      0.01     10.39 
    32.06     12.03   1729.39   2335.24      0.02    -12.53 
    32.07     12.03   1737.53   2346.24      0.02     -1.22 
    32.08     12.02   1737.53   2346.85      0.01     -0.92 
    32.09     12.02   1737.53   2346.85      0.01     10.09 
    32.10     12.01   1729.39   2336.15     -0.01    -10.39 
    32.11     12.02   1737.53   2346.85     -0.01      0.92 
    32.12     12.02   1737.53   2346.85     -0.01      0.92 
    32.13     12.03   1737.53   2346.24     -0.01     11.91 
    32.14     12.03   1729.39   2335.24     -0.01    -10.38 
    32.15     12.02   1737.53   2346.54     -0.01      0.61 
    32.16     12.03   1737.53   2346.24     -0.00      0.31 
    32.17     12.03   1733.92   2341.35      0.00      5.80 
    32.18     12.03   1737.53   2346.24      0.00     -0.31 
    32.19     12.02   1729.39   2335.54      0.00    -11.00 
    32.20     12.03   1737.53   2346.24      0.00      0.00 
    32.21     12.01   1737.53   2347.15     -0.02     12.22 
    32.22     12.02   1737.53   2346.85     -0.02      1.22 
    32.23     12.01   1729.39   2336.46     -0.02     -9.47 
    32.24     12.01   1737.53   2347.46     -0.02      1.53 
    32.25     12.01   1737.53   2347.15     -0.02     12.22 
    32.26     12.01   1729.39   2336.15     -0.00    -10.69 
    32.27     12.03   1737.53   2345.93      0.01     -0.61 
    32.28     12.03   1737.53   2345.93      0.00      0.00 
    32.29     12.03   1737.53   2346.24     -0.00     11.30 
    32.30     12.02   1729.39   2335.54     -0.02    -13.44 
    32.31     12.02   1740.25   2350.51     -0.02     11.00 
    32.32     12.02   1729.39   2335.54     -0.01     -5.50 
    32.33     12.02   1737.53   2346.54     -0.01      0.61 
    32.34     12.02   1737.53   2346.54     -0.00      0.31 
    32.35     12.01   1729.39   2336.15     -0.02      1.52 
    32.36     12.01   1737.53   2347.46     -0.02      1.22 
    32.37     12.00   1737.53   2347.77     -0.02      1.22 
    32.38     12.00   1737.53   2347.77     -0.01      0.61 
    32.39     12.01   1729.39   2336.46      0.00      0.00 
    32.40     12.01   1737.53   2347.46     -0.01      0.61 
    32.41     12.02   1737.53   2346.85     -0.00      0.31 
    32.42     12.02   1737.53   2346.54     -0.01      0.92 
    32.43     12.02   1729.39   2335.54     -0.01      0.91 
    32.44     12.03   1733.92   2341.04     -0.00     -4.58 
    32.45     12.03   1737.53   2346.24      0.00     -0.31 
    32.46     12.02   1737.53   2346.85     -0.00      5.19 
    32.47     12.01   1737.53   2347.46     -0.01      0.92 
    32.48     11.99   1729.39   2337.37     -0.03      1.83 
    32.49     11.99   1737.53   2348.38     -0.03      1.84 
    32.50     12.00   1737.53   2348.07     -0.02      1.53 
    32.51     12.00   1737.53   2347.77     -0.02      1.22 
    32.52     12.01   1729.39   2336.15     -0.00      0.30 
    32.53     12.01   1737.53   2347.46     -0.01      0.92 
    32.54     12.01   1737.53   2347.46     -0.02      1.22 
    32.55     12.01   1729.39   2336.46     -0.02     -9.47 
    32.56     12.01   1737.53   2347.46     -0.02     12.52 
    32.57     12.01   1737.53   2347.15     -0.02      6.11 
    32.58     12.02   1737.53   2346.54     -0.00     11.30 
    32.59     12.03   1729.39   2334.93      0.01    -11.91 
    32.60     12.04   1737.53   2345.62      0.02     -1.22 
    32.61     12.04   1737.53   2345.62      0.02     -1.22 
    32.62     12.02   1733.92   2341.96      0.00      6.11 
    32.63     12.01   1737.53   2347.15     -0.00      0.31 
    32.64     12.00   1729.39   2337.07     -0.02     -9.47 
    32.65     11.99   1737.53   2348.68     -0.03      2.14 
    32.66     12.00   1737.53   2348.07     -0.02     12.22 
    32.67     11.99   1737.53   2348.38     -0.03      1.84 
    32.68     12.00   1729.39   2336.76     -0.02     -9.78 
    32.69     12.01   1737.53   2347.15     -0.01      0.92 
    32.70     12.02   1737.53   2346.85     -0.01     11.91 
    32.71     12.02   1729.39   2335.85     -0.01    -10.08 
    32.72     12.01   1737.53   2347.15     -0.01      0.61 
    32.73     12.02   1737.53   2346.54      0.00      0.00 
    32.74     12.02   1737.53   2346.85     -0.01     11.61 
    32.75     12.02   1729.39   2335.54      0.00    -11.00 
    32.76     12.02   1737.53   2346.85     -0.02      1.22 
    32.77     12.02   1737.53   2346.85     -0.01      0.92 
    32.78     12.02   1737.53   2346.54     -0.00     11.30 
    32.79     12.02   1733.92   2341.96     -0.01     -3.97 
    32.80     12.03   1729.39   2335.24     -0.00    -10.69 
    32.81     12.02   1737.53   2346.54     -0.01      5.50 
    32.82     12.02   1737.53   2346.85     -0.01      6.72 
    32.83     12.02   1737.53   2346.85     -0.01      0.61 
    32.84     12.02   1729.39   2335.54     -0.01    -10.39 
    32.85     12.02   1737.53   2346.54     -0.00     11.30 
    32.86     12.03   1733.92   2341.35      0.00     -4.89 
    32.87     12.03   1737.53   2346.24     -0.00      5.19 
    32.88     12.03   1737.53   2346.24      0.00     -0.31 
    32.89     12.02   1729.39   2335.54      0.00    -11.30 
    32.90     12.02   1737.53   2346.85      0.00     -0.31 
    32.91     12.02   1737.53   2346.54      0.01     10.39 
    32.92     12.02   1737.53   2346.85     -0.01      0.61 
    32.93     12.02   1729.39   2335.54     -0.00    -10.69 
    32.94     12.02   1737.53   2346.54     -0.01      5.80 
    32.95     12.01   1737.53   2347.15     -0.01      0.92 
    32.96     12.02   1729.39   2335.85      0.00      0.00 
    32.97     12.02   1737.53   2346.85     -0.00      0.31 
    32.98     12.02   1737.53   2346.85      0.00      0.00 
    32.99     12.02   1737.53   2346.54     -0.00      0.31 
    33.00     12.02   1729.39   2335.85     -0.01      0.91 
    33.01     12.02   1737.53   2346.85     -0.01      0.61 
    33.02     12.02   1737.53   2346.85     -0.01      5.80 
    33.03     12.01   1737.53   2347.46     -0.02      1.22 
    33.04     12.01   1729.39   2336.15     -0.01    -10.39 
    33.05     12.01   1737.53   2347.46     -0.02     12.22 
