#Written by Robertson Geologging WinLogger V1.5/410
~VERSION INFORMATION
#------------------------------------------------------------------------------
 VERS. 2.0 : CWLS LOG ASCII STANDARD - VERSION 2.0
 WRAP. NO  : ONE LINE PER DEPTH STEP
~WELL INFORMATION
#MNEM.UNIT         DATA                                DESCRIPTION OF MNEMONIC
#------------------------------------------------------------------------------
 STRT.M          2.0200                            :   START DEPTH
 STOP.M         91.0000                            :   STOP DEPTH
 STEP.M          0.0100                            :   STEP VALUE
 NULL.        -999.2500                            :   NULL VALUE
 COMP.    IWS                                      :   COMPANY NAME
 WELL.    LADYSMITH                                :   WELL NAME
 FLD.     DURHAM                                   :   FIELD NAME
 LOC.     N/A                                      :   LOCATION
 PROV.    N/A                                      :   PROVINCE
 SRVC.    N/A                                      :   SERVICE COMPANY NAME
 DATE.    16 Dec 09                                :   DATE
 UWI.     N/A                                      :   UNIQUE WELL IDENTIFIER
~PARAMETER INFORMATION
#MNEMO.UNIT         VALUE                 DESCRIPTION OF MNEMONIC
#------------------------------------------------------------------------------
~OTHER INFORMATION SECTION
#------------------------------------------------------------------------------
 TCDS 1365
~CURVE INFORMATION
#MNEMO.UNIT         API CODE              CURVE DESCRIPTION
#------------------------------------------------------------------------------
 DEPTH.M                                 :   0     Depth
 TEMP.DegC                               :   1     Temperature
 COND.uS/cm                              :   2     Conductivity@25DegC
 COND.uS/cm                              :   3     Absolute Conductivity
 DELT.DegC                               :   4     Delta T
 DELC.uS/cm                              :   5     Delta C
#------------------------------------------------------------------------------
~A  DEPTH          TEMP          COND          COND          DELT          DELC
# ...
    72.02         11.74       2191.74       1610.55          0.01          3.71
    72.03         11.74       2196.77       1614.33          0.01          8.87
    72.04         11.74       2196.12       1613.91          0.01          3.16
    72.05         11.75       2196.07       1613.91          0.01          2.62
    72.06         11.75       2196.04       1613.91          0.01          3.24
    72.07         11.75       2196.04       1613.91          0.01          2.72
    72.08         11.75       2196.01       1613.91          0.01          3.26
    72.09         11.75       2196.53       1614.33          0.01          3.19
    72.10         11.75       2195.94       1613.91          0.01          3.13
    72.11         11.75       2195.91       1613.91          0.01          2.56
    72.12         11.75       2195.94       1613.91          0.01          3.16
    72.13         11.75       2196.58       1614.33          0.01          3.16
    72.14         11.75       2196.64       1614.33          0.01          3.68
    72.15         11.74       2196.69       1614.33          0.02          8.22
    72.16         11.74       2197.29       1614.75          0.02          4.17
    72.17         11.74       2197.36       1614.75          0.01          3.70
    72.18         11.74       2197.44       1614.75          0.01          4.41
    72.19         11.74       2197.49       1614.75          0.01          3.97
    72.20         11.74       2196.95       1614.33          0.01          3.99
    72.21         11.74       2197.55       1614.75          0.01          4.59
    72.22         11.74       2197.55       1614.75          0.01          4.51
    72.23         11.74       2197.52       1614.75          0.01          4.43
    72.24         11.74       2202.09       1618.10          0.01          9.02
    72.25         11.74       2197.55       1614.75          0.01         -0.63
    72.26         11.74       2197.60       1614.75          0.01         -0.50
    72.27         11.74       2197.16       1614.33          0.01          4.23
    72.28         11.74       2197.24       1614.33          0.00          4.31
    72.29         11.73       2202.43       1618.10          0.00          9.49
    72.30         11.73       2197.89       1614.75          0.00          4.95
    72.31         11.73       2197.94       1614.75          0.00          5.09
    72.32         11.73       2197.97       1614.75         -0.00          4.64
    72.33         11.73       2203.13       1618.52         -0.00         10.48
    72.34         11.73       2203.21       1618.52         -0.01          5.45
    72.35         11.73       2198.15       1614.75         -0.01          0.96
    72.36         11.73       2198.20       1614.75         -0.01          5.53
    72.37         11.73       2198.17       1614.75         -0.00          5.94
    72.38         11.73       2203.16       1618.52         -0.00         10.30
    72.39         11.73       2202.97       1618.52          0.00         10.64
    72.40         11.74       2197.70       1614.75          0.01          4.80
    72.41         11.74       2197.65       1614.75          0.01          5.37
    72.42         11.74       2202.74       1618.52          0.01          9.91
    72.43         11.74       2202.74       1618.52          0.01          5.32
    72.44         11.74       2197.55       1614.75          0.01         -0.47
    72.45         11.74       2197.44       1614.75          0.01          4.56
    72.46         11.74       2197.34       1614.75          0.01          3.86
    72.47         11.74       2201.85       1618.10          0.01          8.43
    72.48         11.74       2201.85       1618.10          0.01          8.48
    72.49         11.74       2197.39       1614.75          0.01          4.59
    72.50         11.74       2196.98       1614.33          0.01          3.58
    72.51         11.74       2197.65       1614.75          0.01         -0.39
    72.52         11.74       2202.30       1618.10          0.01          3.58
    72.53         11.74       2197.78       1614.75          0.01         -0.47
    72.54         11.74       2197.21       1614.33          0.01          3.45
    72.55         11.74       2197.81       1614.75          0.01          4.48
    72.56         11.73       2202.48       1618.10          0.01          8.48
    72.57         11.73       2203.13       1618.52          0.01          9.65
    72.58         11.73       2198.07       1614.75          0.01          0.02
    72.59         11.73       2198.67       1615.17          0.01          0.70
    72.60         11.73       2203.18       1618.52          0.01          5.32
    72.61         11.73       2203.65       1618.94          0.01          5.89
    72.62         11.73       2202.97       1618.52          0.01         10.43
    72.63         11.74       2197.68       1614.75          0.01          5.19
    72.64         11.74       2202.11       1618.10          0.01          4.54
    72.65         11.74       2202.03       1618.10          0.01          4.48
    72.66         11.74       2201.96       1618.10          0.01          4.43
    72.67         11.74       2196.77       1614.33          0.01         -0.71
    72.68         11.74       2201.25       1617.68          0.01          3.81
    72.69         11.75       2201.18       1617.68          0.01          8.35
    72.70         11.75       2201.12       1617.68          0.01          8.29
    72.71         11.75       2195.96       1613.91          0.01         -2.00
    72.72         11.75       2200.53       1617.26          0.01          2.53
    72.73         11.75       2200.55       1617.26          0.01          2.59
    72.74         11.75       2201.20       1617.68          0.01          3.26
    72.75         11.74       2196.12       1613.91          0.01          2.75
    72.76         11.74       2201.31       1617.68          0.01          8.53
    72.77         11.74       2200.76       1617.26          0.01          7.44
    72.78         11.74       2201.31       1617.68          0.01          3.45
    72.79         11.74       2196.14       1613.91          0.01         -2.18
    72.80         11.74       2201.28       1617.68          0.01          3.58
    72.81         11.74       2200.76       1617.26          0.01          3.11
    72.82         11.74       2201.41       1617.68          0.00          8.40
    72.83         11.74       2196.35       1613.91          0.00          3.97
    72.84         11.74       2201.54       1617.68         -0.00          4.02
    72.85         11.74       2200.97       1617.26         -0.00          4.10
    72.86         11.74       2201.54       1617.68         -0.00          4.75
    72.87         11.74       2196.38       1613.91         -0.00         -0.36
    72.88         11.74       2201.49       1617.68         -0.01          4.88
    72.89         11.74       2200.92       1617.26         -0.01          9.50
    72.90         11.74       2201.57       1617.68         -0.01          5.50
    72.91         11.74       2201.65       1617.68         -0.01          5.50
    72.92         11.74       2202.24       1618.10         -0.01          5.48
    72.93         11.74       2201.67       1617.68         -0.00          5.40
    72.94         11.74       2202.19       1618.10         -0.00          5.35
    72.95         11.74       2202.11       1618.10         -0.00         10.46
    72.96         11.74       2202.11       1618.10         -0.00          5.27
    72.97         11.74       2201.54       1617.68         -0.00          5.21
    72.98         11.74       2202.11       1618.10         -0.00          5.19
    72.99         11.74       2202.11       1618.10          0.00          5.65
    73.00         11.74       2202.63       1618.52          0.00          5.63
    73.01         11.74       2201.98       1618.10          0.00         10.25
