#Written by Robertson Geologging WinLogger V1.0/406
~VERSION INFORMATION
#------------------------------------------------------------------------------
 VERS. 2.0 : CWLS LOG ASCII STANDARD - VERSION 2.0
 WRAP. NO  : ONE LINE PER DEPTH STEP
~WELL INFORMATION
#MNEM.UNIT         DATA                                DESCRIPTION OF MNEMONIC
#------------------------------------------------------------------------------
 STRT.M          0.0600                            :   START DEPTH
 STOP.M         95.0200                            :   STOP DEPTH
 STEP.M          0.0100                            :   STEP VALUE
 NULL.        -999.2500                            :   NULL VALUE
 COMP.    Coal Authority                           :   COMPANY NAME
 WELL.    Ladysmith Shaft                          :   WELL NAME
 FLD.     Ladysmith                                :   FIELD NAME
 LOC.     N/A                                      :   LOCATION
 PROV.    N/A                                      :   PROVINCE
 SRVC.    N/A                                      :   SERVICE COMPANY NAME
 DATE.    20 May 08                                :   DATE
 UWI.     N/A                                      :   UNIQUE WELL IDENTIFIER
~PARAMETER INFORMATION
#MNEMO.UNIT         VALUE                 DESCRIPTION OF MNEMONIC
#------------------------------------------------------------------------------
~OTHER INFORMATION SECTION
#------------------------------------------------------------------------------
 TCDS 1365
~CURVE INFORMATION
#MNEMO.UNIT         API CODE              CURVE DESCRIPTION
#------------------------------------------------------------------------------
 DEPTH.M                                 :   0     Depth
 TEMP.DegC                               :   1     Temperature
 COND.uS/cm                              :   2     Absolute Conductivity
 COND.uS/cm                              :   3     Conductivity@25DegC
 DELT.DegC                               :   4     Delta T
 DELC.uS/cm                              :   5     Delta C
#------------------------------------------------------------------------------
~A  DEPTH     TEMP      COND      COND      DELT      DELC      
# ...
    68.70     12.07   1752.01   2363.01      0.00      0.00 
    68.71     12.07   1744.77   2353.25      0.01    -10.38 
    68.72     12.07   1752.01   2363.32     -0.01      7.94 
    68.73     12.08   1752.01   2362.71      0.00     -0.31 
    68.74     12.08   1746.58   2355.08      0.00      2.13 
    68.75     12.08   1752.01   2362.71      0.01     -1.84 
    68.76     12.08   1744.77   2352.94      0.01     -0.61 
    68.77     12.07   1752.01   2363.01      0.00     -0.31 
    68.78     12.07   1744.77   2353.25      0.01      5.19 
    68.79     12.07   1752.01   2363.01      0.01     -0.92 
    68.80     12.08   1746.58   2355.38      0.02      1.21 
    68.81     12.07   1752.01   2363.01      0.00     -1.22 
    68.82     12.07   1752.01   2363.01     -0.00     10.07 
    68.83     12.08   1744.77   2352.64     -0.00     -9.45 
    68.84     12.08   1752.92   2363.62     -0.00      8.85 
    68.85     12.09   1744.77   2352.33      0.01    -10.38 
    68.86     12.08   1752.01   2362.71     -0.00      0.31 
    68.87     12.06   1744.77   2353.86     -0.01     -1.52 
    68.88     12.06   1752.92   2364.85     -0.01      2.14 
    68.89     12.06   1744.77   2353.86     -0.01      0.61 
    68.90     12.06   1752.01   2363.94     -0.01     -0.61 
    68.91     12.06   1746.58   2356.30     -0.00      2.75 
    68.92     12.07   1752.01   2363.32      0.00      0.00 
    68.93     12.08   1752.01   2362.71      0.00      7.02 
    68.94     12.08   1744.77   2352.64      0.01    -10.38 
    68.95     12.07   1752.92   2364.23      0.00      1.22 
    68.96     12.06   1744.77   2353.86     -0.01     -1.52 
    68.97     12.07   1752.01   2363.32     -0.01      0.92 
    68.98     12.06   1746.58   2356.30     -0.02      3.97 
    68.99     12.07   1752.01   2363.01     -0.02      0.01 
    69.00     12.08   1744.77   2352.94     -0.00      0.31 
    69.01     12.07   1752.92   2364.23     -0.01      1.84 
    69.02     12.07   1744.77   2353.56     -0.01     -1.83 
    69.03     12.07   1752.01   2363.32      0.00      0.00 
    69.04     12.06   1752.01   2363.94     -0.00     10.07 
    69.05     12.05   1746.58   2356.92     -0.01     -6.71 
    69.06     12.07   1752.01   2363.32      0.00      7.32 
    69.07     12.07   1744.77   2353.56      0.00    -10.07 
    69.08     12.08   1752.01   2362.40      0.01     -0.62 
    69.09     12.08   1746.58   2355.38      0.00      2.44 
    69.10     12.07   1752.01   2363.01     -0.00     -0.91 
    69.11     12.08   1744.77   2352.64      0.00     -0.31 
    69.12     12.08   1752.92   2363.93      0.01      0.61 
    69.13     12.08   1744.77   2352.64      0.02     -1.53 
    69.14     12.09   1752.01   2361.78      0.03     -3.37 
    69.15     12.08   1752.01   2362.40      0.02     -1.54 
    69.16     12.07   1746.58   2355.69      0.01      1.83 
    69.17     12.07   1752.01   2363.01     -0.00      0.31 
    69.18     12.07   1744.77   2353.56     -0.01     -1.52 
    69.19     12.07   1752.92   2364.54     -0.01      2.14 
    69.20     12.07   1744.77   2353.25     -0.01      0.61 
    69.21     12.07   1752.01   2363.01      0.00      0.00 
    69.22     12.08   1744.77   2352.64      0.00    -10.07 
    69.23     12.08   1752.92   2363.62      0.00     10.68 
    69.24     12.09   1744.77   2352.03      0.02    -10.99 
    69.25     12.09   1752.01   2361.78      0.01      6.40 
    69.26     12.08   1746.58   2355.08      0.01     -7.94 
    69.27     12.08   1752.01   2362.71      0.00      9.76 
    69.28     12.08   1752.01   2362.71      0.00      0.00 
    69.29     12.08   1744.77   2352.94      0.00    -10.07 
    69.30     12.08   1752.92   2363.93      0.01      7.62 
    69.31     12.07   1744.77   2353.25      0.01    -10.38 
    69.32     12.07   1752.01   2363.01      0.01      8.84 
    69.33     12.06   1744.77   2353.86      0.00     -9.77 
    69.34     12.07   1752.92   2364.23     -0.00     11.29 
    69.35     12.08   1744.77   2352.64      0.00    -11.29 
    69.36     12.08   1752.01   2362.40      0.00      9.46 
    69.37     12.09   1752.01   2362.09      0.01     -0.92 
    69.38     12.09   1746.58   2354.77      0.01     -7.94 
    69.39     12.09   1752.01   2362.09      0.00      9.45 
    69.40     12.09   1744.77   2352.33      0.00    -11.29 
    69.41     12.09   1752.01   2361.78      0.00      9.45 
    69.42     12.09   1746.58   2354.77      0.01     -7.94 
    69.43     12.08   1752.01   2362.40      0.00     -0.31 
    69.44     12.07   1744.77   2353.25     -0.01     -1.83 
    69.45     12.07   1752.01   2363.01      0.00      0.00 
    69.46     12.07   1752.01   2363.32     -0.00     10.07 
    69.47     12.06   1746.58   2356.30     -0.01     -6.71 
    69.48     12.06   1752.01   2363.63     -0.00      7.63 
    69.49     12.06   1744.77   2353.86     -0.02     -8.54 
    69.50     12.07   1752.01   2363.32     -0.02     10.99 
    69.51     12.07   1744.77   2353.25     -0.01    -10.37 
    69.52     12.08   1752.92   2363.93     -0.00     11.29 
    69.53     12.08   1744.77   2352.94      0.00    -10.07 
    69.54     12.07   1752.01   2363.01      0.00      7.32 
    69.55     12.08   1752.01   2362.40      0.01     -0.62 
    69.56     12.08   1744.77   2352.94      0.00    -10.07 
    69.57     12.07   1752.92   2364.54     -0.01     11.91 
    69.58     12.07   1744.77   2353.56     -0.02     -9.76 
    69.59     12.06   1752.01   2363.94     -0.02     11.30 
    69.60     12.06   1744.77   2353.86     -0.01     -8.84 
    69.61     12.07   1752.01   2363.32      0.00      9.77 
    69.62     12.08   1746.58   2355.38      0.01     -9.16 
    69.63     12.07   1752.01   2363.01      0.00      9.46 
    69.64     12.07   1752.01   2363.01      0.01     -0.62 
    69.65     12.07   1744.77   2353.25      0.00    -10.07 
    69.66     12.07   1752.01   2363.32      0.00      9.77 
    69.67     12.07   1746.58   2355.69      0.00     -8.54 
    69.68     12.06   1752.01   2363.63     -0.01     10.69 
    69.69     12.07   1744.77   2353.25      0.00     -9.76 
    69.70     12.08   1752.01   2362.71      0.00      9.46 
    69.71     12.07   1746.58   2355.69      0.00     -7.63 
    69.72     12.08   1752.01   2362.71      0.00      0.00 
    69.73     12.07   1752.01   2363.01     -0.01      7.94 
    69.74     12.07   1744.77   2353.25     -0.00     -9.46 
    69.75     12.08   1752.92   2363.62      0.00     10.68 
    69.76     12.08   1744.77   2352.64      0.01    -10.38 
    69.77     12.08   1752.01   2362.40      0.01      9.15 
    69.78     12.08   1746.58   2355.38      0.00     -7.63 
    69.79     12.07   1752.01   2363.32     -0.01      7.94 
    69.80     12.07   1744.77   2353.25      0.00     -9.76 
    69.81     12.08   1752.01   2362.40      0.01     -0.62 
    69.82     12.07   1746.58   2356.00     -0.01      3.36 
    69.83     12.07   1752.01   2363.01     -0.01     -0.61 
    69.84     12.08   1744.77   2352.64     -0.00      0.31 
    69.85     12.07   1752.01   2363.01     -0.00      0.31 
    69.86     12.08   1746.58   2355.08      0.02      1.21 
    69.87     12.08   1752.01   2362.71      0.01     -2.14 
    69.88     12.06   1752.01   2363.94     -0.00     10.07 
    69.89     12.06   1744.77   2353.86      0.00    -10.07 
    69.90     12.06   1752.01   2363.63      0.00      7.33 
    69.91     12.07   1746.58   2356.00      0.00     -7.32 
    69.92     12.07   1752.01   2363.01     -0.00      0.31 
    69.93     12.07   1744.77   2353.25     -0.01      0.61 
    69.94     12.07   1752.01   2363.01      0.00     -1.22 
    69.95     12.07   1752.01   2363.32      0.00      9.46 
    69.96     12.07   1746.58   2356.00      0.00     -7.32 
    69.97     12.06   1752.01   2363.94     -0.00      7.63 
    69.98     12.06   1744.77   2354.17     -0.01     -8.84 
    69.99     12.06   1752.01   2363.63     -0.01     10.69 
    70.00     12.06   1744.77   2354.17     -0.01    -10.07 
    70.01     12.06   1752.01   2363.63     -0.00     10.07 
