#Written by Robertson Geologging WinLogger V1.0/406
~VERSION INFORMATION
#------------------------------------------------------------------------------
 VERS. 2.0 : CWLS LOG ASCII STANDARD - VERSION 2.0
 WRAP. NO  : ONE LINE PER DEPTH STEP
~WELL INFORMATION
#MNEM.UNIT         DATA                                DESCRIPTION OF MNEMONIC
#------------------------------------------------------------------------------
 STRT.M          0.0600                            :   START DEPTH
 STOP.M         95.0200                            :   STOP DEPTH
 STEP.M          0.0100                            :   STEP VALUE
 NULL.        -999.2500                            :   NULL VALUE
 COMP.    Coal Authority                           :   COMPANY NAME
 WELL.    Ladysmith Shaft                          :   WELL NAME
 FLD.     Ladysmith                                :   FIELD NAME
 LOC.     N/A                                      :   LOCATION
 PROV.    N/A                                      :   PROVINCE
 SRVC.    N/A                                      :   SERVICE COMPANY NAME
 DATE.    20 May 08                                :   DATE
 UWI.     N/A                                      :   UNIQUE WELL IDENTIFIER
~PARAMETER INFORMATION
#MNEMO.UNIT         VALUE                 DESCRIPTION OF MNEMONIC
#------------------------------------------------------------------------------
~OTHER INFORMATION SECTION
#------------------------------------------------------------------------------
 TCDS 1365
~CURVE INFORMATION
#MNEMO.UNIT         API CODE              CURVE DESCRIPTION
#------------------------------------------------------------------------------
 DEPTH.M                                 :   0     Depth
 TEMP.DegC                               :   1     Temperature
 COND.uS/cm                              :   2     Absolute Conductivity
 COND.uS/cm                              :   3     Conductivity@25DegC
 DELT.DegC                               :   4     Delta T
 DELC.uS/cm                              :   5     Delta C
#------------------------------------------------------------------------------
~A  DEPTH     TEMP      COND      COND      DELT      DELC      
# ...
    62.10     12.08   1752.01   2362.40      0.02      3.65 
    62.11     12.10   1752.01   2361.48      0.03     -2.15 
    62.12     12.09   1744.77   2352.03      0.03    -11.60 
    62.13     12.08   1751.11   2361.18      0.02      4.87 
    62.14     12.09   1752.01   2362.09      0.03     -0.93 
    62.15     12.08   1746.58   2355.38      0.03      0.29 
    62.16     12.07   1752.01   2363.01      0.02     -1.54 
    62.17     12.08   1752.01   2362.71      0.01     -0.92 
    62.18     12.06   1744.77   2353.86     -0.01      0.92 
    62.19     12.06   1752.01   2363.94     -0.03      2.15 
    62.20     12.04   1744.77   2355.09     -0.04      2.45 
    62.21     12.04   1752.01   2364.86     -0.02      1.23 
    62.22     12.04   1752.01   2364.86     -0.01      0.62 
    62.23     12.04   1744.77   2355.09     -0.00      0.31 
    62.24     12.05   1752.01   2364.25      0.00     -0.31 
    62.25     12.05   1752.01   2364.25     -0.00     10.08 
    62.26     12.06   1744.77   2353.86      0.01     -9.47 
    62.27     12.07   1752.01   2363.01      0.01     -0.92 
    62.28     12.07   1752.01   2363.01      0.01      9.15 
    62.29     12.07   1746.58   2355.69      0.00     -7.63 
    62.30     12.08   1752.01   2362.71      0.01     -0.62 
    62.31     12.06   1744.77   2353.86     -0.00      0.31 
    62.32     12.07   1752.01   2363.01      0.00     -0.31 
    62.33     12.07   1744.77   2353.25      0.00     -0.31 
    62.34     12.07   1752.92   2364.54     -0.00      1.53 
    62.35     12.07   1752.01   2363.01     -0.01      0.62 
    62.36     12.06   1744.77   2353.86     -0.03      1.84 
    62.37     12.07   1752.01   2363.01     -0.01      0.92 
    62.38     12.08   1737.53   2343.18      0.00    -12.20 
    62.39     12.08   1752.92   2363.93      0.01      0.30 
    62.40     12.08   1752.01   2362.71      0.03      7.92 
    62.41     12.08   1744.77   2352.94      0.03    -11.61 
    62.42     12.08   1752.01   2362.71      0.02     -1.23 
    62.43     12.08   1746.58   2355.08      0.01      1.52 
    62.44     12.09   1752.01   2362.09      0.01      6.40 
    62.45     12.07   1744.77   2353.56     -0.00     -9.46 
    62.46     12.07   1752.01   2363.01      0.01     -0.92 
    62.47     12.07   1752.01   2363.32      0.02      8.23 
    62.48     12.07   1746.58   2355.69      0.03     -9.48 
    62.49     12.08   1752.01   2362.40      0.02      8.23 
    62.50     12.09   1744.77   2352.33      0.01    -11.90 
    62.51     12.08   1752.01   2362.40      0.01      9.15 
    62.52     12.08   1752.01   2362.40      0.02     -1.23 
    62.53     12.08   1744.77   2352.64      0.03    -11.92 
    62.54     12.08   1752.01   2362.40      0.05      6.70 
    62.55     12.08   1746.58   2355.08      0.04     -9.78 
    62.56     12.07   1752.01   2363.32      0.01      9.15 
    62.57     12.06   1752.01   2363.63      0.00     -1.53 
    62.58     12.06   1744.77   2353.86      0.00      0.00 
    62.59     12.06   1752.01   2363.63      0.01     -0.62 
    62.60     12.08   1752.01   2362.71      0.02     -1.23 
    62.61     12.07   1746.58   2355.69      0.01      1.83 
    62.62     12.07   1752.01   2363.01      0.00      0.00 
    62.63     12.07   1744.77   2353.25     -0.00     -2.13 
    62.64     12.06   1752.92   2364.85      0.00      1.22 
    62.65     12.05   1744.77   2354.48     -0.01     -9.15 
    62.66     12.04   1752.01   2364.86     -0.01     10.69 
    62.67     12.05   1746.58   2356.92     -0.01     -6.71 
    62.68     12.06   1752.01   2363.63     -0.01     10.38 
    62.69     12.08   1752.01   2362.71     -0.00     -0.91 
    62.70     12.08   1746.58   2355.08      0.00      2.13 
    62.71     12.07   1752.01   2363.32     -0.01      0.62 
    62.72     12.07   1744.77   2353.56     -0.00     -9.46 
    62.73     12.07   1752.92   2364.54      0.00     10.99 
    62.74     12.06   1744.77   2354.17     -0.01     -8.84 
    62.75     12.07   1752.01   2363.01      0.00      9.46 
    62.76     12.07   1752.01   2363.01      0.00     -0.31 
    62.77     12.06   1746.58   2356.61     -0.01      0.92 
    62.78     12.06   1752.01   2363.63     -0.00      0.31 
    62.79     12.06   1744.77   2354.17     -0.00     -9.46 
    62.80     12.05   1752.92   2365.77     -0.02     12.22 
    62.81     12.06   1744.77   2353.86      0.00     -9.77 
    62.82     12.08   1752.01   2362.71      0.01     -0.62 
    62.83     12.08   1746.58   2355.38      0.00      2.13 
    62.84     12.09   1752.01   2361.78      0.01     -0.92 
    62.85     12.08   1752.92   2363.93      0.00     10.98 
    62.86     12.07   1744.77   2353.25      0.00     -9.76 
    62.87     12.07   1752.01   2363.32      0.01      6.71 
    62.88     12.06   1744.77   2353.86      0.01    -10.38 
    62.89     12.07   1752.92   2364.54      0.02     -0.01 
    62.90     12.07   1752.01   2363.32      0.01      8.85 
    62.91     12.07   1744.77   2353.56      0.01    -10.69 
    62.92     12.07   1752.92   2364.23      0.01      0.30 
    62.93     12.07   1744.77   2353.56     -0.00      0.31 
    62.94     12.08   1752.92   2363.93      0.00      0.91 
    62.95     12.08   1744.77   2352.94     -0.00     -9.46 
    62.96     12.08   1752.01   2362.71     -0.01     10.38 
    62.97     12.09   1752.01   2362.09      0.00     -0.31 
    62.98     12.08   1746.58   2355.38     -0.00      2.75 
    62.99     12.08   1752.01   2362.71     -0.00      0.31 
    63.00     12.08   1746.58   2355.08      0.00     -7.63 
    63.01     12.07   1752.01   2363.01      0.00      9.76 
    63.02     12.08   1744.77   2352.64      0.01    -10.68 
    63.03     12.08   1752.92   2363.62      0.01      7.93 
    63.04     12.08   1744.77   2352.94      0.00    -10.07 
    63.05     12.07   1752.01   2363.01     -0.00      1.53 
    63.06     12.06   1752.01   2363.63     -0.01     10.69 
    63.07     12.06   1746.58   2356.30     -0.01     -7.62 
    63.08     12.06   1752.01   2363.94     -0.02     10.99 
    63.09     12.06   1744.77   2354.17     -0.02     -8.23 
    63.10     12.06   1752.01   2363.94     -0.04      2.46 
    63.11     12.06   1746.58   2356.61     -0.03      4.59 
    63.12     12.06   1752.01   2363.63     -0.02      2.45 
    63.13     12.07   1752.01   2363.32     -0.02      1.23 
    63.14     12.07   1746.58   2356.00     -0.01      0.61 
    63.15     12.07   1752.01   2363.32     -0.00      0.31 
    63.16     12.07   1744.77   2353.56     -0.01     -9.15 
    63.17     12.08   1752.01   2362.71      0.01      8.84 
    63.18     12.08   1752.01   2362.71      0.02     -1.23 
    63.19     12.08   1746.58   2355.08      0.04     -0.01 
    63.20     12.09   1752.01   2362.09      0.04     -2.77 
    63.21     12.08   1744.77   2352.64      0.04    -12.22 
    63.22     12.08   1752.01   2362.40      0.04      7.31 
    63.23     12.08   1744.77   2352.94      0.02    -11.30 
    63.24     12.07   1752.92   2364.23      0.02     -0.01 
    63.25     12.07   1752.01   2363.32      0.00      9.46 
    63.26     12.07   1744.77   2353.56     -0.00     -9.46 
    63.27     12.07   1752.01   2363.01      0.00      0.00 
    63.28     12.07   1744.77   2353.56     -0.00     -2.13 
    63.29     12.08   1752.92   2363.62      0.00      0.91 
    63.30     12.08   1744.77   2352.64      0.02     -1.23 
    63.31     12.08   1752.01   2362.71      0.00     -0.31 
    63.32     12.07   1752.01   2363.01      0.00      9.76 
    63.33     12.06   1744.77   2354.17     -0.01    -10.37 
    63.34     12.06   1752.01   2363.94     -0.01      0.92 
    63.35     12.06   1746.58   2356.30      0.00      2.44 
    63.36     12.07   1752.01   2363.32     -0.00      0.31 
    63.37     12.07   1752.01   2363.01     -0.00     19.83 
    63.38     12.07   1746.58   2355.69     -0.00     -8.24 
    63.39     12.08   1752.01   2362.71      0.00      0.00 
    63.40     12.07   1744.77   2353.25     -0.00      0.31 
    63.41     12.07   1752.01   2363.01     -0.00      0.31 
