#Written by Robertson Geologging WinLogger V1.5/410
~VERSION INFORMATION
#------------------------------------------------------------------------------
 VERS. 2.0 : CWLS LOG ASCII STANDARD - VERSION 2.0
 WRAP. NO  : ONE LINE PER DEPTH STEP
~WELL INFORMATION
#MNEM.UNIT         DATA                                DESCRIPTION OF MNEMONIC
#------------------------------------------------------------------------------
 STRT.M          2.0200                            :   START DEPTH
 STOP.M         91.0000                            :   STOP DEPTH
 STEP.M          0.0100                            :   STEP VALUE
 NULL.        -999.2500                            :   NULL VALUE
 COMP.    IWS                                      :   COMPANY NAME
 WELL.    LADYSMITH                                :   WELL NAME
 FLD.     DURHAM                                   :   FIELD NAME
 LOC.     N/A                                      :   LOCATION
 PROV.    N/A                                      :   PROVINCE
 SRVC.    N/A                                      :   SERVICE COMPANY NAME
 DATE.    16 Dec 09                                :   DATE
 UWI.     N/A                                      :   UNIQUE WELL IDENTIFIER
~PARAMETER INFORMATION
#MNEMO.UNIT         VALUE                 DESCRIPTION OF MNEMONIC
#------------------------------------------------------------------------------
~OTHER INFORMATION SECTION
#------------------------------------------------------------------------------
 TCDS 1365
~CURVE INFORMATION
#MNEMO.UNIT         API CODE              CURVE DESCRIPTION
#------------------------------------------------------------------------------
 DEPTH.M                                 :   0     Depth
 TEMP.DegC                               :   1     Temperature
 COND.uS/cm                              :   2     Conductivity@25DegC
 COND.uS/cm                              :   3     Absolute Conductivity
 DELT.DegC                               :   4     Delta T
 DELC.uS/cm                              :   5     Delta C
#------------------------------------------------------------------------------
~A  DEPTH          TEMP          COND          COND          DELT          DELC
# ...
    49.02         11.57       1838.24       1344.34          0.01         -4.72
    49.03         11.57       1841.59       1346.85          0.02         -2.51
    49.04         11.57       1841.57       1346.85          0.02         -1.39
    49.05         11.57       1842.67       1347.69          0.02         -0.35
    49.06         11.57       1842.63       1347.69          0.02         -1.57
    49.07         11.57       1841.57       1346.85          0.02         -2.58
    49.08         11.57       1842.76       1347.69          0.02         -0.24
    49.09         11.57       1842.80       1347.69          0.01          3.26
    49.10         11.56       1842.87       1347.69          0.01          3.44
    49.11         11.57       1842.85       1347.69          0.01          0.55
    49.12         11.57       1842.85       1347.69          0.01          3.95
    49.13         11.57       1842.85       1347.69          0.01          3.97
    49.14         11.56       1838.31       1344.34          0.01          0.55
    49.15         11.56       1838.35       1344.34          0.01         -0.59
    49.16         11.56       1838.46       1344.34          0.01         -0.44
    49.17         11.56       1838.59       1344.34          0.00         -0.24
    49.18         11.56       1843.24       1347.69          0.00          5.58
    49.19         11.56       1843.31       1347.69          0.00          4.59
    49.20         11.55       1843.38       1347.69         -0.00          4.72
    49.21         11.55       1843.40       1347.69         -0.00          5.87
    49.22         11.55       1843.47       1347.69         -0.00          4.78
    49.23         11.55       1843.51       1347.69         -0.01          4.87
    49.24         11.55       1843.51       1347.69         -0.01          6.04
    49.25         11.55       1843.51       1347.69         -0.01          4.96
    49.26         11.55       1843.47       1347.69         -0.01          4.98
    49.27         11.55       1843.40       1347.69         -0.01          6.08
    49.28         11.55       1846.82       1350.20         -0.01          9.50
    49.29         11.55       1843.38       1347.69         -0.01          4.89
    49.30         11.55       1843.42       1347.69         -0.00          4.83
    49.31         11.55       1842.27       1346.85         -0.00          4.74
    49.32         11.55       1842.27       1346.85         -0.00          3.55
    49.33         11.55       1843.42       1347.69         -0.00          4.70
    49.34         11.56       1843.36       1347.69         -0.00          4.67
    49.35         11.55       1842.23       1346.85         -0.00          3.59
    49.36         11.55       1843.40       1347.69         -0.00          4.78
    49.37         11.55       1843.42       1347.69         -0.00          4.81
    49.38         11.55       1846.91       1350.20         -0.01          8.33
    49.39         11.55       1843.44       1347.69         -0.01          4.87
    49.40         11.56       1843.33       1347.69         -0.00          4.76
    49.41         11.56       1842.05       1346.85         -0.00          3.55
    49.42         11.56       1843.11       1347.69         -0.00          3.51
    49.43         11.56       1843.00       1347.69          0.00          4.56
    49.44         11.56       1846.38       1350.20          0.00          7.94
    49.45         11.56       1846.35       1350.20          0.00          7.87
    49.46         11.57       1847.41       1351.04          0.01          4.30
    49.47         11.57       1846.20       1350.20          0.01          7.05
    49.48         11.57       1846.15       1350.20          0.01          6.99
    49.49         11.57       1842.63       1347.69          0.01         -1.15
    49.50         11.57       1841.42       1346.85          0.01         -2.36
    49.51         11.57       1841.42       1346.85          0.01         -2.34
    49.52         11.57       1842.52       1347.69          0.01         -0.11
    49.53         11.57       1845.93       1350.20          0.01          3.26
    49.54         11.57       1845.96       1350.20          0.01          2.12
    49.55         11.57       1842.50       1347.69          0.02         -0.20
    49.56         11.57       1841.39       1346.85          0.01         -1.26
    49.57         11.57       1841.46       1346.85          0.01          2.32
    49.58         11.57       1842.63       1347.69          0.01          0.62
    49.59         11.57       1846.13       1350.20          0.01          4.08
    49.60         11.57       1846.18       1350.20          0.01          7.47
    49.61         11.57       1847.39       1351.04          0.01          9.72
    49.62         11.57       1846.29       1350.20          0.01          8.56
    49.63         11.56       1846.33       1350.20          0.01          7.45
    49.64         11.56       1842.91       1347.69          0.01          5.14
    49.65         11.56       1842.94       1347.69          0.01          5.16
    49.66         11.56       1846.46       1350.20          0.01          7.54
    49.67         11.56       1847.65       1351.04          0.01          9.81
    49.68         11.56       1847.70       1351.04          0.01          9.86
    49.69         11.56       1846.62       1350.20          0.01          7.70
    49.70         11.56       1843.18       1347.69          0.01          0.86
    49.71         11.56       1843.22       1347.69          0.00          0.95
    49.72         11.56       1846.68       1350.20          0.00          3.33
    49.73         11.56       1847.83       1351.04          0.00          5.62
    49.74         11.56       1847.85       1351.04          0.00          5.64
    49.75         11.56       1846.66       1350.20          0.00          3.37
    49.76         11.56       1846.66       1350.20          0.00          4.54
    49.77         11.56       1843.20       1347.69          0.00          1.10
    49.78         11.56       1843.13       1347.69          0.00         -0.07
    49.79         11.56       1846.53       1350.20          0.00          4.48
    49.80         11.56       1847.61       1351.04          0.00          5.51
    49.81         11.56       1847.52       1351.04          0.01          8.89
    49.82         11.57       1846.29       1350.20          0.01          7.69
    49.83         11.57       1842.78       1347.69          0.01          5.34
    49.84         11.57       1846.82       1350.62          0.01          8.25
    49.85         11.57       1846.84       1350.62          0.01          8.20
    49.86         11.56       1846.93       1350.62          0.01          4.81
    49.87         11.56       1846.99       1350.62          0.01          7.72
    49.88         11.56       1847.02       1350.62          0.01          7.74
    49.89         11.56       1847.10       1350.62          0.00          4.43
    49.90         11.56       1847.13       1350.62          0.00          3.29
    49.91         11.56       1847.17       1350.62          0.00          3.31
    49.92         11.56       1847.19       1350.62          0.00          3.31
    49.93         11.56       1848.36       1351.46          0.00          5.58
    49.94         11.56       1847.30       1350.62          0.00          3.42
    49.95         11.56       1843.27       1347.69         -0.00         -0.53
    49.96         11.56       1843.31       1347.69         -0.00          0.79
    49.97         11.56       1847.94       1351.04         -0.01          8.97
    49.98         11.56       1847.92       1351.04         -0.01          5.03
    49.99         11.56       1847.94       1351.04         -0.01          6.24
    50.00         11.56       1847.92       1351.04         -0.01          9.66
    50.01         11.56       1843.33       1347.69         -0.01          5.09
