#Written by Robertson Geologging WinLogger V1.5/410
~VERSION INFORMATION
#------------------------------------------------------------------------------
 VERS. 2.0 : CWLS LOG ASCII STANDARD - VERSION 2.0
 WRAP. NO  : ONE LINE PER DEPTH STEP
~WELL INFORMATION
#MNEM.UNIT         DATA                                DESCRIPTION OF MNEMONIC
#------------------------------------------------------------------------------
 STRT.M          2.0200                            :   START DEPTH
 STOP.M         91.0000                            :   STOP DEPTH
 STEP.M          0.0100                            :   STEP VALUE
 NULL.        -999.2500                            :   NULL VALUE
 COMP.    IWS                                      :   COMPANY NAME
 WELL.    LADYSMITH                                :   WELL NAME
 FLD.     DURHAM                                   :   FIELD NAME
 LOC.     N/A                                      :   LOCATION
 PROV.    N/A                                      :   PROVINCE
 SRVC.    N/A                                      :   SERVICE COMPANY NAME
 DATE.    16 Dec 09                                :   DATE
 UWI.     N/A                                      :   UNIQUE WELL IDENTIFIER
~PARAMETER INFORMATION
#MNEMO.UNIT         VALUE                 DESCRIPTION OF MNEMONIC
#------------------------------------------------------------------------------
~OTHER INFORMATION SECTION
#------------------------------------------------------------------------------
 TCDS 1365
~CURVE INFORMATION
#MNEMO.UNIT         API CODE              CURVE DESCRIPTION
#------------------------------------------------------------------------------
 DEPTH.M                                 :   0     Depth
 TEMP.DegC                               :   1     Temperature
 COND.uS/cm                              :   2     Conductivity@25DegC
 COND.uS/cm                              :   3     Absolute Conductivity
 DELT.DegC                               :   4     Delta T
 DELC.uS/cm                              :   5     Delta C
#------------------------------------------------------------------------------
~A  DEPTH          TEMP          COND          COND          DELT          DELC
# ...
     8.02          9.56       1328.57        918.22          0.30        -19.05
     8.03          9.56       1323.12        914.45          0.30        -30.01
     8.04          9.56       1327.38        917.39          0.30        -20.87
     8.05          9.56       1322.53        914.03          0.30        -26.33
     8.06          9.56       1326.16        916.55          0.30        -22.09
     8.07          9.56       1326.15        916.55          0.30        -22.02
     8.08          9.56       1325.51        916.13          0.30        -23.15
     8.09          9.56       1326.05        916.55          0.30        -22.44
     8.10          9.56       1326.00        916.55          0.29        -22.28
     8.11          9.56       1326.52        916.97          0.29        -22.11
     8.12          9.57       1325.83        916.55          0.28        -21.88
     8.13          9.57       1325.83        916.55          0.27        -21.62
     8.14          9.57       1322.14        914.03          0.27        -20.10
     8.15          9.57       1326.91        917.39          0.26        -15.08
     8.16          9.57       1322.57        914.45          0.26        -24.03
     8.17          9.57       1323.05        914.87          0.26        -23.87
     8.18          9.58       1322.95        914.87          0.25        -23.21
     8.19          9.58       1322.89        914.87          0.25        -23.12
     8.20          9.58       1322.84        914.87          0.25        -18.17
     8.21          9.58       1322.18        914.45          0.25        -18.13
     8.22          9.58       1322.10        914.45          0.25        -18.17
     8.23          9.59       1322.62        914.87          0.25        -23.12
     8.24          9.59       1321.93        914.45          0.25        -23.13
     8.25          9.59       1326.12        917.39          0.25        -18.89
     8.26          9.59       1321.26        914.03          0.25        -23.61
     8.27          9.59       1324.86        916.55          0.25        -14.35
     8.28          9.59       1320.62        913.62          0.24        -18.45
     8.29          9.59       1320.62        913.62          0.24        -18.89
     8.30          9.59       1320.60        913.62          0.23        -23.62
     8.31          9.59       1320.59        913.62          0.23        -23.48
     8.32          9.59       1320.54        913.62          0.23        -23.92
     8.33          9.59       1320.52        913.62          0.22        -23.69
     8.34          9.59       1320.52        913.62          0.21        -17.99
     8.35          9.59       1320.52        913.62          0.21        -18.39
     8.36          9.59       1320.49        913.62          0.20        -18.22
     8.37          9.60       1316.13        910.68          0.20        -21.80
     8.38          9.60       1316.07        910.68          0.20        -22.35
     8.39          9.60       1320.19        913.62          0.20        -18.03
     8.40          9.60       1319.50        913.20          0.20        -18.53
     8.41          9.60       1320.09        913.62          0.19        -17.81
     8.42          9.61       1320.02        913.62          0.19        -17.69
     8.43          9.61       1320.62        914.03          0.19        -16.37
     8.44          9.61       1320.00        913.62          0.19        -16.87
     8.45          9.61       1319.97        913.62          0.18        -17.28
     8.46          9.61       1319.95        913.62          0.18        -17.09
     8.47          9.61       1315.65        910.68          0.17        -20.58
     8.48          9.61       1319.90        913.62          0.17        -16.72
     8.49          9.61       1319.89        913.62          0.16        -15.94
     8.50          9.61       1319.84        913.62          0.16        -15.84
     8.51          9.61       1319.79        913.62          0.16        -15.70
     8.52          9.62       1319.65        913.62          0.15        -10.18
     8.53          9.62       1319.55        913.62          0.15        -10.13
     8.54          9.62       1314.01        909.85          0.15        -16.08
     8.55          9.62       1314.48        910.27          0.15        -20.26
     8.56          9.63       1314.36        910.27          0.15        -20.29
     8.57          9.63       1314.20        910.27          0.15        -19.75
     8.58          9.64       1318.32        913.20          0.15        -16.12
     8.59          9.64       1317.59        912.78          0.15        -16.72
     8.60          9.64       1318.07        913.20          0.15        -16.08
     8.61          9.64       1313.73        910.27          0.15        -20.28
     8.62          9.65       1314.24        910.68          0.15        -19.10
     8.63          9.65       1313.54        910.27          0.15        -20.33
     8.64          9.65       1313.45        910.27          0.15        -20.32
     8.65          9.65       1318.20        913.62          0.15        -15.49
     8.66          9.66       1318.14        913.62          0.15        -10.03
     8.67          9.66       1313.86        910.68          0.15        -14.19
     8.68          9.66       1314.46        911.10          0.15        -13.48
     8.69          9.66       1313.87        910.68          0.14        -13.99
     8.70          9.66       1314.50        911.10          0.14        -13.28
     8.71          9.65       1313.94        910.68          0.14        -13.80
     8.72          9.65       1313.97        910.68          0.14        -13.68
     8.73          9.65       1313.94        910.68          0.13        -19.04
     8.74          9.66       1313.91        910.68          0.13        -14.71
     8.75          9.66       1313.84        910.68          0.13        -14.66
     8.76          9.66       1314.35        911.10          0.13        -14.09
     8.77          9.66       1313.69        910.68          0.13        -20.15
     8.78          9.66       1313.64        910.68          0.13        -15.94
     8.79          9.66       1313.61        910.68          0.13        -21.38
     8.80          9.67       1313.54        910.68          0.13        -21.39
     8.81          9.67       1313.46        910.68          0.13        -17.22
     8.82          9.67       1309.70        908.17          0.14        -26.36
     8.83          9.67       1313.21        910.68          0.14        -22.85
     8.84          9.68       1313.13        910.68          0.14        -13.86
     8.85          9.68       1313.05        910.68          0.14        -23.02
     8.86          9.68       1313.00        910.68          0.14        -23.09
     8.87          9.68       1308.67        907.75          0.15        -26.77
     8.88          9.69       1309.13        908.17          0.15        -21.45
     8.89          9.69       1312.62        910.68          0.15        -17.89
     8.90          9.69       1312.43        910.68          0.15        -13.12
     8.91          9.70       1312.89        911.10          0.16        -17.43
     8.92          9.70       1307.36        907.33          0.16        -22.85
     8.93          9.70       1311.52        910.27          0.16        -18.62
     8.94          9.70       1312.04        910.68          0.16        -13.81
     8.95          9.71       1311.35        910.27          0.16        -18.67
     8.96          9.71       1307.67        907.75          0.16        -17.45
     8.97          9.71       1307.53        907.75          0.16        -16.93
     8.98          9.71       1311.72        910.68          0.16        -13.30
     8.99          9.71       1311.10        910.27          0.16        -13.28
     9.00          9.72       1307.40        907.75          0.16        -21.22
     9.01          9.72       1306.78        907.33          0.16        -21.79
