#Written by Robertson Geologging WinLogger V1.5/410
~VERSION INFORMATION
#------------------------------------------------------------------------------
 VERS. 2.0 : CWLS LOG ASCII STANDARD - VERSION 2.0
 WRAP. NO  : ONE LINE PER DEPTH STEP
~WELL INFORMATION
#MNEM.UNIT         DATA                                DESCRIPTION OF MNEMONIC
#------------------------------------------------------------------------------
 STRT.M         40.0200                            :   START DEPTH
 STOP.M        195.6300                            :   STOP DEPTH
 STEP.M          0.0100                            :   STEP VALUE
 NULL.        -999.2500                            :   NULL VALUE
 COMP.    IWS                                      :   COMPANY NAME
 WELL.    THRISLINGTON                             :   WELL NAME
 FLD.     DURHAM                                   :   FIELD NAME
 LOC.     N/A                                      :   LOCATION
 PROV.    N/A                                      :   PROVINCE
 SRVC.    N/A                                      :   SERVICE COMPANY NAME
 DATE.    16 Dec 09                                :   DATE
 UWI.     N/A                                      :   UNIQUE WELL IDENTIFIER
~PARAMETER INFORMATION
#MNEMO.UNIT         VALUE                 DESCRIPTION OF MNEMONIC
#------------------------------------------------------------------------------
~OTHER INFORMATION SECTION
#------------------------------------------------------------------------------
 TCDS 1365
~CURVE INFORMATION
#MNEMO.UNIT         API CODE              CURVE DESCRIPTION
#------------------------------------------------------------------------------
 DEPTH.M                                 :   0     Depth
 TEMP.DegC                               :   1     Temperature
 COND.uS/cm                              :   2     Conductivity@25DegC
 COND.uS/cm                              :   3     Absolute Conductivity
 DELT.DegC                               :   4     Delta T
 DELC.uS/cm                              :   5     Delta C
#------------------------------------------------------------------------------
~A  DEPTH          TEMP          COND          COND          DELT          DELC
# ...
    81.02         12.38       1298.11        970.58         -0.00          4.62
    81.03         12.38       1293.66        967.23         -0.00          0.14
    81.04         12.38       1293.61        967.23         -0.00         -3.89
    81.05         12.39       1298.08        970.58          0.00          4.42
    81.06         12.38       1293.61        967.23          0.00         -4.09
    81.07         12.38       1297.55        970.16          0.01          3.71
    81.08         12.38       1293.67        967.23          0.01         -0.24
    81.09         12.38       1293.66        967.23          0.01         -4.23
    81.10         12.38       1297.55        970.16          0.01          4.10
    81.11         12.39       1293.60        967.23          0.01         -3.83
    81.12         12.39       1298.06        970.58          0.01          4.54
    81.13         12.39       1294.14        967.65          0.01          0.61
    81.14         12.39       1294.11        967.65          0.01         -3.30
    81.15         12.39       1298.58        971.00          0.01          5.18
    81.16         12.39       1294.05        967.65          0.01         -3.77
    81.17         12.39       1297.94        970.58          0.01          4.10
    81.18         12.39       1293.98        967.65          0.01          0.14
    81.19         12.39       1293.93        967.65          0.01         -4.41
    81.20         12.39       1297.85        970.58          0.01          3.41
    81.21         12.39       1293.95        967.65          0.01         -4.42
    81.22         12.39       1298.46        971.00          0.01          4.04
    81.23         12.39       1294.01        967.65          0.01         -0.39
    81.24         12.39       1293.98        967.65          0.01         -4.33
    81.25         12.39       1298.47        971.00          0.01          4.06
    81.26         12.39       1294.01        967.65          0.01         -4.36
    81.27         12.39       1297.96        970.58          0.01          4.07
    81.28         12.39       1294.08        967.65          0.01          0.20
    81.29         12.39       1294.11        967.65          0.01         -3.69
    81.30         12.39       1298.08        970.58          0.01          4.77
    81.31         12.38       1294.17        967.65          0.01         -3.03
    81.32         12.38       1298.12        970.58          0.01          4.86
    81.33         12.38       1293.61        967.23          0.00          0.39
    81.34         12.39       1293.52        967.23          0.01         -4.15
    81.35         12.39       1297.96        970.58          0.01          4.21
    81.36         12.39       1293.42        967.23          0.01         -4.21
    81.37         12.39       1297.32        970.16          0.01          3.65
    81.38         12.39       1293.45        967.23          0.01         -0.21
    81.39         12.39       1293.46        967.23          0.01         -4.10
    81.40         12.39       1297.43        970.16          0.00          3.80
    81.41         12.39       1293.51        967.23          0.00         -0.09
    81.42         12.39       1297.43        970.16          0.00          3.83
    81.43         12.39       1293.51        967.23          0.00         -0.06
    81.44         12.39       1293.51        967.23          0.00         -3.95
    81.45         12.39       1298.06        970.58         -0.00          5.10
    81.46         12.38       1293.66        967.23         -0.01         -3.18
    81.47         12.38       1297.62        970.16         -0.01          4.72
    81.48         12.38       1293.72        967.23         -0.01          0.79
    81.49         12.38       1293.66        967.23         -0.00         -3.26
    81.50         12.38       1297.56        970.16         -0.00          4.56
    81.51         12.38       1293.63        967.23         -0.00         -3.88
    81.52         12.38       1298.12        970.58         -0.00          0.62
    81.53         12.38       1294.23        967.65         -0.00          0.67
    81.54         12.38       1294.20        967.65         -0.00         -3.85
    81.55         12.38       1298.09        970.58         -0.00          3.94
    81.56         12.39       1293.55        967.23          0.00         -4.54
    81.57         12.39       1297.43        970.16          0.00          3.26
    81.58         12.39       1293.48        967.23          0.00         -0.73
    81.59         12.39       1297.38        970.16          0.01         -0.76
    81.60         12.39       1297.40        970.16          0.00          3.21
    81.61         12.39       1293.43        967.23          0.01         -5.25
    81.62         12.39       1297.34        970.16          0.01          3.15
    81.63         12.39       1292.84        966.81          0.01         -1.35
    81.64         12.39       1292.81        966.81          0.01         -5.83
    81.65         12.39       1297.29        970.16          0.01          3.15
    81.66         12.39       1293.37        967.23          0.01         -4.69
    81.67         12.39       1297.29        970.16          0.01          3.13
    81.68         12.39       1293.32        967.23          0.01         -0.89
    81.69         12.39       1293.29        967.23          0.01         -4.88
    81.70         12.39       1293.26        967.23          0.01         -0.94
    81.71         12.40       1293.20        967.23          0.01         -5.44
    81.72         12.40       1297.70        970.58          0.01          3.59
    81.73         12.40       1293.79        967.65          0.01         -0.33
    81.74         12.39       1297.74        970.58          0.01         -0.88
    81.75         12.39       1297.78        970.58          0.01          3.59
    81.76         12.39       1293.29        967.23          0.01         -4.84
    81.77         12.39       1297.22        970.16          0.01          3.06
    81.78         12.39       1293.28        967.23          0.01         -0.82
    81.79         12.39       1293.31        967.23          0.00         -4.63
    81.80         12.39       1297.28        970.16          0.00          3.29
    81.81         12.39       1293.40        967.23          0.00         -4.56
    81.82         12.39       1297.35        970.16          0.00          3.82
    81.83         12.39       1292.84        966.81          0.01         -0.74
    81.84         12.39       1296.75        969.74          0.00         -0.73
    81.85         12.39       1292.78        966.81          0.01         -0.21
    81.86         12.39       1292.79        966.81          0.01         -4.13
    81.87         12.39       1296.78        969.74          0.00          3.75
    81.88         12.39       1292.89        966.81          0.01         -0.20
    81.89         12.39       1297.41        970.16          0.01          0.38
    81.90         12.39       1297.44        970.16          0.00          4.32
    81.91         12.39       1293.51        967.23          0.01         -4.10
    81.92         12.39       1297.96        970.58          0.01          4.25
    81.93         12.39       1294.07        967.65          0.01          0.36
    81.94         12.39       1297.99        970.58          0.00         -0.17
    81.95         12.39       1294.02        967.65          0.01         -0.21
    81.96         12.39       1294.02        967.65          0.00         -4.09
    81.97         12.39       1297.90        970.58          0.00          3.75
    81.98         12.39       1293.92        967.65          0.01         -0.20
    81.99         12.39       1297.85        970.58          0.01         -0.18
    82.00         12.39       1293.36        967.23          0.01         -0.79
    82.01         12.39       1293.31        967.23          0.01         -4.80
