#Written by Robertson Geologging WinLogger V1.5/410
~VERSION INFORMATION
#------------------------------------------------------------------------------
 VERS. 2.0 : CWLS LOG ASCII STANDARD - VERSION 2.0
 WRAP. NO  : ONE LINE PER DEPTH STEP
~WELL INFORMATION
#MNEM.UNIT         DATA                                DESCRIPTION OF MNEMONIC
#------------------------------------------------------------------------------
 STRT.M         40.0200                            :   START DEPTH
 STOP.M        195.6300                            :   STOP DEPTH
 STEP.M          0.0100                            :   STEP VALUE
 NULL.        -999.2500                            :   NULL VALUE
 COMP.    IWS                                      :   COMPANY NAME
 WELL.    THRISLINGTON                             :   WELL NAME
 FLD.     DURHAM                                   :   FIELD NAME
 LOC.     N/A                                      :   LOCATION
 PROV.    N/A                                      :   PROVINCE
 SRVC.    N/A                                      :   SERVICE COMPANY NAME
 DATE.    16 Dec 09                                :   DATE
 UWI.     N/A                                      :   UNIQUE WELL IDENTIFIER
~PARAMETER INFORMATION
#MNEMO.UNIT         VALUE                 DESCRIPTION OF MNEMONIC
#------------------------------------------------------------------------------
~OTHER INFORMATION SECTION
#------------------------------------------------------------------------------
 TCDS 1365
~CURVE INFORMATION
#MNEMO.UNIT         API CODE              CURVE DESCRIPTION
#------------------------------------------------------------------------------
 DEPTH.M                                 :   0     Depth
 TEMP.DegC                               :   1     Temperature
 COND.uS/cm                              :   2     Conductivity@25DegC
 COND.uS/cm                              :   3     Absolute Conductivity
 DELT.DegC                               :   4     Delta T
 DELC.uS/cm                              :   5     Delta C
#------------------------------------------------------------------------------
~A  DEPTH          TEMP          COND          COND          DELT          DELC
# ...
    61.02         11.85        866.32        638.51          0.00         -3.42
    61.03         11.85        870.31        641.44         -0.00          4.55
    61.04         11.85        869.21        640.60         -0.00          0.58
    61.05         11.85        866.42        638.51         -0.00         -3.40
    61.06         11.85        870.37        641.44          0.00          4.52
    61.07         11.85        869.22        640.60          0.00          0.53
    61.08         11.85        869.22        640.60          0.00         -0.59
    61.09         11.85        870.36        641.44          0.00          4.53
    61.10         11.85        864.74        637.25         -0.00         -3.95
    61.11         11.84        868.78        640.18         -0.00          4.05
    61.12         11.84        865.98        638.09         -0.00         -4.49
    61.13         11.84        868.86        640.18         -0.00          2.34
    61.14         11.84        868.87        640.18         -0.00         -0.51
    61.15         11.84        866.01        638.09         -0.00         -4.50
    61.16         11.84        868.82        640.18         -0.00          2.28
    61.17         11.84        868.81        640.18          0.00         -0.61
    61.18         11.84        868.81        640.18          0.00         -1.79
    61.19         11.84        868.83        640.18          0.00          2.18
    61.20         11.84        868.85        640.18          0.00         -1.78
    61.21         11.84        868.83        640.18          0.00         -1.78
    61.22         11.84        868.80        640.18          0.00         -1.80
    61.23         11.84        868.78        640.18          0.00         -1.81
    61.24         11.85        869.88        641.02          0.01          0.97
    61.25         11.85        868.73        640.18          0.01         -1.34
    61.26         11.85        868.72        640.18          0.01          2.61
    61.27         11.85        869.83        641.02          0.01          0.91
    61.28         11.85        868.73        640.18          0.01         -1.30
    61.29         11.84        865.93        638.09          0.00         -0.07
    61.30         11.84        869.91        641.02          0.00          1.07
    61.31         11.84        868.79        640.18          0.00         -0.07
    61.32         11.84        870.52        641.44          0.00          4.46
    61.33         11.84        870.52        641.44          0.00          1.60
    61.34         11.84        868.81        640.18          0.00          3.86
    61.35         11.84        868.83        640.18          0.00         -1.79
    61.36         11.84        865.98        638.09          0.00         -3.47
    61.37         11.84        868.83        640.18          0.00         -0.63
    61.38         11.84        868.86        640.18          0.00         -1.73
    61.39         11.84        866.00        638.09          0.00         -3.46
    61.40         11.84        868.78        640.18          0.01         -0.72
    61.41         11.85        868.73        640.18          0.01         -1.92
    61.42         11.85        865.83        638.09          0.01          0.85
    61.43         11.85        869.75        641.02          0.01          0.80
    61.44         11.85        868.62        640.18          0.01          2.52
    61.45         11.85        870.32        641.44          0.01          1.42
    61.46         11.85        870.32        641.44          0.01          1.45
    61.47         11.85        868.63        640.18          0.01          2.63
    61.48         11.85        869.73        641.02          0.01          0.96
    61.49         11.85        868.56        640.18          0.01         -0.20
    61.50         11.85        868.56        640.18          0.01          2.66
    61.51         11.85        869.71        641.02          0.01         -0.18
    61.52         11.85        865.78        638.09          0.01          1.54
    61.53         11.85        868.65        640.18          0.01         -1.27
    61.54         11.85        868.67        640.18          0.00          2.75
    61.55         11.85        865.82        638.09          0.00         -2.93
    61.56         11.85        868.65        640.18          0.00         -1.22
    61.57         11.85        868.65        640.18          0.00          2.76
    61.58         11.85        870.34        641.44          0.01          1.58
    61.59         11.85        869.21        640.60          0.01         -0.72
    61.60         11.85        866.41        638.51          0.01          0.41
    61.61         11.85        870.38        641.44          0.01          1.54
    61.62         11.85        870.39        641.44          0.01          1.55
    61.63         11.85        868.69        640.18          0.00         -1.82
    61.64         11.85        869.82        641.02          0.00          0.48
    61.65         11.85        865.86        638.09          0.00         -3.51
    61.66         11.85        868.69        640.18          0.00         -1.82
    61.67         11.85        869.81        641.02          0.01          0.43
    61.68         11.85        865.81        638.09          0.01         -3.57
    61.69         11.85        869.76        641.02          0.01         -0.75
    61.70         11.85        869.77        641.02          0.01          0.38
    61.71         11.85        869.77        641.02          0.01          0.37
    61.72         11.85        869.76        641.02          0.01         -0.78
    61.73         11.85        868.64        640.18          0.01          3.79
    61.74         11.85        870.33        641.44          0.01          1.50
    61.75         11.85        870.31        641.44          0.01          4.31
    61.76         11.85        868.59        640.18          0.01         -0.25
    61.77         11.85        869.72        641.02          0.01          0.83
    61.78         11.85        865.71        638.09          0.02         -0.37
    61.79         11.85        868.55        640.18          0.02         -0.38
    61.80         11.85        868.56        640.18          0.02         -0.37
    61.81         11.85        865.72        638.09          0.01         -0.34
    61.82         11.85        868.56        640.18          0.01         -0.31
    61.83         11.85        868.57        640.18          0.01         -0.28
    61.84         11.85        865.71        638.09          0.01         -4.82
    61.85         11.85        868.54        640.18          0.01         -1.95
    61.86         11.85        868.54        640.18          0.01         -0.18
    61.87         11.86        868.51        640.18          0.01         -1.30
    61.88         11.85        868.53        640.18          0.00          2.75
    61.89         11.85        868.57        640.18          0.00         -1.16
    61.90         11.85        868.61        640.18         -0.00         -1.13
    61.91         11.85        868.66        640.18         -0.00          2.93
    61.92         11.85        868.68        640.18         -0.01         -1.00
    61.93         11.85        868.69        640.18         -0.01         -0.98
    61.94         11.85        868.71        640.18         -0.01          2.99
    61.95         11.85        868.72        640.18         -0.01         -1.00
    61.96         11.85        868.70        640.18         -0.00          2.92
    61.97         11.85        868.68        640.18         -0.00         -1.68
    61.98         11.85        870.38        641.44         -0.00          0.03
    61.99         11.85        870.35        641.44         -0.00          0.02
    62.00         11.85        873.18        643.53         -0.00          4.00
    62.01         11.85        870.34        641.44         -0.00          4.02
