#Written by Robertson Geologging WinLogger V1.5/410
~VERSION INFORMATION
#------------------------------------------------------------------------------
 VERS. 2.0 : CWLS LOG ASCII STANDARD - VERSION 2.0
 WRAP. NO  : ONE LINE PER DEPTH STEP
~WELL INFORMATION
#MNEM.UNIT         DATA                                DESCRIPTION OF MNEMONIC
#------------------------------------------------------------------------------
 STRT.M        191.7300                            :   START DEPTH
 STOP.M         42.4500                            :   STOP DEPTH
 STEP.M         -0.0100                            :   STEP VALUE
 NULL.        -999.2500                            :   NULL VALUE
 COMP.    I.W.S.                                   :   COMPANY NAME
 WELL.    THRISLINGTON                             :   WELL NAME
 FLD.     N/A                                      :   FIELD NAME
 LOC.     N/A                                      :   LOCATION
 PROV.    N/A                                      :   PROVINCE
 SRVC.    N/A                                      :   SERVICE COMPANY NAME
 DATE.    14 Nov 11                                :   DATE
 UWI.     N/A                                      :   UNIQUE WELL IDENTIFIER
~PARAMETER INFORMATION
#MNEMO.UNIT         VALUE                 DESCRIPTION OF MNEMONIC
#------------------------------------------------------------------------------
~OTHER INFORMATION SECTION
#------------------------------------------------------------------------------
 1365 LOW
~CURVE INFORMATION
#MNEMO.UNIT         API CODE              CURVE DESCRIPTION
#------------------------------------------------------------------------------
 DEPTH.M                                 :   0     Depth
 TEMP.DegC                               :   1     Temperature
 COND.uS/cm                              :   2     Conductivity
 DELT.DegC                               :   3     Delta T
 DELC.uS/cm                              :   4     Delta C
 NGAM.CPS                                :   5     Natural Gamma
#------------------------------------------------------------------------------
~A  DEPTH          TEMP          COND          DELT          DELC          NGAM
   191.73         12.29        926.60         -0.06         -0.42          0.42
   191.72         12.29        926.60         -0.06         -0.42          0.42
   191.71         12.28        927.02         -0.06          0.00          0.42
   191.70         12.28        927.02         -0.06          0.00          0.42
   191.69         12.28        927.02         -0.06          0.00          0.42
   191.68         12.28        926.60         -0.06         -0.84          0.42
   191.67         12.29        927.02         -0.07          0.00          0.92
   191.66         12.29        927.02         -0.07          2.93          1.00
   191.65         12.28        927.02         -0.07          2.93          1.00
   191.64         12.28        927.02         -0.07          2.51          1.00
   191.63         12.28        927.02         -0.07          2.93          1.00
   191.62         12.28        924.09         -0.07          0.00          1.00
   191.61         12.29        927.02         -0.07          2.93          1.00
   191.60         12.29        927.02         -0.07          2.93          1.00
   191.59         12.29        927.02         -0.08          0.00          1.00
   191.58         12.29        927.02         -0.08          0.00          1.00
   191.57         12.29        927.02         -0.08          0.42          1.00
   191.56         12.29        927.02         -0.08          0.00          1.00
   191.55         12.29        927.02         -0.08          0.00          1.00
   191.54         12.29        927.02         -0.08          0.00          1.00
   191.53         12.30        926.60         -0.08          0.00          1.00
   191.52         12.30        927.02         -0.08          0.00          1.50
   191.51         12.30        927.02         -0.07          0.00          1.50
   191.50         12.30        924.09         -0.07         -2.93          1.00
   191.49         12.30        924.09         -0.08         -2.51          0.50
   191.48         12.30        927.02         -0.08          2.93          0.50
   191.47         12.29        927.02         -0.08          2.93          0.50
   191.46         12.29        927.02         -0.08          2.93          0.50
   191.45         12.29        927.02         -0.08          3.35          0.50
   191.44         12.29        927.02         -0.08          2.93          0.50
   191.43         12.29        927.02         -0.08          2.93          0.50
   191.42         12.29        927.02         -0.08          2.93          0.50
   191.41         12.29        927.02         -0.09          3.35          0.50
   191.40         12.29        927.02         -0.09          2.93          0.50
   191.39         12.29        927.02         -0.09          2.93          0.50
   191.38         12.29        927.02         -0.09          2.93          0.50
   191.37         12.29        924.09         -0.09          2.93          0.50
   191.36         12.29        927.02         -0.09          5.44          0.50
   191.35         12.30        927.02         -0.09          5.44          0.00
   191.34         12.30        926.60         -0.09          5.03          0.00
   191.33         12.30        927.02         -0.09          5.86          0.00
   191.32         12.30        927.02         -0.09          5.86          0.00
   191.31         12.30        927.02         -0.10          5.86          0.00
   191.30         12.30        926.60         -0.10          5.03          0.00
   191.29         12.30        926.60         -0.09          5.44          0.00
   191.28         12.30        927.02         -0.09          5.86          0.00
   191.27         12.30        926.60         -0.09          5.44          0.00
   191.26         12.30        926.60         -0.09          5.44          0.00
   191.25         12.30        926.60         -0.09          5.86          0.00
   191.24         12.30        926.60         -0.09          5.44          0.00
   191.23         12.30        927.02         -0.09          5.86          0.00
   191.22         12.31        926.60         -0.09          5.44          0.00
   191.21         12.31        926.60         -0.09          5.44          0.00
   191.20         12.31        926.60         -0.08          5.03          0.50
   191.19         12.31        927.02         -0.09          5.86          0.50
   191.18         12.31        927.02         -0.09          5.86          0.50
   191.17         12.31        926.60         -0.09          5.44          0.50
   191.16         12.31        926.60         -0.09          5.44          0.50
   191.15         12.31        926.60         -0.09          5.03          0.50
   191.14         12.32        924.09         -0.09          2.51          0.50
   191.13         12.32        927.02         -0.09          5.86          1.00
   191.12         12.32        926.60         -0.09          5.44          1.00
   191.11         12.32        926.60         -0.08          5.03          1.00
   191.10         12.32        927.02         -0.08          5.44          1.00
   191.09         12.32        927.02         -0.08          5.86          1.00
   191.08         12.32        926.60         -0.08          5.03          1.00
   191.07         12.32        926.60         -0.08          5.03          1.00
   191.06         12.32        926.60         -0.07          5.03          1.00
   191.05         12.32        927.02         -0.07          5.44          1.00
   191.04         12.32        927.02         -0.07          5.44          1.00
   191.03         12.31        926.60         -0.07          5.03          0.50
   191.02         12.31        926.60         -0.07          5.03          0.50
   191.01         12.32        927.02         -0.07          5.44          0.50
   191.00         12.32        927.02         -0.07          5.44          0.50
   190.99         12.32        926.60         -0.07          5.03          0.50
   190.98         12.32        926.60         -0.07          5.03          0.50
   190.97         12.32        926.60         -0.07          5.44          0.50
   190.96         12.32        927.02         -0.07          5.86          0.00
   190.95         12.33        927.02         -0.07          5.44          0.00
   190.94         12.33        926.60         -0.07          5.03          0.00
   190.93         12.33        926.60         -0.07          2.93          0.00
   190.92         12.33        929.53         -0.07          5.86          0.00
   190.91         12.33        927.02         -0.06          3.35          0.00
   190.90         12.34        926.60         -0.06          5.03          0.00
   190.89         12.34        926.60         -0.06          5.44          0.00
   190.88         12.34        926.60         -0.06          5.44          0.00
   190.87         12.34        927.02         -0.06          5.86          0.00
   190.86         12.34        927.02         -0.06          5.44          0.00
   190.85         12.34        926.60         -0.06          5.03          0.00
   190.84         12.34        926.60         -0.05          5.44          0.00
   190.83         12.34        927.02         -0.05          5.86          0.00
   190.82         12.34        927.02         -0.05          5.86          0.50
   190.81         12.34        924.09         -0.05          2.51          0.50
   190.80         12.34        923.67         -0.05          2.09          0.50
   190.79         12.34        924.09         -0.05          0.42          0.50
   190.78         12.34        927.02         -0.05          3.35          0.50
   190.77         12.34        927.02         -0.05          5.44          0.50
   190.76         12.35        926.60         -0.05          5.03          0.50
   190.75         12.35        927.02         -0.05          5.86          0.50
   190.74         12.35        927.02         -0.05          5.86          0.50
