#Written by Robertson Geologging WinLogger V1.5/410
~VERSION INFORMATION
#------------------------------------------------------------------------------
 VERS. 2.0 : CWLS LOG ASCII STANDARD - VERSION 2.0
 WRAP. NO  : ONE LINE PER DEPTH STEP
~WELL INFORMATION
#MNEM.UNIT         DATA                                DESCRIPTION OF MNEMONIC
#------------------------------------------------------------------------------
 STRT.M        191.7300                            :   START DEPTH
 STOP.M         42.4500                            :   STOP DEPTH
 STEP.M         -0.0100                            :   STEP VALUE
 NULL.        -999.2500                            :   NULL VALUE
 COMP.    I.W.S.                                   :   COMPANY NAME
 WELL.    THRISLINGTON                             :   WELL NAME
 FLD.     N/A                                      :   FIELD NAME
 LOC.     N/A                                      :   LOCATION
 PROV.    N/A                                      :   PROVINCE
 SRVC.    N/A                                      :   SERVICE COMPANY NAME
 DATE.    14 Nov 11                                :   DATE
 UWI.     N/A                                      :   UNIQUE WELL IDENTIFIER
~PARAMETER INFORMATION
#MNEMO.UNIT         VALUE                 DESCRIPTION OF MNEMONIC
#------------------------------------------------------------------------------
~OTHER INFORMATION SECTION
#------------------------------------------------------------------------------
 1365 LOW
~CURVE INFORMATION
#MNEMO.UNIT         API CODE              CURVE DESCRIPTION
#------------------------------------------------------------------------------
 DEPTH.M                                 :   0     Depth
 TEMP.DegC                               :   1     Temperature
 COND.uS/cm                              :   2     Conductivity
 DELT.DegC                               :   3     Delta T
 DELC.uS/cm                              :   4     Delta C
 NGAM.CPS                                :   5     Natural Gamma
#------------------------------------------------------------------------------
~A  DEPTH          TEMP          COND          DELT          DELC          NGAM
# ...
    63.73         12.38        917.80          0.02          0.00          0.42
    63.72         12.38        917.39          0.02          0.00          0.42
    63.71         12.38        917.80          0.02         -0.00          0.50
    63.70         12.38        917.39          0.01         -0.42          0.50
    63.69         12.38        917.80          0.01          0.42          0.50
    63.68         12.38        917.39          0.01         -0.42          0.50
    63.67         12.38        917.80          0.01          0.42          0.50
    63.66         12.38        917.80          0.01         -0.00          0.50
    63.65         12.38        917.80          0.00          0.42          0.50
    63.64         12.38        919.90          0.00          2.09          0.50
    63.63         12.38        917.80          0.01          0.42          0.50
    63.62         12.38        917.80          0.01          0.00          0.50
    63.61         12.38        917.80          0.01          0.00          0.50
    63.60         12.38        917.80          0.01          0.00          0.50
    63.59         12.38        918.22          0.02         -1.68          0.50
    63.58         12.38        917.80          0.02          0.00          1.00
    63.57         12.38        915.71          0.02         -2.09          1.00
    63.56         12.38        917.80          0.02          0.00          1.00
    63.55         12.38        917.80          0.02          0.00          1.00
    63.54         12.38        917.80          0.01          0.00          0.50
    63.53         12.37        915.71          0.01         -2.09          0.50
    63.52         12.37        917.80          0.01          0.00          1.00
    63.51         12.37        917.80          0.01          0.00          1.00
    63.50         12.37        917.80          0.01          0.00          1.50
    63.49         12.37        917.80          0.00          0.00          1.50
    63.48         12.37        917.39          0.00          2.09          1.50
    63.47         12.37        917.80          0.00         -0.00          1.50
    63.46         12.37        919.90          0.00          2.51          1.50
    63.45         12.37        917.80          0.00         -0.00          1.50
    63.44         12.37        917.39          0.00         -0.00          1.50
    63.43         12.37        917.80          0.01         -0.00          1.50
    63.42         12.37        919.90          0.01          2.51          1.50
    63.41         12.37        917.80          0.01          0.42          1.00
    63.40         12.37        917.39          0.01         -0.00          1.00
    63.39         12.37        917.80          0.01          0.42          1.00
    63.38         12.38        917.39          0.01         -0.00          1.42
    63.37         12.38        917.80          0.01         -2.09          1.42
    63.36         12.38        917.39          0.01          0.00          1.42
    63.35         12.38        917.80          0.01          0.42          0.92
    63.34         12.38        917.39          0.01          0.00          0.92
    63.33         12.38        917.80          0.01          0.42          0.42
    63.32         12.38        917.39          0.01          0.42          0.42
    63.31         12.38        915.29          0.01         -2.09          0.42
    63.30         12.38        917.39          0.01          0.00          0.42
    63.29         12.38        917.80          0.01          0.42          0.42
    63.28         12.38        917.39          0.01          0.00          0.42
    63.27         12.38        917.80          0.01          0.42          0.42
    63.26         12.38        917.39          0.01          0.00          0.42
    63.25         12.38        917.80          0.01          0.42          0.42
    63.24         12.38        917.39          0.01          0.00          0.42
    63.23         12.38        917.80          0.01          0.84          0.42
    63.22         12.38        917.39          0.01         -2.51          0.42
    63.21         12.38        917.39          0.01         -0.00          0.00
    63.20         12.38        919.90          0.01          2.51          0.00
    63.19         12.38        917.39          0.01          0.00          0.00
    63.18         12.38        917.39          0.01          0.00          0.00
    63.17         12.38        917.39          0.01          0.00          0.00
    63.16         12.38        917.39          0.01          0.42          0.00
    63.15         12.37        917.39          0.01          0.00          0.00
    63.14         12.37        917.39          0.01          0.00          0.00
    63.13         12.37        917.39          0.01          0.00          0.00
    63.12         12.37        917.39          0.00         -0.42          0.00
    63.11         12.37        917.39          0.00          0.00          0.00
    63.10         12.37        917.80          0.00          0.00          0.00
    63.09         12.37        917.39          0.00          0.00          0.00
    63.08         12.37        917.39         -0.00         -0.42          0.00
    63.07         12.37        917.39         -0.00          0.00          0.00
    63.06         12.37        917.39         -0.00         -0.42          0.00
    63.05         12.37        919.90         -0.01          2.09          0.00
    63.04         12.37        917.39         -0.01         -0.42          0.00
    63.03         12.37        917.39         -0.01          0.00          0.00
    63.02         12.37        917.39         -0.00         -0.42          0.00
    63.01         12.37        919.90         -0.00          2.51          0.00
    63.00         12.37        917.39          0.00          2.09          0.50
    62.99         12.37        917.39          0.00          0.00          0.50
    62.98         12.37        917.39          0.00         -0.42          0.50
    62.97         12.37        917.80          0.01          0.42          0.50
    62.96         12.37        917.39          0.01         -0.42          0.50
    62.95         12.37        917.80          0.01          0.42          0.50
    62.94         12.37        917.39          0.01          0.00          0.50
    62.93         12.37        919.90          0.01          2.51          0.50
    62.92         12.37        917.39          0.01          0.00          0.50
    62.91         12.37        917.39          0.01          0.00          0.50
    62.90         12.38        917.39          0.01         -0.42          0.50
    62.89         12.38        917.39          0.01         -2.51          0.50
    62.88         12.38        917.39          0.01         -0.42          0.50
    62.87         12.38        917.39          0.01          0.00          0.50
    62.86         12.37        919.90          0.01          2.09          0.50
    62.85         12.37        917.39          0.00         -0.42          1.00
    62.84         12.37        917.39         -0.00         -0.42          1.00
    62.83         12.37        917.39         -0.00         -0.42          0.50
    62.82         12.37        915.29         -0.00         -2.51          0.50
    62.81         12.36        917.80         -0.01          0.00          0.92
    62.80         12.36        917.80         -0.01          0.00          0.92
    62.79         12.36        917.80         -0.01          0.00          0.92
    62.78         12.36        917.80         -0.02          2.51          0.92
    62.77         12.36        917.80         -0.02          0.00          0.92
    62.76         12.36        917.80         -0.02          0.00          0.92
    62.75         12.36        917.80         -0.02          2.51          0.92
    62.74         12.36        917.80         -0.02          0.42          0.92
