#Written by Robertson Geologging WinLogger V1.5/410
~VERSION INFORMATION
#------------------------------------------------------------------------------
 VERS. 2.0 : CWLS LOG ASCII STANDARD - VERSION 2.0
 WRAP. NO  : ONE LINE PER DEPTH STEP
~WELL INFORMATION
#MNEM.UNIT         DATA                                DESCRIPTION OF MNEMONIC
#------------------------------------------------------------------------------
 STRT.M        191.7300                            :   START DEPTH
 STOP.M         42.4500                            :   STOP DEPTH
 STEP.M         -0.0100                            :   STEP VALUE
 NULL.        -999.2500                            :   NULL VALUE
 COMP.    I.W.S.                                   :   COMPANY NAME
 WELL.    THRISLINGTON                             :   WELL NAME
 FLD.     N/A                                      :   FIELD NAME
 LOC.     N/A                                      :   LOCATION
 PROV.    N/A                                      :   PROVINCE
 SRVC.    N/A                                      :   SERVICE COMPANY NAME
 DATE.    14 Nov 11                                :   DATE
 UWI.     N/A                                      :   UNIQUE WELL IDENTIFIER
~PARAMETER INFORMATION
#MNEMO.UNIT         VALUE                 DESCRIPTION OF MNEMONIC
#------------------------------------------------------------------------------
~OTHER INFORMATION SECTION
#------------------------------------------------------------------------------
 1365 LOW
~CURVE INFORMATION
#MNEMO.UNIT         API CODE              CURVE DESCRIPTION
#------------------------------------------------------------------------------
 DEPTH.M                                 :   0     Depth
 TEMP.DegC                               :   1     Temperature
 COND.uS/cm                              :   2     Conductivity
 DELT.DegC                               :   3     Delta T
 DELC.uS/cm                              :   4     Delta C
 NGAM.CPS                                :   5     Natural Gamma
#------------------------------------------------------------------------------
~A  DEPTH          TEMP          COND          DELT          DELC          NGAM
# ...
    73.73         12.37        917.39         -0.00         -0.42          0.00
    73.72         12.37        919.90         -0.00          2.09          0.00
    73.71         12.37        919.90         -0.00         -0.42          0.00
    73.70         12.37        917.80          0.00         -0.00          0.42
    73.69         12.37        917.39          0.00         -0.42          0.42
    73.68         12.37        919.90          0.00          2.09          0.42
    73.67         12.37        919.90          0.00         -0.42          0.42
    73.66         12.37        917.39         -0.00         -0.42          0.42
    73.65         12.37        917.39         -0.00         -0.42          0.42
    73.64         12.37        917.80         -0.01          0.00          0.42
    73.63         12.37        919.90         -0.01          2.09          0.42
    73.62         12.37        917.80         -0.01          0.00          0.42
    73.61         12.37        917.80         -0.00          0.42          0.42
    73.60         12.37        917.80         -0.00          0.00          0.42
    73.59         12.37        920.32         -0.00          0.42          0.42
    73.58         12.37        917.80         -0.01         -2.51          0.42
    73.57         12.37        917.80         -0.01          0.00          0.42
    73.56         12.36        917.80         -0.01          0.00          0.42
    73.55         12.36        920.32         -0.01          0.00          0.42
    73.54         12.36        917.80         -0.01         -2.51          0.42
    73.53         12.36        917.39         -0.00          0.00          0.00
    73.52         12.36        917.80         -0.00          0.00          0.00
    73.51         12.36        919.90         -0.00         -0.42          0.00
    73.50         12.36        919.90         -0.00         -0.42          0.00
    73.49         12.36        917.39         -0.01         -0.42          0.50
    73.48         12.36        917.39         -0.01         -0.42          0.50
    73.47         12.36        919.90         -0.01          2.51          0.50
    73.46         12.36        919.48         -0.01         -0.42          0.50
    73.45         12.36        917.39         -0.01         -0.42          1.00
    73.44         12.36        917.39         -0.01          0.00          1.00
    73.43         12.36        919.90         -0.01          2.09          1.00
    73.42         12.37        920.32         -0.01          0.00          1.00
    73.41         12.37        917.39         -0.01         -0.42          1.50
    73.40         12.37        917.80         -0.01          0.42          1.92
    73.39         12.37        917.39         -0.01         -0.42          1.92
    73.38         12.37        919.90         -0.00          0.00          1.92
    73.37         12.37        917.39          0.00          0.00          1.92
    73.36         12.37        917.39          0.00         -0.42          1.92
    73.35         12.37        917.80          0.01          0.42          1.92
    73.34         12.37        919.90          0.01          0.00          1.92
    73.33         12.37        917.39          0.01         -2.51          1.92
    73.32         12.37        917.39          0.01          0.00          1.42
    73.31         12.37        917.39          0.01          0.00          1.42
    73.30         12.37        919.90          0.01         -0.00          1.42
    73.29         12.37        917.39          0.01         -2.51          1.42
    73.28         12.38        917.39          0.01         -0.00          0.92
    73.27         12.38        917.39          0.01         -0.00          0.92
    73.26         12.38        919.90          0.01          0.00          0.92
    73.25         12.37        919.90          0.01          0.00          0.92
    73.24         12.37        917.39          0.01         -0.00          0.42
    73.23         12.37        917.39          0.00         -0.00          0.00
    73.22         12.37        919.90          0.00          2.51          0.00
    73.21         12.37        919.90          0.00         -0.00          0.00
    73.20         12.37        917.39          0.00         -0.00          0.00
    73.19         12.37        917.39          0.00         -0.00          0.00
    73.18         12.37        919.48          0.00          2.09          0.00
    73.17         12.37        919.90          0.00         -0.00          0.50
    73.16         12.37        919.90          0.00          2.51          0.50
    73.15         12.37        917.39          0.01         -0.42          0.50
    73.14         12.37        917.39          0.01         -0.00          0.50
    73.13         12.37        919.90          0.01         -0.00          0.50
    73.12         12.37        919.90          0.01          2.51          0.50
    73.11         12.37        917.39          0.01         -0.00          0.50
    73.10         12.37        917.39          0.01         -0.00          0.50
    73.09         12.38        919.90          0.02         -0.00          0.50
    73.08         12.38        919.90          0.02         -0.00          1.00
    73.07         12.38        917.80          0.02          0.42          1.00
    73.06         12.38        917.39          0.02         -0.00          1.00
    73.05         12.38        917.80          0.02         -2.09          1.00
    73.04         12.38        919.90          0.02          0.42          1.00
    73.03         12.38        917.39          0.01          0.00          1.00
    73.02         12.38        917.39          0.01          0.00          1.00
    73.01         12.38        917.39          0.01         -2.51          1.00
    73.00         12.38        919.90          0.01          0.00          0.50
    72.99         12.38        917.39          0.01          0.00          0.50
    72.98         12.37        917.39          0.01          0.00          0.92
    72.97         12.37        917.39          0.01          0.00          0.92
    72.96         12.37        919.90          0.00          0.00          0.92
    72.95         12.37        917.80          0.00          0.42          0.92
    72.94         12.37        917.39         -0.00          0.00          0.92
    72.93         12.37        917.80         -0.00          0.00          0.92
    72.92         12.37        920.32         -0.00          0.42          0.92
    72.91         12.37        917.80         -0.01          0.00          0.42
    72.90         12.37        918.22         -0.01          0.84          0.42
    72.89         12.37        917.80         -0.01          0.00          0.42
    72.88         12.37        920.74         -0.01          0.84          0.42
    72.87         12.37        917.80         -0.01          0.00          0.42
    72.86         12.37        918.22         -0.01          0.42          0.42
    72.85         12.37        917.80         -0.01          0.00          0.42
    72.84         12.38        920.32         -0.00          0.00          0.42
    72.83         12.38        917.80         -0.00          0.00          0.83
    72.82         12.38        917.80          0.00          0.00          0.83
    72.81         12.38        917.80          0.00          0.00          0.42
    72.80         12.38        920.32          0.01          0.00          0.42
    72.79         12.38        917.39          0.01         -0.42          0.42
    72.78         12.38        917.80          0.01          0.00          0.42
    72.77         12.38        917.39          0.01         -0.42          0.42
    72.76         12.38        920.32          0.00          0.00          0.42
    72.75         12.38        919.90          0.00          0.00          0.42
    72.74         12.38        917.80         -0.00          0.00          0.42
