#Written by Robertson Geologging WinLogger V1.5/410
~VERSION INFORMATION
#------------------------------------------------------------------------------
 VERS. 2.0 : CWLS LOG ASCII STANDARD - VERSION 2.0
 WRAP. NO  : ONE LINE PER DEPTH STEP
~WELL INFORMATION
#MNEM.UNIT         DATA                                DESCRIPTION OF MNEMONIC
#------------------------------------------------------------------------------
 STRT.M         25.0100                            :   START DEPTH
 STOP.M        192.0000                            :   STOP DEPTH
 STEP.M          0.0100                            :   STEP VALUE
 NULL.        -999.2500                            :   NULL VALUE
 COMP.    IWS                                      :   COMPANY NAME
 WELL.    Thristlington                            :   WELL NAME
 FLD.     N/A                                      :   FIELD NAME
 LOC.     N/A                                      :   LOCATION
 PROV.    N/A                                      :   PROVINCE
 SRVC.    N/A                                      :   SERVICE COMPANY NAME
 DATE.    01 Feb 11                                :   DATE
 UWI.     N/A                                      :   UNIQUE WELL IDENTIFIER
~PARAMETER INFORMATION
#MNEMO.UNIT         VALUE                 DESCRIPTION OF MNEMONIC
#------------------------------------------------------------------------------
~OTHER INFORMATION SECTION
#------------------------------------------------------------------------------
 1365
~CURVE INFORMATION
#MNEMO.UNIT         API CODE              CURVE DESCRIPTION
#------------------------------------------------------------------------------
 DEPTH.M                                 :   0     Depth
 TEMP.DegC                               :   1     Temperature
 CN25.uS/cm                              :   2     Conductivity@25DegC
 DELT.DegC                               :   3     Delta T
 DELC.uS/cm                              :   4     Delta C
#------------------------------------------------------------------------------
~A  DEPTH          TEMP          CN25          DELT          DELC
# ...
   190.93         12.07       1176.47         -0.11         -0.21
   190.94         12.06       1176.56         -0.12          2.20
   190.95         12.06       1176.63         -0.12         -1.65
   190.96         12.06       1172.76         -0.13         -4.38
   190.97         12.06       1175.08         -0.13         -2.07
   190.98         12.06       1175.13         -0.13         -2.06
   190.99         12.05       1176.87         -0.13         -2.01
   191.00         12.05       1175.22         -0.13         -1.99
   191.01         12.05       1175.28         -0.13         -1.95
   191.02         12.05       1176.99         -0.13         -0.26
   191.03         12.05       1175.32         -0.13         -1.96
   191.04         12.05       1175.32         -0.13         -3.66
   191.05         12.05       1175.32         -0.13         -5.94
   191.06         12.05       1173.61         -0.13         -3.73
   191.07         12.05       1175.28         -0.13         -2.09
   191.08         12.05       1175.28         -0.13         -3.76
   191.09         12.05       1175.28         -0.13          0.24
   191.10         12.05       1173.64         -0.13         -3.61
   191.11         12.05       1177.64         -0.14          0.46
   191.12         12.05       1175.39         -0.14          0.53
   191.13         12.05       1173.71         -0.14         -5.05
   191.14         12.05       1173.69         -0.14         -1.10
   191.15         12.05       1173.68         -0.14         -3.41
   191.16         12.05       1173.68         -0.14         -3.48
   191.17         12.05       1175.40         -0.14         -3.51
   191.18         12.05       1173.78         -0.14         -1.17
   191.19         12.04       1173.86         -0.14         -3.31
   191.20         12.04       1173.89         -0.14         -4.97
   191.21         12.04       1175.57         -0.14          0.62
   191.22         12.04       1171.58         -0.14         -7.38
   191.23         12.05       1173.79         -0.13         -5.22
   191.24         12.05       1173.79         -0.13         -1.29
   191.25         12.04       1177.79         -0.14         -1.22
   191.26         12.04       1172.20         -0.14         -2.86
   191.27         12.04       1176.23         -0.14          1.17
   191.28         12.04       1174.59         -0.14         -0.51
   191.29         12.04       1178.56         -0.14         -0.57
   191.30         12.04       1176.31         -0.14          1.06
   191.31         12.04       1176.35         -0.14         -1.19
   191.32         12.03       1174.71         -0.14         -2.83
   191.33         12.03       1178.76         -0.14          1.20
   191.34         12.03       1176.58         -0.14          0.67
   191.35         12.03       1176.62         -0.14         -1.04
   191.36         12.03       1172.69         -0.14         -5.02
   191.37         12.03       1179.54         -0.14          1.82
   191.38         12.03       1175.56         -0.14         -2.11
   191.39         12.03       1179.54         -0.15          3.62
   191.40         12.02       1175.61         -0.15         -0.27
   191.41         12.03       1177.84         -0.15          1.97
   191.42         12.02       1179.55         -0.15          5.92
   191.43         12.03       1183.50         -0.15          5.86
   191.44         12.03       1179.48         -0.14          5.72
   191.45         12.03       1181.74         -0.14          7.93
   191.46         12.03       1185.73         -0.14          9.60
   191.47         12.03       1193.66         -0.14         19.72
   191.48         12.03       1193.65         -0.13         19.63
   191.49         12.03       1197.59         -0.13         23.48
   191.50         12.03       1201.51         -0.13         27.28
   191.51         12.03       1209.37         -0.12         37.29
   191.52         12.03       1213.33         -0.12         37.17
   191.53         12.03       1224.07         -0.11         49.47
   191.54         12.03       1228.62         -0.11         56.17
   191.55         12.03       1241.13         -0.11         64.65
   191.56         12.03       1249.58         -0.11         73.05
   191.57         12.03       1258.02         -0.10         81.40
   191.58         12.03       1262.45         -0.10         85.74
   191.59         12.03       1269.70         -0.09         92.83
   191.60         12.04       1278.08         -0.08        101.09
   191.61         12.04       1285.89         -0.08        107.13
   191.62         12.04       1294.28         -0.07        117.14
   191.63         12.05       1298.68         -0.07        123.78
   191.64         12.05       1302.48         -0.06        127.58
   191.65         12.06       1309.64         -0.06        132.47
   191.66         12.06       1313.37         -0.05        138.43
   191.67         12.07       1321.09         -0.05        146.12
   191.68         12.07       1324.26         -0.04        149.26
   191.69         12.08       1328.02         -0.03        152.98
   191.70         12.08       1335.77         -0.03        160.73
   191.71         12.09       1342.37         -0.02        167.29
   191.72         12.09       1342.80         -0.02        167.64
   191.73         12.09       1345.51         -0.01        170.27
   191.74         12.10       1353.27         -0.00        177.92
   191.75         12.10       1357.08          0.00        181.60
   191.76         12.11       1363.70          0.01        188.09
   191.77         12.11       1367.49          0.02        191.75
   191.78         12.12       1367.31          0.03        191.44
   191.79         12.12       1373.93          0.04        197.94
   191.80         12.12       1377.71          0.05        201.62
   191.81         12.13       1381.46          0.05        205.27
   191.82         12.13       1384.67          0.06        212.39
   191.83         12.14       1388.36          0.07        216.06
   191.84         12.15       1393.17          0.07        216.90
   191.85         12.15       1399.11          0.08        222.83
   191.86         12.16       1398.79          0.09        222.50
   191.87         12.17       1400.17          0.10        227.84
   191.88         12.18       1406.10          0.11        233.74
   191.89         12.19       1409.76          0.11        233.41
   191.90         12.19       1411.13          0.12        238.69
   191.91         12.20       1417.00          0.13        244.52
   191.92         12.21       1416.69          0.14        240.22
   191.93         12.22       1422.01          0.15        245.46
   191.94         12.22       1425.72          0.16        249.08
   191.95         12.23       1427.71          0.17        254.95
   191.96         12.24       1429.12          0.18        254.05
   191.97         12.24       1436.79          0.19        261.66
   191.98         12.25       1438.78          0.19        261.91
   191.99         12.26       1440.16          0.20        264.94
   192.00         12.26       1443.85          0.21        268.58
