#Written by Robertson Geologging WinLogger V1.5/410
~VERSION INFORMATION
#------------------------------------------------------------------------------
 VERS. 2.0 : CWLS LOG ASCII STANDARD - VERSION 2.0
 WRAP. NO  : ONE LINE PER DEPTH STEP
~WELL INFORMATION
#MNEM.UNIT         DATA                                DESCRIPTION OF MNEMONIC
#------------------------------------------------------------------------------
 STRT.M         40.0200                            :   START DEPTH
 STOP.M        195.6300                            :   STOP DEPTH
 STEP.M          0.0100                            :   STEP VALUE
 NULL.        -999.2500                            :   NULL VALUE
 COMP.    IWS                                      :   COMPANY NAME
 WELL.    THRISLINGTON                             :   WELL NAME
 FLD.     DURHAM                                   :   FIELD NAME
 LOC.     N/A                                      :   LOCATION
 PROV.    N/A                                      :   PROVINCE
 SRVC.    N/A                                      :   SERVICE COMPANY NAME
 DATE.    16 Dec 09                                :   DATE
 UWI.     N/A                                      :   UNIQUE WELL IDENTIFIER
~PARAMETER INFORMATION
#MNEMO.UNIT         VALUE                 DESCRIPTION OF MNEMONIC
#------------------------------------------------------------------------------
~OTHER INFORMATION SECTION
#------------------------------------------------------------------------------
 TCDS 1365
~CURVE INFORMATION
#MNEMO.UNIT         API CODE              CURVE DESCRIPTION
#------------------------------------------------------------------------------
 DEPTH.M                                 :   0     Depth
 TEMP.DegC                               :   1     Temperature
 COND.uS/cm                              :   2     Conductivity@25DegC
 COND.uS/cm                              :   3     Absolute Conductivity
 DELT.DegC                               :   4     Delta T
 DELC.uS/cm                              :   5     Delta C
#------------------------------------------------------------------------------
~A  DEPTH          TEMP          COND          COND          DELT          DELC
# ...
   102.02         12.39       1298.32        971.00          0.00          0.42
   102.03         12.39       1293.84        967.65          0.01          0.38
   102.04         12.39       1297.81        970.58          0.01          0.33
   102.05         12.39       1297.82        970.58          0.01          4.24
   102.06         12.39       1293.88        967.65          0.01         -4.21
   102.07         12.39       1297.79        970.58          0.01         -0.33
   102.08         12.39       1293.28        967.23          0.01         -0.38
   102.09         12.40       1297.73        970.58          0.01         -0.46
   102.10         12.40       1297.70        970.58          0.01          3.44
   102.11         12.40       1293.22        967.23          0.01         -5.00
   102.12         12.40       1297.68        970.58          0.01         -0.52
   102.13         12.40       1293.78        967.65          0.01         -0.47
   102.14         12.40       1297.73        970.58          0.01         -0.38
   102.15         12.39       1293.82        967.65          0.01         -0.29
   102.16         12.39       1297.81        970.58          0.00         -0.17
   102.17         12.39       1297.84        970.58          0.00          4.41
   102.18         12.39       1293.93        967.65          0.00          0.56
   102.19         12.39       1297.85        970.58         -0.00          0.61
   102.20         12.39       1293.34        967.23         -0.00          0.64
   102.21         12.39       1297.82        970.58         -0.00          1.24
   102.22         12.39       1297.84        970.58         -0.00          5.19
   102.23         12.39       1293.37        967.23         -0.00          0.71
   102.24         12.39       1297.85        970.58         -0.00          1.27
   102.25         12.39       1293.92        967.65         -0.00          1.21
   102.26         12.39       1297.82        970.58         -0.00          1.14
   102.27         12.39       1293.88        967.65          0.00          1.11
   102.28         12.39       1297.81        970.58          0.00          0.51
   102.29         12.39       1297.84        970.58          0.00          0.51
   102.30         12.39       1293.96        967.65         -0.00          0.58
   102.31         12.39       1297.97        970.58         -0.00          0.06
   102.32         12.39       1293.57        967.23         -0.00         -0.50
   102.33         12.39       1297.50        970.16         -0.00         -1.07
   102.34         12.39       1297.52        970.16         -0.00         -1.07
   102.35         12.39       1293.01        966.81          0.00         -1.71
   102.36         12.39       1296.88        969.74          0.00         -1.73
   102.37         12.39       1292.95        966.81          0.00         -1.73
   102.38         12.39       1296.79        969.74          0.00         -1.85
   102.39         12.39       1292.83        966.81          0.01         -1.33
   102.40         12.39       1292.79        966.81          0.01         -5.86
   102.41         12.39       1296.66        969.74          0.01         -2.01
   102.42         12.39       1292.72        966.81          0.01         -1.39
   102.43         12.40       1296.61        969.74          0.01         -1.91
   102.44         12.40       1292.69        966.81          0.01         -1.32
   102.45         12.39       1292.70        966.81          0.00         -5.16
   102.46         12.39       1296.64        969.74          0.00         -1.17
   102.47         12.39       1292.76        966.81         -0.00         -1.11
   102.48         12.39       1297.25        970.16         -0.00         -0.48
   102.49         12.39       1293.34        967.23         -0.00         -0.44
   102.50         12.39       1297.26        970.16         -0.00         -1.01
   102.51         12.39       1297.25        970.16         -0.00          3.42
   102.52         12.39       1293.34        967.23         -0.00         -4.47
   102.53         12.39       1297.22        970.16          0.00         -0.67
   102.54         12.39       1293.28        967.23          0.01         -0.18
   102.55         12.40       1297.15        970.16          0.01         -0.80
   102.56         12.40       1297.12        970.16          0.01          3.07
   102.57         12.40       1293.25        967.23          0.01         -4.74
   102.58         12.40       1297.17        970.16          0.01         -0.83
   102.59         12.40       1292.67        966.81          0.01         -1.44
   102.60         12.40       1297.15        970.16          0.01         -1.44
   102.61         12.40       1293.22        967.23          0.01         -0.83
   102.62         12.40       1293.23        967.23          0.00         -4.65
   102.63         12.39       1297.23        970.16          0.00          3.35
   102.64         12.39       1293.40        967.23         -0.00         -0.39
   102.65         12.39       1297.93        970.58         -0.01         -0.30
   102.66         12.39       1294.08        967.65         -0.01          0.38
   102.67         12.39       1298.02        970.58         -0.01          0.44
   102.68         12.39       1297.97        970.58         -0.01          4.34
   102.69         12.39       1294.04        967.65         -0.01         -3.47
   102.70         12.39       1298.49        971.00         -0.01          1.05
   102.71         12.39       1293.98        967.65         -0.01          1.07
   102.72         12.39       1297.88        970.58         -0.01          1.06
   102.73         12.39       1297.85        970.58         -0.01          4.95
   102.74         12.39       1293.87        967.65         -0.01         -2.98
   102.75         12.40       1297.71        970.58         -0.01          0.79
   102.76         12.40       1293.17        967.23         -0.00          0.71
   102.77         12.40       1297.03        970.16         -0.00          0.05
   102.78         12.40       1293.08        967.23          0.00         -0.05
   102.79         12.40       1293.10        967.23          0.00         -4.00
   102.80         12.40       1297.05        970.16          0.00          3.81
   102.81         12.40       1292.60        966.81          0.00         -0.68
   102.82         12.40       1297.11        970.16          0.00         -0.15
   102.83         12.40       1293.23        967.23          0.00         -0.14
   102.84         12.39       1297.18        970.16          0.00         -0.14
   102.85         12.39       1297.22        970.16          0.00          3.84
   102.86         12.39       1293.34        967.23         -0.00         -3.88
   102.87         12.39       1297.25        970.16         -0.00          0.08
   102.88         12.39       1293.32        967.23         -0.00          0.67
   102.89         12.39       1297.23        970.16         -0.00          0.65
   102.90         12.40       1297.17        970.16         -0.00          4.51
   102.91         12.40       1293.20        967.23          0.00         -3.92
   102.92         12.40       1297.11        970.16          0.00          0.00
   102.93         12.40       1292.61        966.81          0.00         -0.56
   102.94         12.40       1297.12        970.16         -0.00          0.03
   102.95         12.40       1293.20        967.23         -0.00          0.03
   102.96         12.40       1297.11        970.16          0.00         -0.56
   102.97         12.40       1297.11        970.16          0.00          3.33
   102.98         12.40       1293.22        967.23          0.00         -0.61
   102.99         12.40       1297.17        970.16          0.00         -1.14
   103.00         12.39       1293.29        967.23         -0.00         -1.09
   103.01         12.39       1297.25        970.16         -0.00         -1.07
