#Written by Robertson Geologging WinLogger V1.5/410
~VERSION INFORMATION
#------------------------------------------------------------------------------
 VERS. 2.0 : CWLS LOG ASCII STANDARD - VERSION 2.0
 WRAP. NO  : ONE LINE PER DEPTH STEP
~WELL INFORMATION
#MNEM.UNIT         DATA                                DESCRIPTION OF MNEMONIC
#------------------------------------------------------------------------------
 STRT.M        191.7300                            :   START DEPTH
 STOP.M         42.4500                            :   STOP DEPTH
 STEP.M         -0.0100                            :   STEP VALUE
 NULL.        -999.2500                            :   NULL VALUE
 COMP.    I.W.S.                                   :   COMPANY NAME
 WELL.    THRISLINGTON                             :   WELL NAME
 FLD.     N/A                                      :   FIELD NAME
 LOC.     N/A                                      :   LOCATION
 PROV.    N/A                                      :   PROVINCE
 SRVC.    N/A                                      :   SERVICE COMPANY NAME
 DATE.    14 Nov 11                                :   DATE
 UWI.     N/A                                      :   UNIQUE WELL IDENTIFIER
~PARAMETER INFORMATION
#MNEMO.UNIT         VALUE                 DESCRIPTION OF MNEMONIC
#------------------------------------------------------------------------------
~OTHER INFORMATION SECTION
#------------------------------------------------------------------------------
 1365 LOW
~CURVE INFORMATION
#MNEMO.UNIT         API CODE              CURVE DESCRIPTION
#------------------------------------------------------------------------------
 DEPTH.M                                 :   0     Depth
 TEMP.DegC                               :   1     Temperature
 COND.uS/cm                              :   2     Conductivity
 DELT.DegC                               :   3     Delta T
 DELC.uS/cm                              :   4     Delta C
 NGAM.CPS                                :   5     Natural Gamma
#------------------------------------------------------------------------------
~A  DEPTH          TEMP          COND          DELT          DELC          NGAM
# ...
   152.73         12.39        920.74          0.00         -0.00          0.00
   152.72         12.39        920.74          0.00         -2.51          0.00
   152.71         12.39        920.74          0.00         -0.42          0.00
   152.70         12.39        920.74          0.00         -0.42          0.00
   152.69         12.39        920.74          0.00         -0.42          0.00
   152.68         12.39        920.74         -0.00          0.00          0.00
   152.67         12.39        923.25         -0.00          2.51          0.00
   152.66         12.39        920.74         -0.01          0.00          0.00
   152.65         12.39        920.74         -0.01          0.00          0.00
   152.64         12.39        920.32         -0.01         -0.42          0.00
   152.63         12.39        920.32         -0.01         -0.84          0.00
   152.62         12.39        920.74         -0.00         -0.42          0.00
   152.61         12.39        920.74         -0.00         -0.42          0.00
   152.60         12.39        920.74         -0.01          0.00          0.00
   152.59         12.39        920.74         -0.01          0.00          0.00
   152.58         12.39        920.74         -0.01         -0.00          0.00
   152.57         12.39        920.74         -0.01          0.00          0.00
   152.56         12.39        920.74         -0.00          0.00          0.00
   152.55         12.39        923.25         -0.00          2.51          0.00
   152.54         12.39        923.25         -0.00          2.51          0.00
   152.53         12.39        920.74         -0.00          0.00          0.00
   152.52         12.39        920.74         -0.00          0.42          0.00
   152.51         12.39        920.32         -0.00         -0.42          0.00
   152.50         12.39        920.32         -0.00         -0.42          0.00
   152.49         12.39        920.32         -0.00         -2.93          0.00
   152.48         12.39        920.32         -0.01         -0.42          0.00
   152.47         12.39        920.32         -0.01         -0.42          0.00
   152.46         12.39        920.74         -0.00         -0.00          0.00
   152.45         12.39        920.74         -0.01         -0.00          0.00
   152.44         12.39        920.74         -0.00          0.00          0.00
   152.43         12.39        920.74         -0.01          0.00          0.00
   152.42         12.39        923.25         -0.01          2.51          0.00
   152.41         12.39        920.74         -0.01          0.00          0.00
   152.40         12.39        920.74         -0.01          0.42          0.00
   152.39         12.39        920.74         -0.00          0.42          0.00
   152.38         12.39        920.74         -0.00          0.42          0.00
   152.37         12.39        920.74         -0.00         -2.09          0.00
   152.36         12.39        920.74          0.00         -2.09          0.00
   152.35         12.39        920.32          0.00         -2.51          0.00
   152.34         12.39        920.32          0.00         -0.42          0.00
   152.33         12.39        920.32          0.00          0.00          0.00
   152.32         12.39        920.32          0.01          0.00          0.00
   152.31         12.39        920.32          0.01          0.00          0.00
   152.30         12.40        922.41          0.01          1.68          0.00
   152.29         12.40        922.83          0.01          2.51          0.00
   152.28         12.40        922.41          0.01          1.68          0.50
   152.27         12.40        922.41          0.01          1.68          0.50
   152.26         12.40        922.41          0.01          1.68          0.50
   152.25         12.40        919.90          0.01         -0.84          0.50
   152.24         12.40        919.90          0.01         -0.84          0.50
   152.23         12.40        919.90          0.00         -2.93          0.50
   152.22         12.40        919.90          0.00         -3.35          0.50
   152.21         12.40        919.90         -0.00         -0.84          1.00
   152.20         12.39        919.90         -0.01         -0.84          1.50
   152.19         12.39        920.32         -0.01         -0.00          1.50
   152.18         12.39        919.90         -0.01         -0.84          1.50
   152.17         12.39        920.32         -0.01          0.00          1.50
   152.16         12.38        920.32         -0.01          0.00          1.50
   152.15         12.38        920.32         -0.01          0.00          1.50
   152.14         12.38        922.83         -0.02          2.51          1.50
   152.13         12.38        922.83         -0.02          2.51          1.50
   152.12         12.38        922.83         -0.02          2.51          1.50
   152.11         12.38        920.32         -0.01          0.00          1.00
   152.10         12.38        920.32         -0.01         -2.51          1.00
   152.09         12.38        920.32         -0.01         -2.51          2.00
   152.08         12.39        920.32         -0.01         -2.09          2.00
   152.07         12.39        920.32         -0.01         -2.09          2.00
   152.06         12.38        920.32         -0.01         -2.09          2.00
   152.05         12.38        920.32         -0.01          0.42          2.00
   152.04         12.38        920.32         -0.01          0.42          2.08
   152.03         12.38        920.32         -0.01          0.42          1.58
   152.02         12.38        920.32         -0.01          0.42          1.58
   152.01         12.39        920.32         -0.01          0.42          1.58
   152.00         12.39        922.83         -0.01          2.93          1.58
   151.99         12.39        922.83         -0.01          2.93          1.58
   151.98         12.39        922.83         -0.01          2.93          1.58
   151.97         12.39        922.83         -0.00          2.09          1.58
   151.96         12.39        920.32         -0.00         -0.00          1.58
   151.95         12.39        920.32         -0.00         -0.00          1.58
   151.94         12.39        920.32          0.00         -2.51          1.58
   151.93         12.39        920.74         -0.00         -2.09          1.58
   151.92         12.39        920.74         -0.00         -2.09          0.58
   151.91         12.39        920.74         -0.00         -2.09          0.58
   151.90         12.39        920.74         -0.00          0.42          0.58
   151.89         12.39        920.74         -0.00          0.42          0.58
   151.88         12.39        920.74          0.00          0.42          0.58
   151.87         12.39        920.74          0.00          0.42          0.00
   151.86         12.39        920.74          0.00          0.84          0.00
   151.85         12.39        923.25          0.00          2.93          0.00
   151.84         12.39        920.74          0.00          0.42          0.00
   151.83         12.39        920.74          0.00          0.42          0.50
   151.82         12.39        920.32          0.01          0.00          0.50
   151.81         12.39        920.32          0.01          0.00          0.50
   151.80         12.39        920.74          0.01          0.42          0.50
   151.79         12.39        920.74          0.01         -2.09          0.50
   151.78         12.39        920.74          0.01         -2.09          0.50
   151.77         12.39        920.74          0.01         -2.09          0.50
   151.76         12.39        920.74          0.01          0.42          0.50
   151.75         12.39        920.74          0.01          0.00          0.50
   151.74         12.39        920.74          0.01          0.00          0.50
