#Written by Robertson Geologging WinLogger V1.5/410
~VERSION INFORMATION
#------------------------------------------------------------------------------
 VERS. 2.0 : CWLS LOG ASCII STANDARD - VERSION 2.0
 WRAP. NO  : ONE LINE PER DEPTH STEP
~WELL INFORMATION
#MNEM.UNIT         DATA                                DESCRIPTION OF MNEMONIC
#------------------------------------------------------------------------------
 STRT.M         25.0100                            :   START DEPTH
 STOP.M        192.0000                            :   STOP DEPTH
 STEP.M          0.0100                            :   STEP VALUE
 NULL.        -999.2500                            :   NULL VALUE
 COMP.    IWS                                      :   COMPANY NAME
 WELL.    Thristlington                            :   WELL NAME
 FLD.     N/A                                      :   FIELD NAME
 LOC.     N/A                                      :   LOCATION
 PROV.    N/A                                      :   PROVINCE
 SRVC.    N/A                                      :   SERVICE COMPANY NAME
 DATE.    01 Feb 11                                :   DATE
 UWI.     N/A                                      :   UNIQUE WELL IDENTIFIER
~PARAMETER INFORMATION
#MNEMO.UNIT         VALUE                 DESCRIPTION OF MNEMONIC
#------------------------------------------------------------------------------
~OTHER INFORMATION SECTION
#------------------------------------------------------------------------------
 1365
~CURVE INFORMATION
#MNEMO.UNIT         API CODE              CURVE DESCRIPTION
#------------------------------------------------------------------------------
 DEPTH.M                                 :   0     Depth
 TEMP.DegC                               :   1     Temperature
 CN25.uS/cm                              :   2     Conductivity@25DegC
 DELT.DegC                               :   3     Delta T
 DELC.uS/cm                              :   4     Delta C
#------------------------------------------------------------------------------
~A  DEPTH          TEMP          CN25          DELT          DELC
# ...
   179.95         12.19       1178.58          0.01         -0.34
   179.96         12.19       1176.90          0.01         -0.95
   179.97         12.19       1176.92          0.01         -4.85
   179.98         12.19       1180.33          0.01          0.88
   179.99         12.19       1180.33          0.01          0.90
   180.00         12.19       1176.95          0.01         -2.48
   180.01         12.19       1176.94          0.01         -0.28
   180.02         12.19       1176.92          0.01         -0.40
   180.03         12.19       1178.09          0.01         -1.55
   180.04         12.19       1179.80          0.01          0.09
   180.05         12.19       1176.46          0.01         -1.02
   180.06         12.19       1178.74          0.01         -0.99
   180.07         12.19       1180.42          0.01          0.69
   180.08         12.19       1180.42          0.01          2.94
   180.09         12.19       1175.36          0.01         -4.43
   180.10         12.19       1178.75          0.02         -1.06
   180.11         12.19       1178.75          0.01         -1.03
   180.12         12.19       1177.07          0.01         -2.66
   180.13         12.19       1179.32          0.01         -0.30
   180.14         12.19       1175.36          0.01         -1.92
   180.15         12.19       1177.63          0.00         -1.82
   180.16         12.19       1178.74          0.00         -1.77
   180.17         12.19       1175.91          0.00         -0.62
   180.18         12.19       1175.35          0.00         -1.13
   180.19         12.19       1176.46         -0.00         -3.36
   180.20         12.19       1178.16         -0.00          2.35
   180.21         12.19       1174.81         -0.01         -0.94
   180.22         12.19       1178.22         -0.01         -0.93
   180.23         12.19       1179.95         -0.01          2.44
   180.24         12.18       1177.76         -0.00          0.13
   180.25         12.18       1179.47         -0.00          1.75
   180.26         12.18       1177.25          0.00          0.56
   180.27         12.18       1176.19         -0.00         -1.66
   180.28         12.18       1180.19         -0.00          2.31
   180.29         12.18       1180.79         -0.00          2.89
   180.30         12.18       1177.97         -0.00          0.04
   180.31         12.18       1179.02          0.00         -0.63
   180.32         12.18       1181.21          0.00          1.53
   180.33         12.18       1177.76          0.01          1.45
   180.34         12.19       1177.67          0.01         -2.57
   180.35         12.19       1177.63          0.01         -0.86
   180.36         12.19       1177.60          0.01         -1.96
   180.37         12.19       1177.61          0.01         -0.76
   180.38         12.19       1181.01          0.01          2.65
   180.39         12.19       1177.63          0.01         -2.48
   180.40         12.19       1177.64          0.01         -2.55
   180.41         12.19       1179.36          0.01          0.22
   180.42         12.18       1178.29          0.01          1.38
   180.43         12.18       1176.07          0.01         -4.23
   180.44         12.18       1179.47          0.01          2.60
   180.45         12.18       1179.53          0.00          3.84
   180.46         12.18       1179.56          0.00          2.22
   180.47         12.18       1177.91         -0.00         -1.63
   180.48         12.18       1181.29         -0.00          3.45
   180.49         12.18       1177.87         -0.00          2.31
   180.50         12.18       1177.86         -0.00          1.24
   180.51         12.18       1177.86         -0.01         -0.93
   180.52         12.18       1177.84         -0.01          3.07
   180.53         12.18       1181.22         -0.01          3.09
   180.54         12.18       1181.21         -0.01          8.14
   180.55         12.18       1177.80         -0.01         -2.03
   180.56         12.18       1177.77         -0.01         -0.94
   180.57         12.18       1177.73         -0.01         -0.96
   180.58         12.19       1181.58         -0.00          7.97
   180.59         12.19       1178.15         -0.00          1.72
   180.60         12.19       1178.12         -0.00          1.72
   180.61         12.19       1178.08         -0.00          1.70
   180.62         12.19       1178.05          0.00          1.69
   180.63         12.19       1181.38          0.00          2.24
   180.64         12.19       1177.99          0.00          1.69
   180.65         12.19       1178.04         -0.00          0.04
   180.66         12.19       1178.11         -0.00          0.11
   180.67         12.19       1178.12         -0.00          2.41
   180.68         12.19       1178.12         -0.01          0.17
   180.69         12.19       1179.26         -0.01         -0.32
   180.70         12.19       1179.26         -0.01          0.85
   180.71         12.19       1177.60         -0.01         -0.83
   180.72         12.19       1177.66         -0.01         -3.07
   180.73         12.19       1181.08         -0.01          4.80
   180.74         12.18       1177.76         -0.01          0.28
   180.75         12.18       1177.76         -0.01         -1.46
   180.76         12.19       1177.71         -0.01         -1.52
   180.77         12.19       1177.67         -0.00          1.79
   180.78         12.19       1177.67         -0.00         -2.79
   180.79         12.19       1179.95          0.00          0.55
   180.80         12.18       1176.62          0.00         -1.17
   180.81         12.18       1176.64          0.00         -1.21
   180.82         12.18       1181.68          0.00          0.41
   180.83         12.19       1179.97          0.01          2.08
   180.84         12.19       1176.53          0.01         -3.58
   180.85         12.19       1176.49          0.01         -1.31
   180.86         12.19       1179.85          0.00          2.12
   180.87         12.19       1179.85          0.00          2.14
   180.88         12.19       1179.84          0.00         -1.25
   180.89         12.19       1178.13          0.00         -0.69
   180.90         12.19       1179.23          0.00          1.55
   180.91         12.19       1179.23          0.00         -1.24
   180.92         12.19       1179.25          0.00          0.53
   180.93         12.19       1174.22         -0.00         -4.41
   180.94         12.19       1179.32         -0.01          0.73
   180.95         12.19       1179.33         -0.01          2.44
   180.96         12.19       1179.36         -0.01          2.44
   180.97         12.19       1176.00         -0.01         -4.33
   180.98         12.19       1176.02         -0.01         -4.31
   180.99         12.18       1178.33         -0.01          1.38
   181.00         12.18       1180.07         -0.01          3.13
   181.01         12.18       1176.71         -0.01         -0.21
   181.02         12.18       1176.73         -0.01         -1.36
   181.03         12.18       1180.09         -0.01          0.30
   181.04         12.18       1180.07         -0.01          3.61
   181.05         12.18       1176.67         -0.01         -2.07
   181.06         12.18       1176.71         -0.01         -3.70
   181.07         12.18       1178.98         -0.01         -1.43
   181.08         12.18       1179.02         -0.01          3.66
   181.09         12.18       1179.04         -0.01          0.28
   181.10         12.18       1176.74         -0.01         -2.01
   181.11         12.18       1178.95         -0.01          1.89
   181.12         12.18       1178.93         -0.01         -0.39
   181.13         12.18       1178.90         -0.00          3.53
   181.14         12.18       1175.50         -0.00         -2.12
   181.15         12.18       1179.45         -0.00          0.71
   181.16         12.18       1179.45         -0.00          3.53
