#Written by Robertson Geologging WinLogger V1.0/406
~VERSION INFORMATION
#------------------------------------------------------------------------------
 VERS. 2.0 : CWLS LOG ASCII STANDARD - VERSION 2.0
 WRAP. NO  : ONE LINE PER DEPTH STEP
~WELL INFORMATION
#MNEM.UNIT         DATA                                DESCRIPTION OF MNEMONIC
#------------------------------------------------------------------------------
 STRT.M         44.9500                            :   START DEPTH
 STOP.M        194.0200                            :   STOP DEPTH
 STEP.M          0.0100                            :   STEP VALUE
 NULL.        -999.2500                            :   NULL VALUE
 COMP.    Coal Authority                           :   COMPANY NAME
 WELL.    Thrislington Shaft                       :   WELL NAME
 FLD.     Banks Yard                               :   FIELD NAME
 LOC.     N/A                                      :   LOCATION
 PROV.    N/A                                      :   PROVINCE
 SRVC.    N/A                                      :   SERVICE COMPANY NAME
 DATE.    19 May 08                                :   DATE
 UWI.     N/A                                      :   UNIQUE WELL IDENTIFIER
~PARAMETER INFORMATION
#MNEMO.UNIT         VALUE                 DESCRIPTION OF MNEMONIC
#------------------------------------------------------------------------------
~OTHER INFORMATION SECTION
#------------------------------------------------------------------------------
 TCDS 1365
~CURVE INFORMATION
#MNEMO.UNIT         API CODE              CURVE DESCRIPTION
#------------------------------------------------------------------------------
 DEPTH.M                                 :   0     Depth
 TEMP.DegC                               :   1     Temperature
 COND.uS/cm                              :   2     Absolute Conductivity
 COND.uS/cm                              :   3     Conductivity@25DegC
 DELT.DegC                               :   4     Delta T
 DELC.uS/cm                              :   5     Delta C
#------------------------------------------------------------------------------
~A  DEPTH     TEMP      COND      COND      DELT      DELC      
# ...
    93.79     11.81    625.39    849.47      0.03      7.75 
    93.80     11.81    611.95    831.32      0.02     -6.64 
    93.81     11.79    619.12    841.39      0.01     -0.33 
    93.82     11.80    616.43    837.63      0.01      5.87 
    93.83     11.79    619.12    841.50      0.00      3.65 
    93.84     11.78    616.43    837.96     -0.01     -3.43 
    93.85     11.78    611.95    831.86     -0.01     -9.41 
    93.86     11.78    625.39    850.14     -0.00     12.29 
    93.87     11.78    611.95    831.97     -0.00     -9.64 
    93.88     11.78    619.12    841.61      0.00      3.65 
    93.89     11.78    616.43    838.07     -0.01      6.31 
    93.90     11.76    619.12    842.05     -0.03      0.66 
    93.91     11.77    616.43    838.18     -0.03      0.66 
    93.92     11.76    611.95    832.30     -0.03     -8.98 
    93.93     11.77    619.12    841.94     -0.02     10.29 
    93.94     11.79    616.43    837.74      0.01    -12.40 
    93.95     11.78    619.12    841.61      0.00      9.74 
    93.96     11.79    616.43    837.74      0.01     -3.87 
    93.97     11.78    619.12    841.61      0.00      3.54 
    93.98     11.78    611.95    831.97     -0.01     -9.53 
    93.99     11.78    616.43    837.96      0.00      0.00 
    94.00     11.78    619.12    841.72     -0.01      0.22 
    94.01     11.78    619.12    841.61     -0.01      3.98 
    94.02     11.79    619.12    841.39     -0.00      9.85 
    94.03     11.79    616.43    837.74     -0.01     -3.43 
    94.04     11.79    611.95    831.65      0.00     -6.09 
    94.05     11.80    619.12    841.28      0.02     -0.44 
    94.06     11.80    616.43    837.63      0.01      5.76 
    94.07     11.80    619.12    841.28      0.02     -9.08 
    94.08     11.80    611.95    831.54      0.01     -0.33 
    94.09     11.79    619.12    841.39      0.00      3.54 
    94.10     11.79    616.43    837.74      0.01     -3.87 
    94.11     11.80    619.12    841.28      0.00     -0.11 
    94.12     11.80    619.12    841.17      0.00      3.65 
    94.13     11.80    616.43    837.63      0.00      6.09 
    94.14     11.79    611.95    831.76     -0.00    -18.16 
    94.15     11.79    619.12    841.50      0.00      9.74 
    94.16     11.79    616.43    837.85      0.00     -3.76 
    94.17     11.79    619.12    841.39      0.01      3.43 
    94.18     11.81    616.43    837.41      0.03     -4.31 
    94.19     11.81    619.12    841.06      0.03      9.08 
    94.20     11.81    611.95    831.32      0.04     -6.97 
    94.21     11.81    616.43    837.30      0.04     -4.53 
    94.22     11.80    619.12    841.28      0.02     -0.55 
    94.23     11.78    616.43    837.96     -0.00     -3.54 
    94.24     11.78    619.12    841.61     -0.00      3.76 
    94.25     11.78    619.12    841.61      0.00      9.74 
    94.26     11.79    616.43    837.74      0.01     -3.87 
    94.27     11.79    611.95    831.65      0.01     -6.42 
    94.28     11.79    619.12    841.50      0.01     -0.22 
    94.29     11.78    616.43    838.07     -0.01     -3.43 
    94.30     11.77    619.12    841.83     -0.01      3.99 
    94.31     11.77    616.43    838.18     -0.01      6.31 
    94.32     11.77    619.12    841.83     -0.00      0.11 
    94.33     11.78    616.43    838.07     -0.00      0.11 
    94.34     11.78    611.95    831.86     -0.00     -9.63 
    94.35     11.79    616.43    837.85     -0.00      6.20 
    94.36     11.78    619.12    841.61     -0.02      0.44 
    94.37     11.78    619.12    841.72     -0.01      3.98 
    94.38     11.77    616.43    838.18     -0.00     -3.54 
    94.39     11.76    619.12    842.05     -0.01      0.33 
    94.40     11.76    611.95    832.30     -0.02     -5.65 
    94.41     11.76    616.43    838.40     -0.02      6.64 
    94.42     11.77    619.12    841.94     -0.03      0.66 
    94.43     11.78    619.12    841.72     -0.02      4.20 
    94.44     11.79    616.43    837.85     -0.01     -3.32 
    94.45     11.79    611.95    831.65     -0.00     -9.63 
    94.46     11.80    619.12    841.28      0.00      3.54 
    94.47     11.79    616.43    837.74      0.00      6.09 
    94.48     11.78    619.12    841.61     -0.00      0.11 
    94.49     11.78    619.12    841.72     -0.01      0.22 
    94.50     11.77    616.43    838.18     -0.02      0.44 
    94.51     11.77    611.95    832.08      0.00     -9.75 
    94.52     11.77    619.12    841.83     -0.00      9.86 
    94.53     11.78    616.43    838.07      0.00      0.00 
    94.54     11.78    619.12    841.61      0.01     -0.22 
    94.55     11.78    611.95    831.97     -0.00     -5.98 
    94.56     11.78    625.39    850.14     -0.00      8.64 
    94.57     11.77    611.95    832.08     -0.01      0.22 
    94.58     11.78    619.12    841.72     -0.00      0.11 
    94.59     11.79    616.43    837.74      0.00      0.00 
    94.60     11.79    619.12    841.39      0.01     -0.33 
    94.61     11.79    611.95    831.65      0.00     -6.20 
    94.62     11.79    616.43    837.85     -0.00     -3.54 
    94.63     11.78    619.12    841.72     -0.01      9.96 
    94.64     11.78    619.12    841.61     -0.01      3.98 
    94.65     11.79    616.43    837.85      0.00     -3.65 
    94.66     11.79    619.12    841.50      0.00     -0.11 
    94.67     11.78    616.43    837.96      0.00     -0.11 
    94.68     11.78    611.95    831.86      0.01    -10.08 
    94.69     11.78    619.12    841.61      0.01      3.43 
    94.70     11.78    616.43    838.07      0.00      5.98 
    94.71     11.78    619.12    841.61      0.01     -0.22 
    94.72     11.78    611.95    831.97      0.00     -6.20 
    94.73     11.77    619.12    841.83      0.00      0.00 
    94.74     11.78    616.43    838.07      0.00     -0.11 
    94.75     11.78    619.12    841.72     -0.00      0.11 
    94.76     11.78    616.43    837.96     -0.02      0.44 
    94.77     11.78    619.12    841.61     -0.02     10.29 
    94.78     11.77    611.95    832.08     -0.04    -17.38 
    94.79     11.77    616.43    838.18     -0.03      6.86 
    94.80     11.77    619.12    841.94     -0.02      0.55 
    94.81     11.78    619.12    841.72     -0.02      4.09 
    94.82     11.79    616.43    837.85      0.00     -3.65 
    94.83     11.78    619.12    841.61      0.00      3.65 
    94.84     11.79    616.43    837.85      0.00      5.98 
    94.85     11.77    611.95    832.08     -0.01    -18.05 
    94.86     11.77    619.12    841.94     -0.01      9.97 
    94.87     11.78    616.43    838.07     -0.00     -3.54 
    94.88     11.78    619.12    841.72      0.00      3.65 
    94.89     11.78    616.43    837.96      0.02     -4.10 
    94.90     11.78    619.12    841.61      0.01      3.43 
    94.91     11.78    611.95    831.86      0.02     -0.44 
    94.92     11.79    616.43    837.74      0.02     -4.21 
    94.93     11.79    619.12    841.50     -0.00      3.76 
    94.94     11.79    619.12    841.50      0.00     -0.11 
    94.95     11.79    616.43    837.85     -0.00      0.11 
    94.96     11.78    619.12    841.61      0.00      0.00 
    94.97     11.78    611.95    831.86      0.00     -0.11 
    94.98     11.78    616.43    838.07     -0.00      0.11 
    94.99     11.77    619.12    841.94     -0.01      0.22 
    95.00     11.77    616.43    838.29     -0.01     -3.32 
    95.01     11.77    619.12    841.94     -0.02      0.55 
    95.02     11.77    619.12    841.83     -0.02      4.10 
    95.03     11.78    616.43    837.96     -0.01      6.31 
    95.04     11.78    611.95    831.86     -0.01     -9.41 
    95.05     11.79    625.39    850.03     -0.01     12.40 
    95.06     11.78    611.95    831.86     -0.01     -9.41 
    95.07     11.77    619.12    841.83     -0.02     10.29 
    95.08     11.78    616.43    838.07     -0.01     -3.32 
    95.09     11.77    619.12    841.83     -0.02      4.10 
    95.10     11.77    619.12    841.83     -0.02      0.55 
