#Written by Robertson Geologging WinLogger V1.5/410
~VERSION INFORMATION
#------------------------------------------------------------------------------
 VERS. 2.0 : CWLS LOG ASCII STANDARD - VERSION 2.0
 WRAP. NO  : ONE LINE PER DEPTH STEP
~WELL INFORMATION
#MNEM.UNIT         DATA                                DESCRIPTION OF MNEMONIC
#------------------------------------------------------------------------------
 STRT.M         25.0100                            :   START DEPTH
 STOP.M        192.0000                            :   STOP DEPTH
 STEP.M          0.0100                            :   STEP VALUE
 NULL.        -999.2500                            :   NULL VALUE
 COMP.    IWS                                      :   COMPANY NAME
 WELL.    Thristlington                            :   WELL NAME
 FLD.     N/A                                      :   FIELD NAME
 LOC.     N/A                                      :   LOCATION
 PROV.    N/A                                      :   PROVINCE
 SRVC.    N/A                                      :   SERVICE COMPANY NAME
 DATE.    01 Feb 11                                :   DATE
 UWI.     N/A                                      :   UNIQUE WELL IDENTIFIER
~PARAMETER INFORMATION
#MNEMO.UNIT         VALUE                 DESCRIPTION OF MNEMONIC
#------------------------------------------------------------------------------
~OTHER INFORMATION SECTION
#------------------------------------------------------------------------------
 1365
~CURVE INFORMATION
#MNEMO.UNIT         API CODE              CURVE DESCRIPTION
#------------------------------------------------------------------------------
 DEPTH.M                                 :   0     Depth
 TEMP.DegC                               :   1     Temperature
 CN25.uS/cm                              :   2     Conductivity@25DegC
 DELT.DegC                               :   3     Delta T
 DELC.uS/cm                              :   4     Delta C
#------------------------------------------------------------------------------
~A  DEPTH          TEMP          CN25          DELT          DELC
# ...
    90.89         12.14       1177.54         -0.01         -2.07
    90.90         12.14       1181.40         -0.00          1.81
    90.91         12.14       1177.96         -0.00         -1.65
    90.92         12.14       1181.91          0.00          2.25
    90.93         12.14       1179.68          0.00         -1.72
    90.94         12.14       1178.05          0.00         -2.28
    90.95         12.14       1182.04          0.00          1.68
    90.96         12.14       1179.80          0.00          1.68
    90.97         12.14       1182.04          0.00          1.69
    90.98         12.14       1178.02          0.00         -2.30
    90.99         12.14       1179.64          0.00         -1.83
    91.00         12.15       1181.83          0.01          4.27
    91.01         12.15       1177.81          0.01         -2.08
    91.02         12.15       1181.15          0.02         -0.50
    91.03         12.15       1177.13          0.02         -0.61
    91.04         12.15       1179.31          0.02         -0.71
    91.05         12.15       1180.96          0.02          3.21
    91.06         12.15       1177.00          0.02         -4.64
    91.07         12.15       1179.29          0.02         -2.32
    91.08         12.15       1177.07          0.02         -0.54
    91.09         12.15       1181.08          0.01         -0.46
    91.10         12.15       1179.41          0.01          1.25
    91.11         12.15       1179.46          0.01         -2.63
    91.12         12.15       1181.20          0.01          1.44
    91.13         12.15       1180.12          0.00          2.10
    91.14         12.14       1180.21          0.00         -1.71
    91.15         12.14       1177.99         -0.00         -1.59
    91.16         12.14       1180.26         -0.00         -1.55
    91.17         12.14       1180.26         -0.00          0.72
    91.18         12.14       1181.36         -0.01          3.55
    91.19         12.14       1179.61         -0.00         -2.14
    91.20         12.15       1179.57         -0.00          0.10
    91.21         12.15       1181.25         -0.00         -0.42
    91.22         12.15       1177.27         -0.00         -2.13
    91.23         12.15       1179.54         -0.00          1.82
    91.24         12.14       1177.33         -0.00         -4.37
    91.25         12.14       1181.29         -0.00          1.85
    91.26         12.14       1179.64         -0.01         -2.07
    91.27         12.14       1177.40         -0.01         -2.06
    91.28         12.14       1181.33         -0.01          3.55
    91.29         12.14       1180.22         -0.00         -1.55
    91.30         12.14       1181.93         -0.01          2.43
    91.31         12.14       1178.01         -0.01         -3.75
    91.32         12.14       1178.06         -0.01         -1.38
    91.33         12.14       1182.05         -0.01          4.37
    91.34         12.14       1182.08         -0.02          0.50
    91.35         12.14       1182.07         -0.02          2.81
    91.36         12.14       1178.11         -0.02         -3.38
    91.37         12.14       1179.74         -0.02          2.23
    91.38         12.14       1181.95         -0.02          4.47
    91.39         12.14       1181.94         -0.02          0.53
    91.40         12.14       1179.61         -0.01         -1.80
    91.41         12.15       1177.88         -0.01         -3.58
    91.42         12.15       1182.88         -0.01          5.36
    91.43         12.15       1181.10         -0.01          3.55
    91.44         12.15       1178.78         -0.00         -2.75
    91.45         12.15       1178.71          0.00         -2.82
    91.46         12.16       1176.97          0.00         -4.58
    91.47         12.16       1182.00          0.01          4.34
    91.48         12.16       1180.31          0.01         -2.48
    91.49         12.16       1178.06          0.01         -3.10
    91.50         12.16       1178.02          0.01         -3.20
    91.51         12.16       1176.34          0.01         -2.61
    91.52         12.16       1181.41          0.01          4.18
    91.53         12.16       1176.35          0.01         -4.81
    91.54         12.16       1178.06          0.01         -3.10
    91.55         12.16       1180.31          0.01         -0.86
    91.56         12.16       1176.34          0.01         -2.60
    91.57         12.16       1181.37          0.01          4.11
    91.58         12.16       1176.31          0.01         -4.86
    91.59         12.16       1178.02          0.01          0.25
    91.60         12.16       1180.34          0.01         -1.34
    91.61         12.15       1176.51          0.00         -1.18
    91.62         12.15       1181.65          0.00          1.68
    91.63         12.15       1176.62          0.00         -5.09
    91.64         12.15       1178.33          0.00          0.54
    91.65         12.15       1180.60          0.00          0.49
    91.66         12.15       1176.70          0.00         -1.20
    91.67         12.14       1181.85          0.00          1.69
    91.68         12.14       1178.53         -0.00         -1.65
    91.69         12.14       1178.51          0.00          0.56
    91.70         12.14       1180.73          0.00          0.54
    91.71         12.15       1178.40          0.00         -1.79
    91.72         12.15       1182.28          0.01          0.38
    91.73         12.15       1178.85          0.01          0.91
    91.74         12.15       1178.84          0.01          0.93
    91.75         12.15       1182.22          0.01          0.36
    91.76         12.15       1178.30          0.01         -3.55
    91.77         12.15       1180.01          0.01         -1.86
    91.78         12.15       1178.86          0.01          0.86
    91.79         12.15       1177.19          0.01         -5.94
    91.80         12.15       1182.28          0.01          0.84
    91.81         12.15       1178.37          0.01         -3.09
    91.82         12.15       1178.40          0.01         -0.79
    91.83         12.15       1178.39          0.01          0.90
    91.84         12.15       1176.70          0.01         -4.72
    91.85         12.15       1181.77          0.01          0.32
    91.86         12.15       1176.71          0.01         -4.78
    91.87         12.15       1180.68          0.01          3.14
    91.88         12.15       1180.70          0.01          3.16
    91.89         12.14       1176.78          0.00         -4.62
    91.90         12.14       1180.78          0.00          2.82
    91.91         12.14       1177.44         -0.00         -4.47
    91.92         12.14       1181.43         -0.00          1.75
    91.93         12.14       1179.77         -0.00          1.72
    91.94         12.14       1177.53          0.00         -4.51
    91.95         12.14       1181.49          0.00          1.69
    91.96         12.14       1176.40          0.00         -5.64
    91.97         12.14       1181.45         -0.00          3.43
    91.98         12.14       1177.44         -0.00         -2.20
    91.99         12.14       1177.42         -0.00         -4.41
    92.00         12.14       1181.33         -0.00          3.52
    92.01         12.14       1181.28         -0.00          0.13
    92.02         12.15       1181.22         -0.00          4.09
    92.03         12.15       1177.19         -0.00         -2.13
    92.04         12.15       1178.81         -0.00         -2.15
    92.05         12.15       1181.06         -0.00          4.06
    92.06         12.15       1181.06         -0.00          1.78
    92.07         12.15       1181.09         -0.00          4.02
    92.08         12.15       1177.77         -0.00         -3.31
    92.09         12.15       1181.73         -0.00          2.31
    92.10         12.15       1181.74         -0.00          2.28
