#Written by Robertson Geologging WinLogger V1.0/370
~VERSION INFORMATION
#------------------------------------------------------------------------------
 VERS. 2.0 : CWLS LOG ASCII STANDARD - VERSION 2.0
 WRAP. NO  : ONE LINE PER DEPTH STEP
~WELL INFORMATION
#MNEM.UNIT         DATA                                DESCRIPTION OF MNEMONIC
#------------------------------------------------------------------------------
 STRT.M         44.0600                            :   START DEPTH
 STOP.M        195.1500                            :   STOP DEPTH
 STEP.M          0.0100                            :   STEP VALUE
 NULL.        -999.2500                            :   NULL VALUE
 COMP.    WHITE YOUN GREEN                         :   COMPANY NAME
 WELL.    THRISINGTON SHAFT                        :   WELL NAME
 FLD.     THRISINGTON                              :   FIELD NAME
 LOC.     N/A                                      :   LOCATION
 PROV.    N/A                                      :   PROVINCE
 SRVC.    N/A                                      :   SERVICE COMPANY NAME
 DATE.    15 Dec 06                                :   DATE
 UWI.     N/A                                      :   UNIQUE WELL IDENTIFIER
~PARAMETER INFORMATION
#MNEMO.UNIT         VALUE                 DESCRIPTION OF MNEMONIC
#------------------------------------------------------------------------------
~OTHER INFORMATION SECTION
#------------------------------------------------------------------------------
 lLOGGING DOWN
~CURVE INFORMATION
#MNEMO.UNIT         API CODE              CURVE DESCRIPTION
#------------------------------------------------------------------------------
 DEPTH.M                                 :   0     Depth
 TEMP.DegC                               :   1     Temperature
 CN25.mS/cm                              :   2     Conductivity@25DegC
 COND.mS/cm                              :   3     Conductivity
 DELT.DegC                               :   4     Delta T
 DELC.mS/cm                              :   5     Delta C
 NGAM.CPS                                :   6     Natural Gamma
#------------------------------------------------------------------------------
~A  DEPTH     TEMP      CN25      COND      DELT      DELC      NGAM      
# ...
    83.61     12.05      7.87      1.20      0.00     -0.01      0.00 
    83.62     12.05      7.87      1.20      0.00     -0.01      0.00 
    83.63     12.05      7.87      1.20      0.00     -0.00      0.00 
    83.64     12.05      7.87      1.20      0.00      0.00      0.00 
    83.65     12.05      7.88      1.20      0.00      0.00      0.00 
    83.66     12.05      7.87      1.20      0.00     -0.00      0.00 
    83.67     12.05      7.87      1.20      0.00     -0.00      0.00 
    83.68     12.05      7.88      1.20      0.00     -0.00      0.00 
    83.69     12.05      7.88      1.20      0.00     -0.00      0.00 
    83.70     12.05      7.88      1.20      0.00     -0.00      0.00 
    83.71     12.05      7.88      1.20      0.00      0.00      0.00 
    83.72     12.05      7.88      1.20      0.00      0.00      0.41 
    83.73     12.05      7.88      1.20     -0.00      0.00      0.41 
    83.74     12.05      7.88      1.20     -0.00     -0.00      0.41 
    83.75     12.05      7.88      1.20     -0.00     -0.00      0.41 
    83.76     12.05      7.88      1.20      0.00      0.00      0.41 
    83.77     12.05      7.87      1.20      0.00     -0.00      0.41 
    83.78     12.05      7.87      1.20      0.01     -0.00      0.41 
    83.79     12.05      7.86      1.20      0.01     -0.01      0.41 
    83.80     12.06      7.87      1.20      0.01     -0.01      0.41 
    83.81     12.06      7.87      1.20      0.01     -0.01      0.41 
    83.82     12.06      7.87      1.20      0.01     -0.01      0.41 
    83.83     12.05      7.87      1.20      0.01     -0.01      0.41 
    83.84     12.05      7.87      1.20      0.01     -0.01      0.41 
    83.85     12.05      7.87      1.20      0.01     -0.01      0.41 
    83.86     12.05      7.87      1.20      0.01     -0.01      0.41 
    83.87     12.05      7.87      1.20      0.00     -0.01      0.41 
    83.88     12.05      7.87      1.20      0.00     -0.01      0.41 
    83.89     12.05      7.88      1.20      0.00      0.00      0.00 
    83.90     12.04      7.88      1.20     -0.00      0.01      0.00 
    83.91     12.04      7.88      1.20     -0.01      0.01      0.00 
    83.92     12.04      7.88      1.20     -0.01      0.01      0.00 
    83.93     12.04      7.89      1.20     -0.01      0.02      0.00 
    83.94     12.03      7.89      1.20     -0.01      0.01      0.00 
    83.95     12.03      7.88      1.20     -0.01      0.01      0.00 
    83.96     12.03      7.89      1.20     -0.02      0.02      0.00 
    83.97     12.04      7.89      1.20     -0.02      0.02      0.00 
    83.98     12.04      7.89      1.20     -0.01      0.02      0.00 
    83.99     12.04      7.89      1.20     -0.01      0.01      0.00 
    84.00     12.04      7.89      1.20     -0.01      0.01      0.00 
    84.01     12.04      7.89      1.20     -0.01      0.01      0.00 
    84.02     12.03      7.89      1.20     -0.01      0.01      0.00 
    84.03     12.03      7.89      1.20     -0.01      0.02      0.00 
    84.04     12.03      7.89      1.20     -0.01      0.01      0.00 
    84.05     12.04      7.89      1.20     -0.01      0.01      0.00 
    84.06     12.04      7.89      1.20     -0.01      0.02      0.00 
    84.07     12.04      7.88      1.20     -0.01      0.01      0.00 
    84.08     12.04      7.88      1.20     -0.00      0.00      0.00 
    84.09     12.04      7.89      1.20     -0.00      0.00      0.00 
    84.10     12.04      7.88      1.20      0.00      0.01      0.00 
    84.11     12.04      7.88      1.20      0.00     -0.00      0.00 
    84.12     12.04      7.88      1.20      0.00     -0.00      0.00 
    84.13     12.05      7.88      1.20      0.01     -0.01      0.00 
    84.14     12.05      7.87      1.20      0.01     -0.01      0.00 
    84.15     12.05      7.87      1.20      0.01     -0.01      0.00 
    84.16     12.05      7.88      1.20      0.01     -0.01      0.00 
    84.17     12.05      7.88      1.20      0.01     -0.01      0.00 
    84.18     12.05      7.87      1.20      0.01     -0.01      0.00 
    84.19     12.05      7.87      1.20      0.01     -0.01      0.00 
    84.20     12.05      7.88      1.20      0.01     -0.01      0.00 
    84.21     12.04      7.88      1.20      0.00     -0.01      0.00 
    84.22     12.04      7.88      1.20      0.00     -0.00      0.00 
    84.23     12.04      7.88      1.20      0.00     -0.00      0.00 
    84.24     12.04      7.88      1.20      0.00     -0.00      0.00 
    84.25     12.05      7.87      1.20      0.01     -0.01      0.00 
    84.26     12.05      7.87      1.20      0.01     -0.01      0.00 
    84.27     12.05      7.87      1.20      0.01     -0.02      0.00 
    84.28     12.06      7.87      1.20      0.01     -0.01      0.00 
    84.29     12.06      7.87      1.20      0.01     -0.01      0.00 
    84.30     12.06      7.86      1.20      0.01     -0.01      0.00 
    84.31     12.06      7.86      1.20      0.01     -0.01      0.00 
    84.32     12.06      7.87      1.20      0.01     -0.01      0.00 
    84.33     12.06      7.86      1.20      0.01     -0.01      0.00 
    84.34     12.06      7.86      1.20      0.01     -0.01      0.00 
    84.35     12.06      7.86      1.20      0.01     -0.01      0.00 
    84.36     12.06      7.87      1.20      0.01     -0.01      0.00 
    84.37     12.06      7.87      1.20      0.01     -0.01      0.00 
    84.38     12.06      7.87      1.20      0.01     -0.01      0.00 
    84.39     12.05      7.87      1.20      0.01     -0.01      0.00 
    84.40     12.05      7.87      1.20      0.01     -0.02      0.41 
    84.41     12.05      7.87      1.20      0.02     -0.02      0.41 
    84.42     12.05      7.87      1.20      0.01     -0.01      0.41 
    84.43     12.05      7.87      1.20      0.01     -0.01      0.41 
    84.44     12.05      7.87      1.20      0.01     -0.01      0.41 
    84.45     12.05      7.87      1.20      0.01     -0.01      0.41 
    84.46     12.05      7.87      1.20      0.00     -0.01      0.41 
    84.47     12.05      7.88      1.20      0.00     -0.00      0.41 
    84.48     12.05      7.88      1.20     -0.00      0.00      0.41 
    84.49     12.04      7.88      1.20     -0.01      0.00      0.88 
    84.50     12.04      7.88      1.20     -0.01      0.01      0.88 
    84.51     12.04      7.89      1.20     -0.01      0.02      0.88 
    84.52     12.04      7.89      1.20     -0.01      0.01      0.88 
    84.53     12.04      7.88      1.20     -0.01      0.01      0.88 
    84.54     12.04      7.88      1.20     -0.01      0.01      0.88 
    84.55     12.04      7.88      1.20     -0.01      0.01      0.88 
    84.56     12.04      7.88      1.20     -0.01      0.01      0.88 
    84.57     12.04      7.88      1.20     -0.01      0.00      0.47 
    84.58     12.04      7.88      1.20     -0.01      0.01      0.47 
    84.59     12.04      7.88      1.20     -0.01      0.01      0.47 
    84.60     12.04      7.88      1.20     -0.01      0.01      0.47 
    84.61     12.04      7.88      1.20     -0.01      0.01      0.47 
    84.62     12.04      7.88      1.20     -0.01      0.01      0.47 
    84.63     12.04      7.88      1.20     -0.01      0.01      0.47 
    84.64     12.04      7.88      1.20     -0.01      0.00      0.47 
    84.65     12.04      7.88      1.20     -0.00      0.01      0.47 
    84.66     12.05      7.88      1.20     -0.00      0.00      0.00 
    84.67     12.05      7.88      1.20      0.00     -0.00      0.00 
    84.68     12.05      7.88      1.20      0.00      0.00      0.00 
    84.69     12.05      7.88      1.20     -0.00     -0.00      0.00 
    84.70     12.05      7.88      1.20      0.00     -0.00      0.00 
    84.71     12.05      7.88      1.20      0.00      0.00      0.00 
    84.72     12.05      7.88      1.20      0.00      0.00      0.00 
    84.73     12.05      7.88      1.20      0.00     -0.00      0.00 
