#Written by Robertson Geologging WinLogger V1.5/410
~VERSION INFORMATION
#------------------------------------------------------------------------------
 VERS. 2.0 : CWLS LOG ASCII STANDARD - VERSION 2.0
 WRAP. NO  : ONE LINE PER DEPTH STEP
~WELL INFORMATION
#MNEM.UNIT         DATA                                DESCRIPTION OF MNEMONIC
#------------------------------------------------------------------------------
 STRT.M         25.0100                            :   START DEPTH
 STOP.M        192.0000                            :   STOP DEPTH
 STEP.M          0.0100                            :   STEP VALUE
 NULL.        -999.2500                            :   NULL VALUE
 COMP.    IWS                                      :   COMPANY NAME
 WELL.    Thristlington                            :   WELL NAME
 FLD.     N/A                                      :   FIELD NAME
 LOC.     N/A                                      :   LOCATION
 PROV.    N/A                                      :   PROVINCE
 SRVC.    N/A                                      :   SERVICE COMPANY NAME
 DATE.    01 Feb 11                                :   DATE
 UWI.     N/A                                      :   UNIQUE WELL IDENTIFIER
~PARAMETER INFORMATION
#MNEMO.UNIT         VALUE                 DESCRIPTION OF MNEMONIC
#------------------------------------------------------------------------------
~OTHER INFORMATION SECTION
#------------------------------------------------------------------------------
 1365
~CURVE INFORMATION
#MNEMO.UNIT         API CODE              CURVE DESCRIPTION
#------------------------------------------------------------------------------
 DEPTH.M                                 :   0     Depth
 TEMP.DegC                               :   1     Temperature
 CN25.uS/cm                              :   2     Conductivity@25DegC
 DELT.DegC                               :   3     Delta T
 DELC.uS/cm                              :   4     Delta C
#------------------------------------------------------------------------------
~A  DEPTH          TEMP          CN25          DELT          DELC
# ...
    35.99          8.84        122.34          0.05         -0.20
    36.00          8.84        125.42          0.05         -0.20
    36.01          8.84        122.33          0.05         -0.19
    36.02          8.84        125.41          0.05          2.89
    36.03          8.85        121.70          0.05         -0.82
    36.04          8.85        122.31          0.05         -3.92
    36.05          8.85        121.06          0.05         -1.45
    36.06          8.85        124.76          0.05         -2.08
    36.07          8.85        121.04          0.05         -2.07
    36.08          8.86        121.03          0.05         -5.78
    36.09          8.86        121.03          0.05         -1.45
    36.10          8.86        121.64          0.05         -4.55
    36.11          8.86        121.63          0.05         -0.85
    36.12          8.86        124.70          0.06         -2.10
    36.13          8.87        120.99          0.06         -2.10
    36.14          8.87        121.59          0.06         -1.50
    36.15          8.87        124.67          0.06          1.58
    36.16          8.88        121.57          0.07         -5.23
    36.17          8.88        121.57          0.07         -0.90
    36.18          8.88        121.56          0.07         -0.91
    36.19          8.88        125.88          0.07          2.17
    36.20          8.88        122.17          0.07         -0.92
    36.21          8.88        125.25          0.07          0.93
    36.22          8.88        122.16          0.07         -2.17
    36.23          8.88        122.15          0.08         -0.94
    36.24          8.88        122.15          0.08         -1.57
    36.25          8.88        126.47          0.08         -0.34
    36.26          8.89        122.76          0.08         -0.94
    36.27          8.89        125.84          0.08          2.15
    36.28          8.89        122.75          0.07         -0.94
    36.29          8.89        126.44          0.08         -0.95
    36.30          8.89        121.50          0.08         -1.55
    36.31          8.89        126.43          0.08          3.38
    36.32          8.89        122.73          0.08         -0.32
    36.33          8.89        125.81          0.07          2.77
    36.34          8.89        122.73          0.07         -0.30
    36.35          8.89        126.43          0.07          3.41
    36.36          8.89        122.12          0.07         -0.90
    36.37          8.89        125.82          0.07          2.80
    36.38          8.89        122.12          0.07         -0.91
    36.39          8.89        126.44          0.07          3.40
    36.40          8.89        122.73          0.07         -0.31
    36.41          8.89        123.35          0.07          0.30
    36.42          8.90        122.10          0.08         -0.94
    36.43          8.90        125.80          0.08          3.99
    36.44          8.90        122.71          0.08          0.28
    36.45          8.90        122.08          0.08         -0.35
    36.46          8.90        123.30          0.09          0.87
    36.47          8.91        122.67          0.09          0.24
    36.48          8.91        123.89          0.09          1.46
    36.49          8.91        123.88          0.10          1.45
    36.50          8.91        122.65          0.09          0.84
    36.51          8.91        123.27          0.09          0.23
    36.52          8.91        126.35          0.09          3.94
    36.53          8.91        123.27          0.09         -4.09
    36.54          8.91        123.27          0.09         -0.37
    36.55          8.91        123.27          0.09         -0.36
    36.56          8.91        126.97          0.08          3.34
    36.57          8.91        122.66          0.08         -4.06
    36.58          8.91        126.36          0.08          2.73
    36.59          8.91        122.05          0.08         -0.97
    36.60          8.91        122.05          0.08         -0.96
    36.61          8.91        122.05          0.08         -1.57
    36.62          8.91        122.05          0.08         -0.34
    36.63          8.91        122.04          0.08         -4.05
    36.64          8.91        122.04          0.08          0.27
    36.65          8.91        122.04          0.08          0.27
    36.66          8.91        122.03          0.08         -4.06
    36.67          8.91        122.03          0.08         -0.35
    36.68          8.91        121.41          0.09         -2.21
    36.69          8.91        122.65          0.09         -0.36
    36.70          8.91        122.03          0.09         -5.92
    36.71          8.91        125.73          0.09          1.48
    36.72          8.91        122.65          0.09         -4.70
    36.73          8.91        125.73          0.09          1.47
    36.74          8.91        122.03          0.09         -2.23
    36.75          8.91        126.35          0.09          2.09
    36.76          8.91        122.65          0.09         -5.32
    36.77          8.91        126.97          0.09          3.95
    36.78          8.91        123.27          0.09         -0.36
    36.79          8.91        126.97          0.08          4.58
    36.80          8.91        122.65          0.08         -0.35
    36.81          8.91        126.35          0.08          4.59
    36.82          8.91        122.65          0.08          0.89
    36.83          8.91        125.73          0.08          2.74
    36.84          8.91        122.64          0.08          0.28
    36.85          8.91        126.34          0.08          2.74
    36.86          8.91        122.02          0.08         -0.95
    36.87          8.91        125.73          0.08          2.75
    36.88          8.91        121.41          0.08         -2.18
    36.89          8.91        121.41          0.08         -5.27
    36.90          8.91        121.42          0.08         -2.18
    36.91          8.91        121.43          0.07         -5.25
    36.92          8.91        121.44          0.07         -1.53
    36.93          8.90        122.07          0.07         -5.84
    36.94          8.90        122.08          0.06         -0.89
    36.95          8.90        121.47          0.06         -5.20
    36.96          8.90        122.70          0.06          0.36
    36.97          8.90        122.08          0.06         -3.97
    36.98          8.90        123.31          0.06          0.97
    36.99          8.90        122.69          0.06         -2.73
    37.00          8.90        127.62          0.06          5.29
    37.01          8.90        123.92          0.06         -1.50
    37.02          8.91        128.23          0.06          6.53
    37.03          8.91        124.52          0.06          2.21
    37.04          8.91        124.51          0.06          3.44
    37.05          8.91        124.50          0.06         -0.26
    37.06          8.91        125.11          0.06          4.07
    37.07          8.92        123.87          0.06          2.84
    37.08          8.92        124.49          0.06          3.46
    37.09          8.92        123.25          0.06          1.61
    37.10          8.92        123.87          0.05          2.24
    37.11          8.91        122.64          0.05         -2.07
    37.12          8.92        122.63          0.05          1.65
    37.13          8.92        122.63          0.05          1.04
    37.14          8.92        122.62          0.05         -2.04
    37.15          8.92        125.70          0.04          4.13
    37.16          8.92        122.62          0.04          1.05
    37.17          8.92        125.69          0.04          4.13
    37.18          8.92        121.99          0.05         -3.89
    37.19          8.92        126.30          0.04          4.13
    37.20          8.92        122.60          0.04         -2.65
