#Written by Robertson Geologging WinLogger V1.5/410
~VERSION INFORMATION
#------------------------------------------------------------------------------
 VERS. 2.0 : CWLS LOG ASCII STANDARD - VERSION 2.0
 WRAP. NO  : ONE LINE PER DEPTH STEP
~WELL INFORMATION
#MNEM.UNIT         DATA                                DESCRIPTION OF MNEMONIC
#------------------------------------------------------------------------------
 STRT.M         25.0100                            :   START DEPTH
 STOP.M        192.0000                            :   STOP DEPTH
 STEP.M          0.0100                            :   STEP VALUE
 NULL.        -999.2500                            :   NULL VALUE
 COMP.    IWS                                      :   COMPANY NAME
 WELL.    Thristlington                            :   WELL NAME
 FLD.     N/A                                      :   FIELD NAME
 LOC.     N/A                                      :   LOCATION
 PROV.    N/A                                      :   PROVINCE
 SRVC.    N/A                                      :   SERVICE COMPANY NAME
 DATE.    01 Feb 11                                :   DATE
 UWI.     N/A                                      :   UNIQUE WELL IDENTIFIER
~PARAMETER INFORMATION
#MNEMO.UNIT         VALUE                 DESCRIPTION OF MNEMONIC
#------------------------------------------------------------------------------
~OTHER INFORMATION SECTION
#------------------------------------------------------------------------------
 1365
~CURVE INFORMATION
#MNEMO.UNIT         API CODE              CURVE DESCRIPTION
#------------------------------------------------------------------------------
 DEPTH.M                                 :   0     Depth
 TEMP.DegC                               :   1     Temperature
 CN25.uS/cm                              :   2     Conductivity@25DegC
 DELT.DegC                               :   3     Delta T
 DELC.uS/cm                              :   4     Delta C
#------------------------------------------------------------------------------
~A  DEPTH          TEMP          CN25          DELT          DELC
# ...
    46.97         12.07       1166.12          0.04         -0.07
    46.98         12.07       1166.11          0.04          3.35
    46.99         12.07       1164.37          0.04         -0.60
    47.00         12.07       1166.07          0.03          2.84
    47.01         12.07       1164.37          0.03         -2.16
    47.02         12.08       1164.34          0.03         -2.09
    47.03         12.08       1164.34          0.03         -0.31
    47.04         12.08       1166.01          0.02          1.46
    47.05         12.08       1165.98          0.02          1.53
    47.06         12.08       1165.95          0.02          3.83
    47.07         12.08       1164.26          0.02          0.54
    47.08         12.08       1167.65          0.02          3.98
    47.09         12.08       1165.95          0.02          2.32
    47.10         12.08       1167.66          0.01          6.31
    47.11         12.08       1167.62          0.02          4.58
    47.12         12.08       1167.56          0.02          4.55
    47.13         12.08       1167.53          0.02          4.53
    47.14         12.08       1169.20          0.02          6.21
    47.15         12.08       1165.83          0.02          4.53
    47.16         12.08       1167.01          0.02          4.00
    47.17         12.08       1166.48          0.02          3.43
    47.18         12.08       1168.20          0.02          3.45
    47.19         12.08       1166.50          0.01          3.48
    47.20         12.08       1170.41          0.01          4.05
    47.21         12.08       1167.01          0.01          4.10
    47.22         12.08       1167.00          0.01          2.42
    47.23         12.08       1167.01          0.01          4.12
    47.24         12.08       1167.05          0.01          5.83
    47.25         12.08       1167.10          0.01          4.17
    47.26         12.08       1168.83          0.01          2.54
    47.27         12.08       1167.69          0.01          1.44
    47.28         12.08       1169.96          0.01          7.16
    47.29         12.08       1168.28          0.00          5.55
    47.30         12.07       1170.01          0.00          7.31
    47.31         12.07       1166.11         -0.00          3.43
    47.32         12.07       1169.52         -0.00          3.49
    47.33         12.07       1167.86         -0.00          3.54
    47.34         12.07       1170.67         -0.00          8.03
    47.35         12.07       1168.96         -0.00          2.39
    47.36         12.07       1167.21         -0.00          4.02
    47.37         12.08       1168.82          0.00          7.27
    47.38         12.08       1167.08          0.00          3.81
    47.39         12.08       1167.04          0.01          0.38
    47.40         12.08       1167.01          0.01          1.98
    47.41         12.08       1167.01          0.01          0.24
    47.42         12.08       1168.71          0.01          5.28
    47.43         12.08       1167.00          0.01          5.23
    47.44         12.08       1168.66          0.01          5.21
    47.45         12.08       1167.53          0.01          2.40
    47.46         12.08       1167.52          0.01          4.69
    47.47         12.08       1169.26          0.01          4.74
    47.48         12.08       1167.62          0.01          1.41
    47.49         12.08       1169.34          0.01          4.84
    47.50         12.08       1169.33          0.01          6.50
    47.51         12.08       1169.30          0.01          4.82
    47.52         12.08       1169.26          0.01          6.50
    47.53         12.08       1167.53          0.01          1.41
    47.54         12.08       1169.24          0.01          3.09
    47.55         12.08       1169.24          0.01          3.01
    47.56         12.08       1167.58          0.01          1.27
    47.57         12.08       1169.30          0.01          6.31
    47.58         12.08       1169.28          0.02          4.56
    47.59         12.08       1169.28          0.02          6.26
    47.60         12.08       1169.28          0.02          4.56
    47.61         12.08       1165.90          0.02          1.17
    47.62         12.08       1169.85          0.02          5.10
    47.63         12.08       1169.86          0.02          3.36
    47.64         12.08       1168.17          0.02          3.31
    47.65         12.08       1168.17          0.02          1.61
    47.66         12.08       1166.50          0.02          3.38
    47.67         12.08       1168.18          0.02          3.45
    47.68         12.08       1168.17          0.01          1.78
    47.69         12.08       1166.50          0.01          1.84
    47.70         12.08       1168.23          0.01          1.89
    47.71         12.08       1168.24          0.01          3.57
    47.72         12.08       1169.95          0.01          3.57
    47.73         12.08       1169.93          0.01          3.53
    47.74         12.08       1166.52          0.01          1.78
    47.75         12.08       1172.15          0.02          5.70
    47.76         12.08       1172.12          0.02          9.08
    47.77         12.08       1172.11          0.02          3.40
    47.78         12.08       1172.09          0.02          6.76
    47.79         12.08       1170.39          0.02          3.39
    47.80         12.08       1172.05          0.02          5.08
    47.81         12.08       1171.98          0.02          5.05
    47.82         12.09       1170.23          0.02          1.68
    47.83         12.09       1171.88          0.02          5.08
    47.84         12.09       1169.58          0.02          4.57
    47.85         12.09       1171.23          0.01          6.32
    47.86         12.09       1168.92          0.01          4.08
    47.87         12.09       1168.86          0.01          0.66
    47.88         12.10       1168.79          0.02          4.56
    47.89         12.10       1168.72          0.02          1.09
    47.90         12.10       1170.34          0.02          2.67
    47.91         12.10       1170.29          0.02          2.61
    47.92         12.10       1168.56          0.03          2.56
    47.93         12.10       1170.23          0.03          4.19
    47.94         12.10       1168.51          0.03          2.44
    47.95         12.10       1166.80          0.03         -1.00
    47.96         12.11       1168.47          0.03          2.34
    47.97         12.11       1166.77          0.03          0.66
    47.98         12.10       1166.81          0.03          2.44
    47.99         12.10       1168.55          0.03          2.48
    48.00         12.10       1166.93          0.03          2.56
    48.01         12.10       1166.98          0.02          2.64
    48.02         12.10       1167.00          0.02          2.66
    48.03         12.10       1167.01          0.02          1.00
    48.04         12.10       1167.03          0.02          1.05
    48.05         12.10       1168.76          0.02          2.81
    48.06         12.10       1170.47          0.02          6.21
    48.07         12.09       1168.83          0.02          1.19
    48.08         12.09       1172.81          0.01          6.86
    48.09         12.09       1169.43          0.02          1.76
    48.10         12.09       1171.71          0.01          4.09
    48.11         12.09       1173.39          0.01          5.83
    48.12         12.09       1171.74          0.01          4.21
    48.13         12.09       1171.77          0.01          2.57
    48.14         12.09       1173.49          0.01          7.66
    48.15         12.09       1171.80          0.01          4.79
    48.16         12.09       1170.07          0.01          3.60
    48.17         12.09       1170.10          0.01          1.91
    48.18         12.09       1171.78          0.01          5.28
