#Written by Robertson Geologging WinLogger V1.0/370
~VERSION INFORMATION
#------------------------------------------------------------------------------
 VERS. 2.0 : CWLS LOG ASCII STANDARD - VERSION 2.0
 WRAP. NO  : ONE LINE PER DEPTH STEP
~WELL INFORMATION
#MNEM.UNIT         DATA                                DESCRIPTION OF MNEMONIC
#------------------------------------------------------------------------------
 STRT.M         44.0600                            :   START DEPTH
 STOP.M        195.1500                            :   STOP DEPTH
 STEP.M          0.0100                            :   STEP VALUE
 NULL.        -999.2500                            :   NULL VALUE
 COMP.    WHITE YOUN GREEN                         :   COMPANY NAME
 WELL.    THRISINGTON SHAFT                        :   WELL NAME
 FLD.     THRISINGTON                              :   FIELD NAME
 LOC.     N/A                                      :   LOCATION
 PROV.    N/A                                      :   PROVINCE
 SRVC.    N/A                                      :   SERVICE COMPANY NAME
 DATE.    15 Dec 06                                :   DATE
 UWI.     N/A                                      :   UNIQUE WELL IDENTIFIER
~PARAMETER INFORMATION
#MNEMO.UNIT         VALUE                 DESCRIPTION OF MNEMONIC
#------------------------------------------------------------------------------
~OTHER INFORMATION SECTION
#------------------------------------------------------------------------------
 lLOGGING DOWN
~CURVE INFORMATION
#MNEMO.UNIT         API CODE              CURVE DESCRIPTION
#------------------------------------------------------------------------------
 DEPTH.M                                 :   0     Depth
 TEMP.DegC                               :   1     Temperature
 CN25.mS/cm                              :   2     Conductivity@25DegC
 COND.mS/cm                              :   3     Conductivity
 DELT.DegC                               :   4     Delta T
 DELC.mS/cm                              :   5     Delta C
 NGAM.CPS                                :   6     Natural Gamma
#------------------------------------------------------------------------------
~A  DEPTH     TEMP      CN25      COND      DELT      DELC      NGAM      
# ...
   174.01     12.64      7.81      1.61     -0.01      0.01      0.47 
   174.02     12.64      7.81      1.61     -0.01      0.01      0.47 
   174.03     12.64      7.80      1.61     -0.01      0.01      0.47 
   174.04     12.65      7.81      1.61     -0.01      0.01      0.47 
   174.05     12.65      7.80      1.61     -0.01      0.01      0.00 
   174.06     12.64      7.80      1.61     -0.01      0.00      0.00 
   174.07     12.64      7.81      1.61     -0.01      0.01      0.00 
   174.08     12.64      7.81      1.61     -0.01      0.01      0.47 
   174.09     12.64      7.81      1.61     -0.01      0.01      0.47 
   174.10     12.64      7.81      1.61     -0.01      0.01      0.47 
   174.11     12.64      7.82      1.61     -0.00      0.01      0.47 
   174.12     12.63      7.82      1.61     -0.00      0.01      0.47 
   174.13     12.63      7.82      1.61     -0.01      0.01      0.47 
   174.14     12.63      7.83      1.61     -0.01      0.01      0.88 
   174.15     12.63      7.82      1.61     -0.01      0.01      0.88 
   174.16     12.63      7.82      1.61     -0.01      0.01      0.88 
   174.17     12.63      7.82      1.61     -0.00      0.00      0.88 
   174.18     12.63      7.82      1.61     -0.00      0.00      0.88 
   174.19     12.63      7.82      1.61      0.00     -0.00      0.88 
   174.20     12.63      7.82      1.61      0.01     -0.00      0.88 
   174.21     12.64      7.82      1.61      0.01     -0.01      0.88 
   174.22     12.64      7.81      1.61      0.01     -0.01      0.88 
   174.23     12.64      7.81      1.61      0.01     -0.01      0.88 
   174.24     12.64      7.81      1.61      0.01     -0.01      0.88 
   174.25     12.64      7.81      1.61      0.01     -0.01      0.41 
   174.26     12.64      7.81      1.61      0.01     -0.02      0.41 
   174.27     12.64      7.81      1.61      0.01     -0.01      0.41 
   174.28     12.64      7.81      1.61      0.01     -0.01      0.41 
   174.29     12.65      7.80      1.61      0.01     -0.01      0.41 
   174.30     12.65      7.80      1.61      0.01     -0.01      0.41 
   174.31     12.65      7.80      1.61      0.01     -0.01      0.00 
   174.32     12.65      7.80      1.61      0.01     -0.01      0.00 
   174.33     12.64      7.80      1.61      0.01     -0.01      0.00 
   174.34     12.64      7.80      1.61      0.01     -0.01      0.00 
   174.35     12.64      7.81      1.61      0.01     -0.01      0.00 
   174.36     12.64      7.80      1.60      0.01     -0.01      0.00 
   174.37     12.64      7.81      1.61      0.01     -0.01      0.00 
   174.38     12.64      7.80      1.61      0.01     -0.01      0.00 
   174.39     12.64      7.80      1.60      0.01     -0.01      0.00 
   174.40     12.64      7.80      1.60      0.01     -0.01      0.00 
   174.41     12.64      7.81      1.60      0.00     -0.00      0.00 
   174.42     12.64      7.81      1.60     -0.00     -0.00      0.00 
   174.43     12.64      7.81      1.60     -0.00      0.00      0.41 
   174.44     12.64      7.81      1.61     -0.00      0.00      0.41 
   174.45     12.64      7.81      1.61     -0.00      0.00      0.41 
   174.46     12.64      7.81      1.60     -0.00     -0.00      0.41 
   174.47     12.63      7.82      1.61     -0.00      0.00      0.41 
   174.48     12.63      7.82      1.60     -0.01      0.01      0.41 
   174.49     12.63      7.82      1.61     -0.01      0.01      0.41 
   174.50     12.63      7.82      1.61     -0.01      0.01      0.41 
   174.51     12.63      7.82      1.61     -0.01      0.01      0.41 
   174.52     12.64      7.81      1.61     -0.00      0.00      0.41 
   174.53     12.64      7.81      1.61     -0.00      0.00      0.41 
   174.54     12.64      7.81      1.61     -0.00      0.00      0.41 
   174.55     12.64      7.81      1.61     -0.00      0.00      0.41 
   174.56     12.64      7.81      1.61     -0.00      0.01      0.41 
   174.57     12.64      7.81      1.61     -0.00      0.01      0.41 
   174.58     12.64      7.81      1.61     -0.00      0.00      0.41 
   174.59     12.64      7.81      1.61      0.00      0.00      0.41 
   174.60     12.64      7.80      1.61      0.00      0.00      0.00 
   174.61     12.64      7.80      1.61      0.00     -0.00      0.00 
   174.62     12.64      7.80      1.61      0.00     -0.00      0.00 
   174.63     12.64      7.81      1.61      0.00      0.00      0.00 
   174.64     12.64      7.81      1.61      0.00      0.00      0.00 
   174.65     12.64      7.80      1.61      0.00     -0.01      0.00 
   174.66     12.64      7.80      1.61      0.00     -0.00      0.00 
   174.67     12.64      7.80      1.61      0.01     -0.01      0.00 
   174.68     12.64      7.81      1.61      0.01     -0.01      0.41 
   174.69     12.64      7.80      1.61      0.01     -0.01      0.41 
   174.70     12.64      7.80      1.61      0.01     -0.01      0.41 
   174.71     12.64      7.81      1.61      0.01     -0.01      0.41 
   174.72     12.64      7.81      1.61      0.00     -0.01      0.41 
   174.73     12.64      7.81      1.61      0.00     -0.00      0.41 
   174.74     12.64      7.81      1.61      0.00     -0.00      0.41 
   174.75     12.64      7.81      1.61     -0.00     -0.00      0.41 
   174.76     12.64      7.81      1.61     -0.00      0.00      0.41 
   174.77     12.64      7.81      1.61     -0.00      0.00      0.41 
   174.78     12.63      7.82      1.61     -0.00      0.00      0.41 
   174.79     12.63      7.81      1.61     -0.00      0.00      0.41 
   174.80     12.63      7.82      1.61     -0.00      0.01      0.41 
   174.81     12.63      7.81      1.61     -0.00      0.00      0.41 
   174.82     12.63      7.81      1.61     -0.01      0.00      0.41 
   174.83     12.64      7.81      1.61     -0.00      0.00      0.41 
   174.84     12.64      7.81      1.61     -0.00     -0.00      0.41 
   174.85     12.64      7.81      1.61     -0.00      0.00      0.00 
   174.86     12.64      7.81      1.61     -0.00     -0.00      0.00 
   174.87     12.64      7.81      1.61     -0.00      0.00      0.00 
   174.88     12.65      7.80      1.61      0.00     -0.00      0.00 
   174.89     12.65      7.80      1.61      0.00      0.00      0.00 
   174.90     12.65      7.80      1.61      0.00     -0.00      0.00 
   174.91     12.65      7.80      1.61      0.00     -0.00      0.00 
   174.92     12.65      7.80      1.61      0.01     -0.00      0.00 
   174.93     12.65      7.80      1.61      0.01     -0.01      0.00 
   174.94     12.65      7.80      1.61      0.01     -0.01      0.00 
   174.95     12.65      7.80      1.61      0.01     -0.01      0.00 
   174.96     12.65      7.80      1.61      0.01     -0.01      0.00 
   174.97     12.65      7.80      1.61      0.01     -0.01      0.00 
   174.98     12.65      7.80      1.61      0.01     -0.01      0.00 
   174.99     12.65      7.80      1.61      0.01     -0.01      0.41 
   175.00     12.65      7.80      1.61      0.01     -0.01      0.41 
   175.01     12.65      7.80      1.61      0.01     -0.01      0.41 
   175.02     12.65      7.80      1.61      0.01     -0.00      0.41 
   175.03     12.65      7.80      1.60      0.00     -0.01      0.41 
   175.04     12.65      7.80      1.61      0.00     -0.00      0.41 
   175.05     12.65      7.80      1.61      0.01     -0.01      0.82 
   175.06     12.65      7.80      1.61      0.01     -0.01      0.82 
   175.07     12.65      7.80      1.61      0.01     -0.01      0.82 
   175.08     12.65      7.80      1.61      0.01     -0.01      1.24 
   175.09     12.65      7.80      1.61      0.01     -0.01      1.24 
   175.10     12.65      7.80      1.61      0.01     -0.01      1.24 
   175.11     12.65      7.80      1.61      0.01     -0.02      1.24 
   175.12     12.65      7.80      1.61      0.01     -0.01      1.24 
   175.13     12.65      7.80      1.60      0.02     -0.02      1.24 
