#Written by Robertson Geologging WinLogger V1.0/406
~VERSION INFORMATION
#------------------------------------------------------------------------------
 VERS. 2.0 : CWLS LOG ASCII STANDARD - VERSION 2.0
 WRAP. NO  : ONE LINE PER DEPTH STEP
~WELL INFORMATION
#MNEM.UNIT         DATA                                DESCRIPTION OF MNEMONIC
#------------------------------------------------------------------------------
 STRT.M         44.9500                            :   START DEPTH
 STOP.M        194.0200                            :   STOP DEPTH
 STEP.M          0.0100                            :   STEP VALUE
 NULL.        -999.2500                            :   NULL VALUE
 COMP.    Coal Authority                           :   COMPANY NAME
 WELL.    Thrislington Shaft                       :   WELL NAME
 FLD.     Banks Yard                               :   FIELD NAME
 LOC.     N/A                                      :   LOCATION
 PROV.    N/A                                      :   PROVINCE
 SRVC.    N/A                                      :   SERVICE COMPANY NAME
 DATE.    19 May 08                                :   DATE
 UWI.     N/A                                      :   UNIQUE WELL IDENTIFIER
~PARAMETER INFORMATION
#MNEMO.UNIT         VALUE                 DESCRIPTION OF MNEMONIC
#------------------------------------------------------------------------------
~OTHER INFORMATION SECTION
#------------------------------------------------------------------------------
 TCDS 1365
~CURVE INFORMATION
#MNEMO.UNIT         API CODE              CURVE DESCRIPTION
#------------------------------------------------------------------------------
 DEPTH.M                                 :   0     Depth
 TEMP.DegC                               :   1     Temperature
 COND.uS/cm                              :   2     Absolute Conductivity
 COND.uS/cm                              :   3     Conductivity@25DegC
 DELT.DegC                               :   4     Delta T
 DELC.uS/cm                              :   5     Delta C
#------------------------------------------------------------------------------
~A  DEPTH     TEMP      COND      COND      DELT      DELC      
# ...
   183.55     12.67    940.38   1248.34      0.00      9.54 
   183.56     12.66    940.38   1248.50     -0.01      0.32 
   183.57     12.66    940.38   1248.66     -0.00      0.16 
   183.58     12.65    940.38   1248.82     -0.00      7.32 
   183.59     12.64    933.19   1239.60      0.00     -8.36 
   183.60     12.64    940.38   1249.14      0.00     -0.16 
   183.61     12.64    940.38   1249.30     -0.00      0.16 
   183.62     12.63    940.38   1249.46     -0.02     -0.55 
   183.63     12.64    940.38   1249.14     -0.01      1.67 
   183.64     12.64    933.19   1239.60     -0.01      0.32 
   183.65     12.64    940.38   1249.30     -0.01      0.48 
   183.66     12.64    940.38   1249.14      0.00      0.00 
   183.67     12.63    940.38   1249.46     -0.01      0.32 
   183.68     12.63    933.19   1239.91     -0.02      0.64 
   183.69     12.64    940.38   1249.14     -0.01      0.32 
   183.70     12.65    940.38   1248.98     -0.01      0.48 
   183.71     12.64    940.38   1249.14     -0.02      0.80 
   183.72     12.63    940.38   1249.46     -0.03      0.96 
   183.73     12.62    933.19   1240.23     -0.04      1.27 
   183.74     12.64    940.38   1249.30     -0.01      0.32 
   183.75     12.64    940.38   1249.30     -0.01      0.32 
   183.76     12.65    940.38   1248.98     -0.00      1.35 
   183.77     12.64    940.38   1249.14     -0.00      0.16 
   183.78     12.63    933.19   1239.91     -0.02      0.64 
   183.79     12.64    940.38   1249.30     -0.01      0.32 
   183.80     12.64    940.38   1249.30      0.01     -0.32 
   183.81     12.64    940.38   1249.14      0.00     -0.16 
   183.82     12.65    940.38   1248.98      0.01      9.07 
   183.83     12.64    933.19   1239.75      0.00     -9.71 
   183.84     12.62    940.38   1249.79     -0.01      1.67 
   183.85     12.63    940.38   1249.63     -0.00      0.16 
   183.86     12.63    940.38   1249.46     -0.02      0.64 
   183.87     12.63    940.38   1249.46     -0.01      0.32 
   183.88     12.65    939.48   1247.79      0.00      8.35 
   183.89     12.66    933.19   1238.96      0.02    -10.18 
   183.90     12.66    940.38   1248.66      0.02     -0.80 
   183.91     12.66    940.38   1248.66      0.00      0.00 
   183.92     12.65    940.38   1248.98     -0.01      9.87 
   183.93     12.64    940.38   1249.14     -0.01      0.32 
   183.94     12.64    933.19   1239.75     -0.01     -9.07 
   183.95     12.64    940.38   1249.30     -0.01      0.32 
   183.96     12.64    940.38   1249.14     -0.00      7.32 
   183.97     12.64    940.38   1249.30     -0.01      0.48 
   183.98     12.65    940.38   1248.98      0.00      0.00 
   183.99     12.65    939.48   1247.79      0.00     -1.35 
   184.00     12.65    933.19   1239.28      0.01     -0.48 
   184.01     12.66    940.38   1248.66      0.01     -0.48 
   184.02     12.65    940.38   1248.98      0.00      0.00 
   184.03     12.64    934.99   1241.98     -0.00     -7.00 
   184.04     12.64    940.38   1249.14      0.00      0.00 
   184.05     12.64    940.38   1249.30      0.00      9.55 
   184.06     12.64    940.38   1249.14      0.00      0.00 
   184.07     12.65    940.38   1248.98      0.00     -1.19 
   184.08     12.65    933.19   1239.44      0.00     -9.55 
   184.09     12.64    940.38   1249.14     -0.00      9.71 
   184.10     12.64    940.38   1249.30     -0.00      0.16 
   184.11     12.63    940.38   1249.63     -0.01      0.32 
   184.12     12.64    933.19   1239.75      0.00     -9.55 
   184.13     12.64    940.38   1249.14      0.00     -0.16 
   184.14     12.65    940.38   1248.98      0.02      8.91 
   184.15     12.65    940.38   1248.82      0.02     -0.80 
   184.16     12.65    933.19   1239.44      0.01    -10.03 
   184.17     12.64    940.38   1249.14      0.01     -0.32 
   184.18     12.65    940.38   1248.98      0.00     -0.16 
   184.19     12.65    940.38   1248.82      0.00      7.00 
   184.20     12.66    940.38   1248.66      0.01     -0.32 
   184.21     12.66    934.99   1241.50      0.01     -7.48 
   184.22     12.66    940.38   1248.66      0.01     -0.48 
   184.23     12.65    940.38   1248.98      0.01      9.07 
   184.24     12.63    933.19   1239.91      0.01     -9.87 
   184.25     12.64    940.38   1249.14      0.01     -0.32 
   184.26     12.64    940.38   1249.14      0.01     -0.48 
   184.27     12.64    940.38   1249.14      0.00     -0.16 
   184.28     12.64    933.19   1239.60      0.00      0.00 
   184.29     12.64    940.38   1249.30     -0.01      0.32 
   184.30     12.64    940.38   1249.14     -0.00      0.16 
   184.31     12.65    940.38   1248.82      0.01     -0.32 
   184.32     12.66    940.38   1248.66      0.01      9.23 
   184.33     12.65    933.19   1239.28      0.01     -9.87 
   184.34     12.65    940.38   1248.98     -0.00      0.16 
   184.35     12.65    941.28   1250.18     -0.01      1.51 
   184.36     12.66    933.19   1239.12     -0.00     -2.23 
   184.37     12.65    940.38   1248.82     -0.00      1.35 
   184.38     12.65    940.38   1248.98      0.00      0.00 
   184.39     12.64    940.38   1249.14      0.00      0.00 
   184.40     12.63    940.38   1249.46     -0.01      0.48 
   184.41     12.65    933.19   1239.44     -0.00     -9.39 
   184.42     12.64    940.38   1249.14     -0.00      9.71 
   184.43     12.66    940.38   1248.66      0.01     -0.48 
   184.44     12.65    940.38   1248.82      0.02     -0.80 
   184.45     12.65    933.19   1239.44      0.02    -10.19 
   184.46     12.65    940.38   1248.82      0.02     -0.64 
   184.47     12.64    940.38   1249.30     -0.01     10.03 
   184.48     12.64    940.38   1249.30     -0.03      2.31 
   184.49     12.63    940.38   1249.63     -0.04      1.28 
   184.50     12.63    933.19   1239.91     -0.03     -8.43 
   184.51     12.63    940.38   1249.63     -0.03      1.12 
   184.52     12.63    940.38   1249.63     -0.03      1.12 
   184.53     12.64    940.38   1249.30     -0.02     10.34 
   184.54     12.64    933.19   1239.60     -0.02     -8.75 
   184.55     12.65    940.38   1248.82     -0.01      0.32 
   184.56     12.65    940.38   1248.82     -0.00      0.16 
   184.57     12.65    940.38   1248.82      0.00      0.00 
   184.58     12.64    940.38   1249.14      0.00      9.55 
   184.59     12.63    933.19   1239.91     -0.01     -9.23 
   184.60     12.63    940.38   1249.46     -0.00      0.16 
   184.61     12.63    940.38   1249.63     -0.00      0.16 
   184.62     12.64    939.48   1248.11     -0.00     -1.03 
   184.63     12.64    940.38   1249.14      0.00      9.55 
   184.64     12.65    933.19   1239.44      0.01     -9.87 
   184.65     12.64    940.38   1249.14      0.00      0.00 
   184.66     12.63    940.38   1249.46      0.00      0.00 
   184.67     12.62    940.38   1249.79     -0.01      9.87 
   184.68     12.61    940.38   1250.11     -0.03      0.96 
   184.69     12.62    933.19   1240.23     -0.02     -8.75 
   184.70     12.62    940.38   1249.79     -0.02      0.64 
   184.71     12.63    939.48   1248.27      0.00     -1.19 
   184.72     12.65    940.38   1248.82      0.03      8.59 
   184.73     12.64    940.38   1249.14      0.00     -0.16 
   184.74     12.64    933.19   1239.60      0.00     -9.71 
   184.75     12.65    940.38   1248.98      0.00      0.00 
   184.76     12.63    940.38   1249.46     -0.01      0.32 
   184.77     12.64    940.38   1249.14      0.01      9.23 
   184.78     12.64    940.38   1249.14      0.00     -0.16 
   184.79     12.64    933.19   1239.75      0.00     -9.55 
   184.80     12.63    940.38   1249.46     -0.01      0.32 
   184.81     12.63    940.38   1249.63     -0.02      0.64 
   184.82     12.62    940.38   1249.79     -0.01     10.03 
   184.83     12.62    933.19   1240.39     -0.00     -9.40 
   184.84     12.62    940.38   1249.79     -0.00      0.16 
   184.85     12.64    940.38   1249.30      0.00     -0.16 
   184.86     12.64    939.48   1247.95      0.01     -1.51 
