#Written by Robertson Geologging WinLogger V1.0/406
~VERSION INFORMATION
#------------------------------------------------------------------------------
 VERS. 2.0 : CWLS LOG ASCII STANDARD - VERSION 2.0
 WRAP. NO  : ONE LINE PER DEPTH STEP
~WELL INFORMATION
#MNEM.UNIT         DATA                                DESCRIPTION OF MNEMONIC
#------------------------------------------------------------------------------
 STRT.M         44.9500                            :   START DEPTH
 STOP.M        194.0200                            :   STOP DEPTH
 STEP.M          0.0100                            :   STEP VALUE
 NULL.        -999.2500                            :   NULL VALUE
 COMP.    Coal Authority                           :   COMPANY NAME
 WELL.    Thrislington Shaft                       :   WELL NAME
 FLD.     Banks Yard                               :   FIELD NAME
 LOC.     N/A                                      :   LOCATION
 PROV.    N/A                                      :   PROVINCE
 SRVC.    N/A                                      :   SERVICE COMPANY NAME
 DATE.    19 May 08                                :   DATE
 UWI.     N/A                                      :   UNIQUE WELL IDENTIFIER
~PARAMETER INFORMATION
#MNEMO.UNIT         VALUE                 DESCRIPTION OF MNEMONIC
#------------------------------------------------------------------------------
~OTHER INFORMATION SECTION
#------------------------------------------------------------------------------
 TCDS 1365
~CURVE INFORMATION
#MNEMO.UNIT         API CODE              CURVE DESCRIPTION
#------------------------------------------------------------------------------
 DEPTH.M                                 :   0     Depth
 TEMP.DegC                               :   1     Temperature
 COND.uS/cm                              :   2     Absolute Conductivity
 COND.uS/cm                              :   3     Conductivity@25DegC
 DELT.DegC                               :   4     Delta T
 DELC.uS/cm                              :   5     Delta C
#------------------------------------------------------------------------------
~A  DEPTH     TEMP      COND      COND      DELT      DELC      
    44.95     12.66    142.49    189.20      0.00      0.00 
    44.96     12.61    137.14    182.33      0.00      0.00 
    44.97     12.57    142.49    189.64      0.00      0.00 
    44.98     12.53    136.24    181.54      0.00      0.00 
    44.99     12.49    136.24    181.72      0.00      0.00 
    45.00     12.45    137.14    183.10      0.00      0.00 
    45.01     12.41    136.24    182.10      0.00      0.00 
    45.02     12.37    130.89    175.12      0.00      0.00 
    45.03     12.34    136.24    182.45      0.00      0.00 
    45.04     12.30    137.14    183.81      0.00      0.00 
    45.05     12.27    136.24    182.78      0.00      0.00 
    45.06     12.24    131.78    176.93      0.00      0.00 
    45.07     12.21    136.24    183.09      0.00      0.00 
    45.08     12.17    131.78    177.28      0.00      0.00 
    45.09     12.13    136.24    183.45      0.00      0.00 
    45.10     12.11    136.24    183.57      0.00      0.00 
    45.11     12.07    131.78    177.74      0.00      0.00 
    45.12     12.06    136.24    183.83      0.00      0.00 
    45.13     12.05    131.78    177.86      0.00      0.00 
    45.14     12.03    136.24    183.97      0.00      0.00 
    45.15     12.03    131.78    177.95      0.00      0.00 
    45.16     12.01    136.24    184.05      0.00      0.00 
    45.17     12.01    136.24    184.07      0.00      0.00 
    45.18     12.00    127.32    172.06      0.00      0.00 
    45.19     11.99    134.46    181.75      0.00      0.00 
    45.20     11.99    134.46    181.75      0.00      0.00 
    45.21     11.98    134.46    181.83      0.00      0.00 
    45.22     11.97    133.57    180.64      0.00      0.00 
    45.23     11.96    134.46    181.90      0.00      0.00 
    45.24     11.95    133.57    180.76      0.00      0.00 
    45.25     11.93    127.32    172.37      0.00      0.00 
    45.26     11.93    133.57    180.85      0.00      0.00 
    45.27     11.92    134.46    182.09      0.00      0.00 
    45.28     11.91    133.57    180.93      0.00      0.00 
    45.29     11.91    127.32    172.49      0.00      0.00 
    45.30     11.89    133.57    181.04      0.00      0.00 
    45.31     11.88    133.57    181.07      0.00      0.00 
    45.32     11.88    134.46    182.28      0.00      0.00 
    45.33     11.88    124.64    168.97      0.00      0.00 
    45.34     11.88    133.57    181.07      0.00      0.00 
    45.35     11.88    134.46    182.28      0.00      0.00 
    45.36     11.88    133.57    181.09      0.00      0.00 
    45.37     11.88    127.32    172.62      0.00      0.00 
    45.38     11.88    133.57    181.09      0.00      0.00 
    45.39     11.87    133.57    181.14      0.00      0.00 
    45.40     11.87    127.32    172.67      0.00      0.00 
    45.41     11.85    133.57    181.23      0.00      0.00 
    45.42     11.85    127.32    172.76      0.00      0.00 
    45.43     11.84    133.57    181.26      0.00      0.00 
    45.44     11.84    133.57    181.28      0.00      0.00 
    45.45     11.84    127.32    172.80      0.00      0.00 
    45.46     11.84    133.57    181.30      0.00      0.00 
    45.47     11.84    127.32    172.83      0.00      0.00 
    45.48     11.84    133.57    181.30      0.00      0.00 
    45.49     11.84    127.32    172.80      0.00      0.00 
    45.50     11.84    133.57    181.30      0.00      0.00 
    45.51     11.84    127.32    172.83      0.00      0.00 
    45.52     11.83    133.57    181.33      0.00      0.00 
    45.53     11.81    127.32    172.94      0.00      0.00 
    45.54     11.81    133.57    181.42      0.00      0.00 
    45.55     11.80    127.32    172.99      0.00      0.00 
    45.56     11.81    133.57    181.45      0.00      0.00 
    45.57     11.81    127.32    172.94      0.00      0.00 
    45.58     11.81    133.57    181.45      0.00      0.00 
    45.59     11.81    127.32    172.96      0.00      0.00 
    45.60     11.81    133.57    181.45      0.00      0.00 
    45.61     11.81    127.32    172.96      0.00      0.00 
    45.62     11.80    133.57    181.47      0.00      0.00 
    45.63     11.80    127.32    172.99      0.00      0.00 
    45.64     11.81    124.64    169.33      0.00      0.00 
    45.65     11.81    134.46    182.66      0.00      0.00 
    45.66     11.80    124.64    169.35      0.00      0.00 
    45.67     11.81    134.46    182.66      0.00      0.00 
    45.68     11.80    124.64    169.35      0.00      0.00 
    45.69     11.80    127.32    172.99      0.00      0.00 
    45.70     11.80    133.57    181.47     -0.92    158.10 
    45.71     11.80    127.32    173.01     -0.93    149.64 
    45.72     11.79    133.57    181.52     -0.95    158.16 
    45.73     11.80    127.32    172.99     -0.96    149.64 
    45.74     11.80    124.64    169.35     -0.96    146.01 
    45.75     11.80    134.46    182.68     -0.96    159.34 
    45.76     11.80    124.64    169.37     -0.97    146.03 
    45.77     11.79    127.32    173.05     -0.99    149.72 
    45.78     11.78    133.57    181.57     -1.01    164.14 
    45.79     11.78    124.64    169.44     -1.02    146.12 
    45.80     11.82    276.42    375.37     -0.99    352.06 
    45.81     11.86    666.63    904.29     -0.96    866.83 
    45.82     11.86    666.63    904.29     -0.96    802.00 
    45.83     11.88    664.83    901.38     -0.96    792.08 
    45.84     11.88    665.73    902.48     -0.97    773.17 
    45.85     11.85    663.94    900.76     -1.02    700.86 
    45.86     11.83    670.21    909.87     -1.06    708.89 
    45.87     11.82    663.94    901.58     -1.08    707.70 
    45.88     11.83    661.25    897.81     -1.07    702.75 
    45.89     11.83    663.94    901.35     -1.05    706.21 
    45.90     11.83    661.25    897.70     -1.02    709.48 
    45.91     11.84    663.94    901.23     -0.98    712.82 
    45.92     11.83    661.25    897.70     -0.93    709.00 
    45.93     11.83    663.94    901.35     -0.88    720.69 
    45.94     11.83    661.25    897.70     -0.83    708.49 
    45.95     11.84    663.94    901.23     -0.77    718.90 
    45.96     11.84    661.25    897.58     -0.73    707.94 
    45.97     11.84    663.94    901.11     -0.69    719.57 
    45.98     11.85    661.25    897.22     -0.64    715.50 
    45.99     11.85    661.25    897.22     -0.60    714.12 
    46.00     11.84    663.94    900.99     -0.56    718.89 
    46.01     11.84    661.25    897.46     -0.53    722.34 
    46.02     11.83    663.94    901.35     -0.51    718.89 
    46.03     11.83    661.25    897.81     -0.48    714.00 
    46.04     11.82    656.76    891.84     -0.45    709.06 
    46.05     11.83    661.25    897.70     -0.41    720.76 
    46.06     11.84    656.76    891.49     -0.37    708.40 
    46.07     11.83    661.25    897.70     -0.34    720.42 
    46.08     11.84    661.25    897.58     -0.30    714.13 
    46.09     11.82    656.76    891.84     -0.29    708.28 
    46.10     11.83    661.25    897.70     -0.24    719.95 
    46.11     11.84    663.94    901.11     -0.22    717.28 
    46.12     11.84    661.25    897.34     -0.20    719.49 
    46.13     11.85    656.76    891.14     -0.18    707.17 
    46.14     11.84    661.25    897.34     -0.18    719.39 
    46.15     11.84    656.76    891.38     -0.17    707.33 
    46.16     11.84    652.28    885.29     -0.17    701.22 
    46.17     11.84    656.76    891.49     -0.16    719.43 
    46.18     11.83    661.25    897.70     -0.16    715.94 
    46.19     11.84    656.76    891.49     -0.15    709.74 
    46.20     11.83    652.28    885.53     -0.14    703.70 
    46.21     11.84    652.28    885.29     -0.13    704.65 
    46.22     11.84    656.76    891.38     -0.12    709.48 
    46.23     11.83    652.28    885.53     -0.12    704.77 
    46.24     11.83    656.76    891.73     -0.11    719.35 
    46.25     11.81    652.28    885.99     -0.12    705.14 
    46.26     11.81    656.76    892.08     -0.11    709.99 
