#Written by Robertson Geologging WinLogger V1.5/410
~VERSION INFORMATION
#------------------------------------------------------------------------------
 VERS. 2.0 : CWLS LOG ASCII STANDARD - VERSION 2.0
 WRAP. NO  : ONE LINE PER DEPTH STEP
~WELL INFORMATION
#MNEM.UNIT         DATA                                DESCRIPTION OF MNEMONIC
#------------------------------------------------------------------------------
 STRT.M         25.0100                            :   START DEPTH
 STOP.M        192.0000                            :   STOP DEPTH
 STEP.M          0.0100                            :   STEP VALUE
 NULL.        -999.2500                            :   NULL VALUE
 COMP.    IWS                                      :   COMPANY NAME
 WELL.    Thristlington                            :   WELL NAME
 FLD.     N/A                                      :   FIELD NAME
 LOC.     N/A                                      :   LOCATION
 PROV.    N/A                                      :   PROVINCE
 SRVC.    N/A                                      :   SERVICE COMPANY NAME
 DATE.    01 Feb 11                                :   DATE
 UWI.     N/A                                      :   UNIQUE WELL IDENTIFIER
~PARAMETER INFORMATION
#MNEMO.UNIT         VALUE                 DESCRIPTION OF MNEMONIC
#------------------------------------------------------------------------------
~OTHER INFORMATION SECTION
#------------------------------------------------------------------------------
 1365
~CURVE INFORMATION
#MNEMO.UNIT         API CODE              CURVE DESCRIPTION
#------------------------------------------------------------------------------
 DEPTH.M                                 :   0     Depth
 TEMP.DegC                               :   1     Temperature
 CN25.uS/cm                              :   2     Conductivity@25DegC
 DELT.DegC                               :   3     Delta T
 DELC.uS/cm                              :   4     Delta C
#------------------------------------------------------------------------------
~A  DEPTH          TEMP          CN25          DELT          DELC
# ...
    57.95         12.11       1177.86         -0.02         -1.64
    57.96         12.11       1181.78         -0.02          4.53
    57.97         12.11       1179.47         -0.01          3.87
    57.98         12.12       1178.86         -0.01          3.23
    57.99         12.12       1180.47         -0.01          4.78
    58.00         12.12       1176.48         -0.00         -3.23
    58.01         12.12       1181.52         -0.00          5.75
    58.02         12.12       1178.15         -0.00         -1.58
    58.03         12.12       1179.28         -0.00         -0.48
    58.04         12.12       1179.20          0.00          3.37
    58.05         12.12       1176.31          0.00         -3.43
    58.06         12.13       1178.46          0.00          2.68
    58.07         12.13       1174.50          0.00         -1.26
    58.08         12.13       1174.53          0.00         -3.99
    58.09         12.13       1177.36          0.00         -0.06
    58.10         12.13       1175.68          0.00         -2.85
    58.11         12.13       1179.60          0.00          3.33
    58.12         12.13       1174.49          0.00         -5.75
    58.13         12.13       1180.07          0.00          2.14
    58.14         12.13       1174.98          0.00         -1.20
    58.15         12.13       1175.01         -0.00         -2.81
    58.16         12.13       1179.00         -0.00          2.31
    58.17         12.13       1176.83         -0.00         -3.86
    58.18         12.12       1179.69         -0.00         -1.07
    58.19         12.12       1179.70          0.00          1.68
    58.20         12.12       1175.76          0.00         -2.27
    58.21         12.12       1179.70          0.00          0.55
    58.22         12.12       1175.76         -0.00         -1.68
    58.23         12.12       1177.42          0.00          1.13
    58.24         12.13       1176.26          0.00         -1.20
    58.25         12.13       1177.93          0.00          0.45
    58.26         12.13       1179.05          0.00         -0.71
    58.27         12.13       1176.80          0.00         -0.16
    58.28         12.13       1179.04          0.00          0.99
    58.29         12.13       1176.19          0.01         -0.18
    58.30         12.13       1179.53          0.01         -0.78
    58.31         12.13       1179.50          0.01          0.89
    58.32         12.13       1178.36          0.01          3.68
    58.33         12.13       1180.03          0.01          1.39
    58.34         12.13       1182.28          0.01          4.78
    58.35         12.13       1179.48          0.01          3.11
    58.36         12.13       1179.48          0.01          0.31
    58.37         12.13       1180.60          0.01          1.48
    58.38         12.13       1180.58          0.01          1.46
    58.39         12.13       1179.45          0.01          3.75
    58.40         12.13       1181.13          0.01          1.52
    58.41         12.13       1176.02          0.01          0.37
    58.42         12.13       1179.97          0.01          2.65
    58.43         12.13       1178.81          0.01         -1.31
    58.44         12.13       1177.11          0.01         -0.75
    58.45         12.13       1177.11          0.00         -2.96
    58.46         12.13       1178.78          0.00          0.44
    58.47         12.13       1177.09          0.00         -2.38
    58.48         12.13       1177.11          0.00         -0.10
    58.49         12.13       1177.15          0.00         -1.72
    58.50         12.13       1178.29          0.00          1.13
    58.51         12.13       1176.64         -0.00         -0.49
    58.52         12.13       1180.66         -0.01          1.86
    58.53         12.13       1176.77         -0.01         -3.16
    58.54         12.13       1176.84         -0.01         -0.27
    58.55         12.12       1180.83         -0.01          3.71
    58.56         12.12       1178.59         -0.01          0.28
    58.57         12.12       1176.90         -0.01         -1.46
    58.58         12.12       1180.85         -0.01          3.58
    58.59         12.12       1176.88         -0.00         -0.45
    58.60         12.12       1179.14         -0.00          3.47
    58.61         12.12       1176.90         -0.00         -2.73
    58.62         12.12       1176.88         -0.00         -0.49
    58.63         12.12       1176.87         -0.00         -2.78
    58.64         12.13       1178.53          0.00          1.68
    58.65         12.13       1176.80          0.00         -0.06
    58.66         12.13       1176.77          0.00         -3.50
    58.67         12.13       1175.04          0.01         -0.17
    58.68         12.13       1180.10          0.01          0.93
    58.69         12.13       1176.15          0.01         -0.24
    58.70         12.13       1180.13          0.01          3.72
    58.71         12.13       1177.88          0.01         -2.50
    58.72         12.13       1176.19          0.01         -0.28
    58.73         12.13       1177.90          0.01         -0.88
    58.74         12.13       1177.88          0.01          3.07
    58.75         12.13       1176.22          0.01         -0.27
    58.76         12.13       1180.21          0.01         -0.19
    58.77         12.12       1178.01          0.00          2.78
    58.78         12.12       1178.07         -0.00         -1.06
    58.79         12.12       1178.08         -0.00          1.28
    58.80         12.12       1178.07         -0.01          0.20
    58.81         12.12       1175.76         -0.01         -3.21
    58.82         12.13       1176.84         -0.00         -1.00
    58.83         12.13       1176.83         -0.00         -2.69
    58.84         12.13       1180.21         -0.00          4.63
    58.85         12.12       1176.29         -0.00         -3.28
    58.86         12.12       1180.25         -0.00          0.66
    58.87         12.12       1177.98          0.00          2.24
    58.88         12.13       1176.25          0.01         -3.55
    58.89         12.13       1177.91          0.01          1.96
    58.90         12.13       1176.76          0.01          0.72
    58.91         12.13       1178.46          0.01         -0.44
    58.92         12.13       1179.62          0.01          1.79
    58.93         12.13       1176.77          0.02         -1.08
    58.94         12.13       1178.43          0.02          0.57
    58.95         12.13       1177.25          0.02         -4.53
    58.96         12.13       1178.90          0.02         -0.57
    58.97         12.13       1178.86          0.02         -0.01
    58.98         12.13       1177.16          0.01         -3.30
    58.99         12.13       1181.14          0.01          4.66
    59.00         12.13       1181.15          0.01         -0.37
    59.01         12.13       1180.08          0.01          1.93
    59.02         12.13       1180.08          0.01          0.80
    59.03         12.13       1177.22          0.01         -1.98
    59.04         12.13       1180.04          0.01          3.73
    59.05         12.13       1182.27          0.00          3.81
    59.06         12.13       1180.01          0.00          5.51
    59.07         12.13       1178.36          0.00          3.83
    59.08         12.13       1177.29          0.00         -0.07
    59.09         12.13       1180.15          0.00          4.47
    59.10         12.13       1176.22         -0.00         -3.38
    59.11         12.13       1178.52         -0.00          4.03
    59.12         12.13       1175.68         -0.00         -4.38
    59.13         12.13       1177.97         -0.01          2.99
    59.14         12.12       1178.01         -0.01          3.00
    59.15         12.12       1176.90         -0.00         -2.10
    59.16         12.12       1176.94         -0.00          0.11
