#Written by Robertson Geologging WinLogger V1.0/406
~VERSION INFORMATION
#------------------------------------------------------------------------------
 VERS. 2.0 : CWLS LOG ASCII STANDARD - VERSION 2.0
 WRAP. NO  : ONE LINE PER DEPTH STEP
~WELL INFORMATION
#MNEM.UNIT         DATA                                DESCRIPTION OF MNEMONIC
#------------------------------------------------------------------------------
 STRT.M         44.9500                            :   START DEPTH
 STOP.M        194.0200                            :   STOP DEPTH
 STEP.M          0.0100                            :   STEP VALUE
 NULL.        -999.2500                            :   NULL VALUE
 COMP.    Coal Authority                           :   COMPANY NAME
 WELL.    Thrislington Shaft                       :   WELL NAME
 FLD.     Banks Yard                               :   FIELD NAME
 LOC.     N/A                                      :   LOCATION
 PROV.    N/A                                      :   PROVINCE
 SRVC.    N/A                                      :   SERVICE COMPANY NAME
 DATE.    19 May 08                                :   DATE
 UWI.     N/A                                      :   UNIQUE WELL IDENTIFIER
~PARAMETER INFORMATION
#MNEMO.UNIT         VALUE                 DESCRIPTION OF MNEMONIC
#------------------------------------------------------------------------------
~OTHER INFORMATION SECTION
#------------------------------------------------------------------------------
 TCDS 1365
~CURVE INFORMATION
#MNEMO.UNIT         API CODE              CURVE DESCRIPTION
#------------------------------------------------------------------------------
 DEPTH.M                                 :   0     Depth
 TEMP.DegC                               :   1     Temperature
 COND.uS/cm                              :   2     Absolute Conductivity
 COND.uS/cm                              :   3     Conductivity@25DegC
 DELT.DegC                               :   4     Delta T
 DELC.uS/cm                              :   5     Delta C
#------------------------------------------------------------------------------
~A  DEPTH     TEMP      COND      COND      DELT      DELC      
# ...
    73.99     11.79    619.12    841.39      0.00      3.54 
    74.00     11.80    611.95    831.54      0.01     -0.33 
    74.01     11.80    625.39    849.69      0.01     -0.33 
    74.02     11.79    611.95    831.76      0.00      0.00 
    74.03     11.78    616.43    837.96     -0.00     -3.54 
    74.04     11.77    619.12    841.83     -0.01      3.99 
    74.05     11.77    619.12    841.94     -0.02      0.44 
    74.06     11.77    616.43    838.29     -0.02     -3.21 
    74.07     11.77    619.12    841.94     -0.02      4.10 
    74.08     11.78    619.12    841.72     -0.01      0.22 
    74.09     11.78    616.43    837.96     -0.00      0.11 
    74.10     11.79    611.95    831.76      0.00      0.00 
    74.11     11.79    619.12    841.39      0.01     -8.75 
    74.12     11.80    616.43    837.63      0.02      5.65 
    74.13     11.80    619.12    841.28      0.02      3.21 
    74.14     11.79    619.12    841.50      0.00     -0.11 
    74.15     11.79    619.12    841.50      0.00     -0.11 
    74.16     11.78    616.43    837.96      0.01     -0.22 
    74.17     11.78    611.95    831.97      0.00     -9.86 
    74.18     11.79    619.12    841.50      0.01     -0.33 
    74.19     11.79    616.43    837.74      0.01     -0.33 
    74.20     11.78    619.12    841.61     -0.00      0.11 
    74.21     11.78    616.43    838.07     -0.02      6.64 
    74.22     11.77    619.12    841.83     -0.03      4.31 
    74.23     11.78    619.12    841.72     -0.01      0.33 
    74.24     11.79    616.43    837.85      0.00     -3.65 
    74.25     11.78    611.95    831.86      0.00     -6.09 
    74.26     11.78    625.39    850.25     -0.00      8.64 
    74.27     11.78    611.95    831.97     -0.00     -9.64 
    74.28     11.78    619.12    841.61     -0.00      3.76 
    74.29     11.78    616.43    837.96     -0.00      6.20 
    74.30     11.78    619.12    841.61      0.00     -0.11 
    74.31     11.79    616.43    837.85      0.00      0.00 
    74.32     11.78    619.12    841.61     -0.00      0.11 
    74.33     11.79    616.43    837.85      0.01     -3.87 
    74.34     11.79    619.12    841.50      0.00      0.00 
    74.35     11.78    616.43    837.96     -0.00      0.11 
    74.36     11.79    619.12    841.50     -0.00      0.11 
    74.37     11.78    616.43    837.96      0.00      6.09 
    74.38     11.78    611.95    831.86     -0.00     -9.63 
    74.39     11.79    619.12    841.50      0.00      3.54 
    74.40     11.78    616.43    837.96      0.01     -3.88 
    74.41     11.78    619.12    841.61      0.00      0.00 
    74.42     11.79    619.12    841.50      0.01      3.43 
    74.43     11.79    616.43    837.74      0.02     -4.10 
    74.44     11.79    619.12    841.50      0.01      9.42 
    74.45     11.79    616.43    837.85      0.01     -0.22 
    74.46     11.79    619.12    841.50      0.01     -0.22 
    74.47     11.77    611.95    832.08     -0.01     -9.42 
    74.48     11.78    616.43    837.96     -0.01      0.33 
    74.49     11.78    619.12    841.72     -0.01      0.33 
    74.50     11.78    619.12    841.61     -0.00      0.11 
    74.51     11.80    616.43    837.63      0.00      5.98 
    74.52     11.80    619.12    841.28      0.00      3.54 
    74.53     11.80    619.12    841.28      0.01     -0.33 
    74.54     11.80    616.43    837.63      0.01     -3.87 
    74.55     11.78    611.95    831.86      0.00     -6.09 
    74.56     11.78    619.12    841.72      0.00      0.00 
    74.57     11.78    619.12    841.72     -0.00      0.11 
    74.58     11.78    616.43    838.07     -0.01      6.42 
    74.59     11.78    619.12    841.72     -0.01      3.87 
    74.60     11.79    611.95    831.76      0.00     -9.74 
    74.61     11.79    625.39    849.91      0.00     12.18 
    74.62     11.79    611.95    831.65      0.01    -10.07 
    74.63     11.79    619.12    841.39      0.01     -0.22 
    74.64     11.78    616.43    837.96     -0.00      0.11 
    74.65     11.78    619.12    841.61     -0.01      0.22 
    74.66     11.78    616.43    837.96     -0.01      0.33 
    74.67     11.79    619.12    841.50      0.00      0.00 
    74.68     11.79    619.12    841.50      0.00      9.63 
    74.69     11.79    611.95    831.65      0.02     -6.53 
    74.70     11.79    616.43    837.74      0.02     -4.10 
    74.71     11.79    619.12    841.50      0.00      3.65 
    74.72     11.79    619.12    841.39      0.01     -0.22 
    74.73     11.79    616.43    837.85      0.00     -3.65 
    74.74     11.78    619.12    841.72     -0.01      3.98 
    74.75     11.77    616.43    838.18     -0.01     -3.32 
    74.76     11.77    619.12    841.94     -0.03      4.32 
    74.77     11.77    611.95    832.08     -0.01     -9.42 
    74.78     11.79    625.39    850.03      0.00     12.07 
    74.79     11.79    611.95    831.65      0.02     -0.44 
    74.80     11.79    619.12    841.39      0.02     -8.97 
    74.81     11.78    616.43    837.96      0.00      6.09 
    74.82     11.78    619.12    841.61     -0.01      3.98 
    74.83     11.78    616.43    837.96     -0.02     -3.10 
    74.84     11.78    619.12    841.61     -0.03      4.31 
    74.85     11.79    611.95    831.65     -0.01     -9.41 
    74.86     11.78    619.12    841.61     -0.01      0.22 
    74.87     11.78    616.43    838.07     -0.02      0.44 
    74.88     11.78    619.12    841.72     -0.01      0.22 
    74.89     11.78    616.43    837.96     -0.01      0.22 
    74.90     11.79    619.12    841.50      0.00      0.00 
    74.91     11.80    619.12    841.28      0.01      9.52 
    74.92     11.79    616.43    837.85     -0.01      0.22 
    74.93     11.77    619.12    841.83     -0.01      0.33 
    74.94     11.77    611.95    832.08     -0.02     -5.54 
    74.95     11.78    616.43    838.07     -0.01     -3.43 
    74.96     11.78    619.12    841.61      0.00      0.00 
    74.97     11.79    616.43    837.74     -0.00      0.11 
    74.98     11.80    619.12    841.28      0.00     -0.11 
    74.99     11.78    619.12    841.61     -0.01     10.07 
    75.00     11.78    616.43    837.96     -0.02    -11.74 
    75.01     11.78    619.12    841.72     -0.01      9.96 
    75.02     11.78    611.95    831.97     -0.00     -5.98 
    75.03     11.78    616.43    837.96      0.01     -3.88 
    75.04     11.78    619.12    841.72      0.01     -0.22 
    75.05     11.78    616.43    837.96      0.01     -0.33 
    75.06     11.77    619.12    841.83      0.00     -0.11 
    75.07     11.78    616.43    837.96      0.00     -3.76 
    75.08     11.79    619.12    841.50      0.00      3.54 
    75.09     11.79    619.12    841.50      0.00      9.74 
    75.10     11.80    616.43    837.52      0.01     -3.87 
    75.11     11.79    619.12    841.39     -0.00      3.76 
    75.12     11.79    616.43    837.74     -0.00     -3.54 
    75.13     11.79    611.95    831.76      0.00     -9.74 
    75.14     11.78    619.12    841.61     -0.00      0.11 
    75.15     11.78    616.43    838.07     -0.00      0.11 
    75.16     11.77    619.12    841.83     -0.00      9.86 
    75.17     11.77    616.43    838.18     -0.01     -3.32 
    75.18     11.78    619.12    841.72     -0.01      3.98 
    75.19     11.78    616.43    837.96      0.00     -3.65 
    75.20     11.78    619.12    841.61      0.00      3.54 
    75.21     11.78    611.95    831.97      0.00     -9.86 
    75.22     11.78    625.39    850.25      0.00      8.53 
    75.23     11.78    611.95    831.97     -0.01     -5.87 
    75.24     11.78    619.12    841.72     -0.00      9.86 
    75.25     11.78    616.43    838.07      0.00    -12.18 
    75.26     11.78    619.12    841.72      0.00      9.75 
    75.27     11.78    616.43    838.07     -0.00     -3.54 
    75.28     11.78    619.12    841.72     -0.00      3.76 
    75.29     11.79    616.43    837.85      0.00     -3.76 
    75.30     11.80    619.12    841.28      0.01      3.43 
