#Written by Robertson Geologging WinLogger V1.5/410
~VERSION INFORMATION
#------------------------------------------------------------------------------
 VERS. 2.0 : CWLS LOG ASCII STANDARD - VERSION 2.0
 WRAP. NO  : ONE LINE PER DEPTH STEP
~WELL INFORMATION
#MNEM.UNIT         DATA                                DESCRIPTION OF MNEMONIC
#------------------------------------------------------------------------------
 STRT.M         40.0200                            :   START DEPTH
 STOP.M        195.6300                            :   STOP DEPTH
 STEP.M          0.0100                            :   STEP VALUE
 NULL.        -999.2500                            :   NULL VALUE
 COMP.    IWS                                      :   COMPANY NAME
 WELL.    THRISLINGTON                             :   WELL NAME
 FLD.     DURHAM                                   :   FIELD NAME
 LOC.     N/A                                      :   LOCATION
 PROV.    N/A                                      :   PROVINCE
 SRVC.    N/A                                      :   SERVICE COMPANY NAME
 DATE.    16 Dec 09                                :   DATE
 UWI.     N/A                                      :   UNIQUE WELL IDENTIFIER
~PARAMETER INFORMATION
#MNEMO.UNIT         VALUE                 DESCRIPTION OF MNEMONIC
#------------------------------------------------------------------------------
~OTHER INFORMATION SECTION
#------------------------------------------------------------------------------
 TCDS 1365
~CURVE INFORMATION
#MNEMO.UNIT         API CODE              CURVE DESCRIPTION
#------------------------------------------------------------------------------
 DEPTH.M                                 :   0     Depth
 TEMP.DegC                               :   1     Temperature
 COND.uS/cm                              :   2     Conductivity@25DegC
 COND.uS/cm                              :   3     Absolute Conductivity
 DELT.DegC                               :   4     Delta T
 DELC.uS/cm                              :   5     Delta C
#------------------------------------------------------------------------------
~A  DEPTH          TEMP          COND          COND          DELT          DELC
# ...
   154.02         12.40       1294.60        968.49          0.01          0.27
   154.03         12.41       1294.58        968.49          0.01          0.82
   154.04         12.41       1298.49        971.42          0.01          4.74
   154.05         12.41       1294.01        968.07          0.01         -3.65
   154.06         12.40       1294.07        968.07          0.01          0.33
   154.07         12.40       1294.07        968.07          0.01          0.33
   154.08         12.40       1294.07        968.07          0.01         -4.15
   154.09         12.40       1298.53        971.42          0.01          4.80
   154.10         12.41       1294.01        968.07          0.01         -3.66
   154.11         12.41       1293.98        968.07          0.01          0.74
   154.12         12.41       1293.39        967.65          0.01          0.11
   154.13         12.41       1293.39        967.65          0.01         -4.40
   154.14         12.41       1293.39        967.65          0.01         -0.48
   154.15         12.41       1293.96        968.07          0.01         -4.39
   154.16         12.41       1293.96        968.07          0.01         -0.48
   154.17         12.41       1298.39        971.42          0.01          3.96
   154.18         12.41       1293.87        968.07          0.02         -5.04
   154.19         12.41       1293.84        968.07          0.02         -0.53
   154.20         12.41       1293.24        967.65          0.01         -1.04
   154.21         12.41       1293.24        967.65          0.01         -0.98
   154.22         12.41       1293.28        967.65          0.01         -0.85
   154.23         12.41       1293.39        967.65          0.00         -4.60
   154.24         12.40       1293.48        967.65          0.00         -0.02
   154.25         12.40       1293.58        967.65         -0.00          0.11
   154.26         12.40       1293.67        967.65         -0.01          0.20
   154.27         12.40       1293.72        967.65         -0.01          0.24
   154.28         12.40       1293.76        967.65         -0.01         -4.24
   154.29         12.39       1293.84        967.65         -0.01          0.27
   154.30         12.39       1293.85        967.65         -0.01          0.21
   154.31         12.39       1294.46        968.07         -0.00         -3.19
   154.32         12.39       1294.52        968.07         -0.01          0.76
   154.33         12.39       1294.51        968.07         -0.00         -3.21
   154.34         12.39       1294.48        968.07         -0.00          0.67
   154.35         12.39       1294.40        968.07         -0.00          0.58
   154.36         12.40       1298.27        971.00          0.00         -0.05
   154.37         12.40       1293.72        967.65          0.00         -0.12
   154.38         12.40       1293.67        967.65          0.00         -0.17
   154.39         12.40       1293.61        967.65          0.00          0.39
   154.40         12.40       1293.54        967.65          0.01          0.36
   154.41         12.40       1293.52        967.65          0.01         -3.54
   154.42         12.40       1292.98        967.23          0.00         -0.15
   154.43         12.40       1292.99        967.23          0.00         -0.15
   154.44         12.40       1293.02        967.23          0.00         -0.68
   154.45         12.40       1293.58        967.65          0.00         -0.11
   154.46         12.40       1293.57        967.65          0.00         -4.57
   154.47         12.40       1294.10        968.07          0.00          0.45
   154.48         12.40       1294.10        968.07          0.00          0.47
   154.49         12.40       1294.13        968.07          0.00         -3.45
   154.50         12.40       1293.61        967.65          0.00         -0.08
   154.51         12.40       1293.64        967.65          0.00         -3.97
   154.52         12.40       1293.64        967.65          0.00         -0.05
   154.53         12.40       1294.19        968.07          0.00          0.53
   154.54         12.40       1294.17        968.07          0.00         -3.95
   154.55         12.40       1298.09        971.00          0.00          4.46
   154.56         12.40       1293.63        967.65         -0.00          0.02
   154.57         12.40       1293.67        967.65         -0.00          0.64
   154.58         12.40       1293.72        967.65         -0.00          0.71
   154.59         12.40       1293.76        967.65         -0.01         -3.13
   154.60         12.40       1293.81        967.65         -0.01          0.91
   154.61         12.39       1293.85        967.65         -0.01          0.98
   154.62         12.39       1293.90        967.65         -0.01          0.48
   154.63         12.39       1293.95        967.65         -0.02          0.53
   154.64         12.39       1293.96        967.65         -0.02         -3.95
   154.65         12.39       1293.95        967.65         -0.02          0.53
   154.66         12.39       1294.49        968.07         -0.01          1.06
   154.67         12.39       1294.46        968.07         -0.01         -2.91
   154.68         12.39       1294.41        968.07         -0.01          0.94
   154.69         12.40       1293.79        967.65         -0.01         -3.65
   154.70         12.40       1293.73        967.65         -0.01          0.18
   154.71         12.40       1293.67        967.65         -0.00          0.11
   154.72         12.40       1293.64        967.65         -0.00         -4.40
   154.73         12.40       1293.61        967.65         -0.00          0.08
   154.74         12.40       1297.52        970.58         -0.00          4.03
   154.75         12.40       1293.04        967.23         -0.00          0.14
   154.76         12.40       1292.99        967.23         -0.00          0.12
   154.77         12.40       1292.98        967.23         -0.00         -3.78
   154.78         12.40       1292.95        967.23         -0.00          0.15
   154.79         12.40       1292.95        967.23         -0.01          0.18
   154.80         12.40       1293.54        967.65         -0.01          0.24
   154.81         12.40       1293.54        967.65         -0.01          0.24
   154.82         12.40       1293.52        967.65         -0.01         -4.30
   154.83         12.40       1293.51        967.65         -0.01          0.18
   154.84         12.40       1293.49        967.65         -0.00          0.17
   154.85         12.40       1293.49        967.65         -0.01         -3.71
   154.86         12.40       1293.51        967.65         -0.01          0.24
   154.87         12.40       1293.54        967.65         -0.01         -3.68
   154.88         12.40       1293.55        967.65         -0.01          0.23
   154.89         12.40       1293.58        967.65         -0.01          0.20
   154.90         12.40       1293.58        967.65         -0.01         -4.30
   154.91         12.40       1293.02        967.23         -0.01         -0.36
   154.92         12.40       1293.04        967.23         -0.01         -0.33
   154.93         12.40       1293.07        967.23         -0.01         -0.27
   154.94         12.40       1293.64        967.65         -0.01          0.30
   154.95         12.40       1293.66        967.65         -0.01         -4.22
   154.96         12.40       1294.23        968.07         -0.01          0.18
   154.97         12.40       1294.22        968.07         -0.00          0.12
   154.98         12.40       1294.25        968.07         -0.00         -0.42
   154.99         12.40       1293.70        967.65         -0.00         -0.95
   155.00         12.40       1293.70        967.65         -0.01         -5.39
   155.01         12.40       1293.75        967.65         -0.01         -0.85
