#Written by Robertson Geologging WinLogger V1.5/410
~VERSION INFORMATION
#------------------------------------------------------------------------------
 VERS. 2.0 : CWLS LOG ASCII STANDARD - VERSION 2.0
 WRAP. NO  : ONE LINE PER DEPTH STEP
~WELL INFORMATION
#MNEM.UNIT         DATA                                DESCRIPTION OF MNEMONIC
#------------------------------------------------------------------------------
 STRT.M         40.0200                            :   START DEPTH
 STOP.M        195.6300                            :   STOP DEPTH
 STEP.M          0.0100                            :   STEP VALUE
 NULL.        -999.2500                            :   NULL VALUE
 COMP.    IWS                                      :   COMPANY NAME
 WELL.    THRISLINGTON                             :   WELL NAME
 FLD.     DURHAM                                   :   FIELD NAME
 LOC.     N/A                                      :   LOCATION
 PROV.    N/A                                      :   PROVINCE
 SRVC.    N/A                                      :   SERVICE COMPANY NAME
 DATE.    16 Dec 09                                :   DATE
 UWI.     N/A                                      :   UNIQUE WELL IDENTIFIER
~PARAMETER INFORMATION
#MNEMO.UNIT         VALUE                 DESCRIPTION OF MNEMONIC
#------------------------------------------------------------------------------
~OTHER INFORMATION SECTION
#------------------------------------------------------------------------------
 TCDS 1365
~CURVE INFORMATION
#MNEMO.UNIT         API CODE              CURVE DESCRIPTION
#------------------------------------------------------------------------------
 DEPTH.M                                 :   0     Depth
 TEMP.DegC                               :   1     Temperature
 COND.uS/cm                              :   2     Conductivity@25DegC
 COND.uS/cm                              :   3     Absolute Conductivity
 DELT.DegC                               :   4     Delta T
 DELC.uS/cm                              :   5     Delta C
#------------------------------------------------------------------------------
~A  DEPTH          TEMP          COND          COND          DELT          DELC
# ...
   185.02         12.40       1293.07        967.23          0.00         -0.17
   185.03         12.40       1297.61        970.58          0.00          4.36
   185.04         12.40       1293.76        967.65          0.00          1.09
   185.05         12.40       1297.70        970.58          0.00          5.04
   185.06         12.40       1293.75        967.65          0.00         -2.80
   185.07         12.40       1293.72        967.65          0.00          1.10
   185.08         12.40       1298.15        971.00          0.00          5.54
   185.09         12.40       1293.66        967.65          0.00         -2.88
   185.10         12.40       1293.63        967.65          0.00          1.00
   185.11         12.40       1293.61        967.65          0.00         -2.91
   185.12         12.40       1293.61        967.65          0.00          1.04
   185.13         12.40       1297.49        970.58          0.00          4.96
   185.14         12.40       1292.98        967.23          0.00         -3.36
   185.15         12.41       1292.90        967.23          0.00          0.54
   185.16         12.41       1292.86        967.23          0.00          0.54
   185.17         12.41       1292.86        967.23         -0.00          0.61
   185.18         12.41       1296.79        970.16         -0.00          4.55
   185.19         12.40       1292.36        966.81         -0.00         -4.31
   185.20         12.40       1292.39        966.81         -0.01         -0.33
   185.21         12.40       1296.35        969.74         -0.01          3.66
   185.22         12.40       1292.45        966.81         -0.01         -0.23
   185.23         12.40       1296.35        969.74         -0.01          3.66
   185.24         12.40       1292.43        966.81         -0.01         -4.18
   185.25         12.40       1296.37        969.74         -0.01          3.66
   185.26         12.40       1296.40        969.74         -0.01          3.66
   185.27         12.40       1292.48        966.81         -0.01         -4.19
   185.28         12.40       1296.38        969.74         -0.01          3.62
   185.29         12.40       1292.43        966.81         -0.01         -0.33
   185.30         12.40       1296.34        969.74         -0.01          4.12
   185.31         12.40       1296.34        969.74         -0.01          4.16
   185.32         12.40       1292.42        966.81         -0.01         -3.66
   185.33         12.40       1296.35        969.74         -0.01          4.18
   185.34         12.40       1292.46        966.81         -0.01          0.32
   185.35         12.40       1296.43        969.74         -0.01          4.30
   185.36         12.40       1292.55        966.81         -0.01          0.44
   185.37         12.40       1292.60        966.81         -0.01         -3.41
   185.38         12.40       1296.56        969.74         -0.02          4.46
   185.39         12.40       1292.66        966.81         -0.01          0.51
   185.40         12.40       1296.58        969.74         -0.01          0.48
   185.41         12.40       1292.61        966.81         -0.01          0.39
   185.42         12.40       1292.58        966.81         -0.01         -3.63
   185.43         12.40       1296.47        969.74         -0.01          4.12
   185.44         12.40       1292.54        966.81         -0.00          0.12
   185.45         12.40       1296.43        969.74         -0.00          0.00
   185.46         12.40       1292.45        966.81          0.00         -0.14
   185.47         12.40       1292.36        966.81          0.01         -0.30
   185.48         12.41       1296.14        969.74          0.01          3.42
   185.49         12.41       1292.13        966.81          0.02         -0.60
   185.50         12.41       1295.99        969.74          0.02         -1.23
   185.51         12.41       1292.07        966.81          0.02         -1.22
   185.52         12.41       1292.10        966.81          0.02         -1.15
   185.53         12.41       1295.99        969.74          0.02          2.77
   185.54         12.41       1292.06        966.81          0.02         -1.16
   185.55         12.41       1295.96        969.74          0.02         -1.17
   185.56         12.41       1292.09        966.81          0.02         -1.09
   185.57         12.41       1292.19        966.81          0.01         -0.95
   185.58         12.41       1296.23        969.74          0.01         -0.82
   185.59         12.40       1292.46        966.81          0.00         -0.65
   185.60         12.40       1296.50        969.74         -0.00          3.38
   185.61         12.40       1292.69        966.81         -0.00          0.14
   185.62         12.39       1292.73        966.81         -0.01          0.24
   185.63         12.39       1296.64        969.74         -0.01         -0.32
   185.64         12.39       1292.73        966.81         -0.01         -0.27
   185.65         12.39       1296.62        969.74         -0.01          3.65
   185.66         12.40       1292.66        966.81         -0.01         -0.32
   185.67         12.40       1292.58        966.81         -0.00         -0.39
   185.68         12.40       1296.35        969.74         -0.00         -0.54
   185.69         12.41       1292.30        966.81          0.00         -0.65
   185.70         12.41       1296.09        969.74          0.01          3.16
   185.71         12.41       1292.09        966.81          0.01         -5.31
   185.72         12.41       1292.01        966.81          0.01         -1.48
   185.73         12.42       1295.91        969.74          0.01         -1.54
   185.74         12.41       1292.02        966.81          0.01         -0.98
   185.75         12.41       1295.96        969.74          0.01          2.92
   185.76         12.41       1292.13        966.81          0.01         -4.86
   185.77         12.41       1295.55        969.32          0.01          2.47
   185.78         12.41       1295.60        969.32          0.01          2.48
   185.79         12.41       1291.74        966.39          0.01         -1.39
   185.80         12.41       1295.67        969.32          0.01          2.51
   185.81         12.40       1291.80        966.39          0.01         -5.30
   185.82         12.40       1295.75        969.32          0.01          3.15
   185.83         12.40       1295.79        969.32          0.00          3.19
   185.84         12.40       1291.89        966.39          0.00         -0.73
   185.85         12.40       1295.82        969.32          0.00          3.21
   185.86         12.40       1291.90        966.39          0.00         -4.63
   185.87         12.40       1295.78        969.32          0.01          3.18
   185.88         12.40       1292.39        966.81          0.00         -0.17
   185.89         12.41       1292.34        966.81          0.00         -4.09
   185.90         12.41       1296.22        969.74          0.01          3.74
   185.91         12.41       1292.28        966.81          0.00         -0.15
   185.92         12.41       1296.20        969.74          0.00          3.81
   185.93         12.41       1292.31        966.81          0.00         -0.06
   185.94         12.41       1292.33        966.81          0.00         -3.95
   185.95         12.41       1295.70        969.32          0.00          3.36
   185.96         12.41       1291.77        966.39          0.00         -0.59
   185.97         12.41       1295.70        969.32          0.00          2.77
   185.98         12.41       1291.78        966.39          0.00         -1.17
   185.99         12.40       1291.81        966.39          0.00         -5.08
   186.00         12.40       1295.78        969.32          0.00          2.77
   186.01         12.40       1291.92        966.39          0.00         -1.15
