#Written by Robertson Geologging WinLogger V1.5/410
~VERSION INFORMATION
#------------------------------------------------------------------------------
 VERS. 2.0 : CWLS LOG ASCII STANDARD - VERSION 2.0
 WRAP. NO  : ONE LINE PER DEPTH STEP
~WELL INFORMATION
#MNEM.UNIT         DATA                                DESCRIPTION OF MNEMONIC
#------------------------------------------------------------------------------
 STRT.M        191.7300                            :   START DEPTH
 STOP.M         42.4500                            :   STOP DEPTH
 STEP.M         -0.0100                            :   STEP VALUE
 NULL.        -999.2500                            :   NULL VALUE
 COMP.    I.W.S.                                   :   COMPANY NAME
 WELL.    THRISLINGTON                             :   WELL NAME
 FLD.     N/A                                      :   FIELD NAME
 LOC.     N/A                                      :   LOCATION
 PROV.    N/A                                      :   PROVINCE
 SRVC.    N/A                                      :   SERVICE COMPANY NAME
 DATE.    14 Nov 11                                :   DATE
 UWI.     N/A                                      :   UNIQUE WELL IDENTIFIER
~PARAMETER INFORMATION
#MNEMO.UNIT         VALUE                 DESCRIPTION OF MNEMONIC
#------------------------------------------------------------------------------
~OTHER INFORMATION SECTION
#------------------------------------------------------------------------------
 1365 LOW
~CURVE INFORMATION
#MNEMO.UNIT         API CODE              CURVE DESCRIPTION
#------------------------------------------------------------------------------
 DEPTH.M                                 :   0     Depth
 TEMP.DegC                               :   1     Temperature
 COND.uS/cm                              :   2     Conductivity
 DELT.DegC                               :   3     Delta T
 DELC.uS/cm                              :   4     Delta C
 NGAM.CPS                                :   5     Natural Gamma
#------------------------------------------------------------------------------
~A  DEPTH          TEMP          COND          DELT          DELC          NGAM
# ...
    82.73         12.39        917.80          0.02         -2.51          0.00
    82.72         12.39        917.80          0.02          0.42          0.00
    82.71         12.39        917.80          0.02          0.42          0.00
    82.70         12.39        920.32          0.02          0.42          0.00
    82.69         12.39        917.80          0.01         -2.09          0.00
    82.68         12.38        917.80          0.01          0.00          0.00
    82.67         12.38        918.22          0.01          0.84          0.00
    82.66         12.38        920.32          0.00          0.42          0.00
    82.65         12.38        918.22          0.00         -1.68          0.00
    82.64         12.38        917.80          0.00         -2.09          0.00
    82.63         12.38        917.80          0.00          0.42          0.00
    82.62         12.38        920.32          0.00          2.93          0.00
    82.61         12.38        917.80          0.00         -2.09          0.42
    82.60         12.38        918.22          0.00         -2.09          0.42
    82.59         12.38        917.80          0.00          0.42          0.42
    82.58         12.38        920.74          0.00          2.93          0.42
    82.57         12.38        920.32          0.00          0.42          0.42
    82.56         12.38        917.80         -0.00         -2.51          0.42
    82.55         12.38        917.80         -0.00          0.42          0.42
    82.54         12.38        920.32         -0.00          2.51          0.42
    82.53         12.38        918.22         -0.00          0.84          0.42
    82.52         12.37        917.80         -0.00         -2.51          0.42
    82.51         12.37        918.22         -0.01         -1.68          0.42
    82.50         12.37        920.32         -0.00          2.51          0.42
    82.49         12.37        920.32         -0.01          2.93          0.42
    82.48         12.37        917.80         -0.00         -2.51          0.42
    82.47         12.37        917.80         -0.00         -2.09          0.42
    82.46         12.37        917.80         -0.00          0.00          0.42
    82.45         12.37        920.32          0.00          2.93          0.42
    82.44         12.37        917.80          0.00         -2.51          0.42
    82.43         12.38        917.80          0.00         -2.09          0.42
    82.42         12.38        919.90          0.00          2.09          0.42
    82.41         12.38        920.32          0.01          2.93          0.42
    82.40         12.38        919.90          0.01          2.09          0.42
    82.39         12.38        917.80          0.00         -2.09          0.42
    82.38         12.38        917.39          0.00         -2.51          0.42
    82.37         12.38        919.90          0.00          2.51          0.42
    82.36         12.38        919.90          0.00          2.51          0.42
    82.35         12.38        917.39          0.00         -2.51          0.42
    82.34         12.38        917.39          0.01         -2.51          0.42
    82.33         12.38        919.90          0.01          2.51          0.42
    82.32         12.38        919.90          0.01          2.51          0.42
    82.31         12.39        919.90          0.01          0.00          0.42
    82.30         12.39        917.39          0.01         -2.51          0.42
    82.29         12.39        917.39          0.01          0.00          0.42
    82.28         12.39        919.90          0.01          2.51          0.42
    82.27         12.39        919.90          0.01          2.09          0.00
    82.26         12.38        917.80          0.01         -2.09          0.00
    82.25         12.38        917.39          0.01         -2.93          0.00
    82.24         12.38        920.32          0.01          2.93          0.00
    82.23         12.37        919.90          0.00          2.09          0.00
    82.22         12.37        917.80          0.00         -2.51          0.00
    82.21         12.37        917.39          0.00         -2.93          0.42
    82.20         12.37        917.80         -0.00         -0.00          0.42
    82.19         12.37        919.90         -0.00          2.09          0.42
    82.18         12.37        919.90         -0.01         -0.42          0.42
    82.17         12.36        917.39         -0.01         -2.93          0.42
    82.16         12.36        917.39         -0.01         -2.51          0.42
    82.15         12.37        919.90         -0.01          2.09          0.42
    82.14         12.37        919.90         -0.01          2.51          0.92
    82.13         12.37        917.39         -0.01         -2.93          0.92
    82.12         12.37        917.39         -0.01         -2.51          0.92
    82.11         12.37        919.90         -0.01          2.51          0.92
    82.10         12.37        919.90         -0.01          2.51          0.92
    82.09         12.37        917.39         -0.01         -2.51          0.92
    82.08         12.37        917.39         -0.01         -2.51          0.92
    82.07         12.37        917.80         -0.00          0.42          0.92
    82.06         12.37        919.90         -0.00          2.51          0.92
    82.05         12.37        919.90          0.00          2.09          0.92
    82.04         12.37        917.39          0.00         -2.51          0.50
    82.03         12.37        917.39          0.00         -0.42          0.50
    82.02         12.37        919.90          0.00          2.51          0.50
    82.01         12.37        919.90          0.00          2.09          0.50
    82.00         12.37        917.39          0.00         -2.51          0.50
    81.99         12.37        917.39          0.00         -0.42          0.50
    81.98         12.37        919.90          0.00          2.51          0.92
    81.97         12.37        919.90         -0.00          2.51          0.42
    81.96         12.37        919.90         -0.00          0.00          0.42
    81.95         12.37        917.39         -0.00         -2.51          0.42
    81.94         12.37        917.39         -0.00          0.00          0.42
    81.93         12.37        919.90         -0.00          2.51          0.42
    81.92         12.37        919.90         -0.00          0.00          0.42
    81.91         12.37        917.39         -0.00         -2.51          0.42
    81.90         12.37        917.39         -0.00          0.00          0.42
    81.89         12.37        919.90         -0.00          2.51          0.42
    81.88         12.37        919.90         -0.01          0.00          0.42
    81.87         12.37        917.39         -0.01         -2.51          0.42
    81.86         12.36        917.39         -0.01         -2.93          0.42
    81.85         12.36        916.97         -0.01         -0.42          0.42
    81.84         12.36        919.90         -0.01          2.09          0.42
    81.83         12.36        919.90         -0.01         -0.00          0.42
    81.82         12.36        917.39         -0.01         -2.93          0.42
    81.81         12.36        917.39         -0.01         -0.00          0.00
    81.80         12.36        919.48         -0.01          1.68          0.00
    81.79         12.36        919.90         -0.01         -0.42          0.00
    81.78         12.36        917.39         -0.01         -2.93          0.00
    81.77         12.36        917.39         -0.01         -0.42          0.00
    81.76         12.37        919.90         -0.00          2.09          0.00
    81.75         12.37        919.90         -0.00          2.09          0.00
    81.74         12.37        920.32          0.00         -0.00          0.00
