#Written by Robertson Geologging WinLogger V1.5/410
~VERSION INFORMATION
#------------------------------------------------------------------------------
 VERS. 2.0 : CWLS LOG ASCII STANDARD - VERSION 2.0
 WRAP. NO  : ONE LINE PER DEPTH STEP
~WELL INFORMATION
#MNEM.UNIT         DATA                                DESCRIPTION OF MNEMONIC
#------------------------------------------------------------------------------
 STRT.M         40.0200                            :   START DEPTH
 STOP.M        195.6300                            :   STOP DEPTH
 STEP.M          0.0100                            :   STEP VALUE
 NULL.        -999.2500                            :   NULL VALUE
 COMP.    IWS                                      :   COMPANY NAME
 WELL.    THRISLINGTON                             :   WELL NAME
 FLD.     DURHAM                                   :   FIELD NAME
 LOC.     N/A                                      :   LOCATION
 PROV.    N/A                                      :   PROVINCE
 SRVC.    N/A                                      :   SERVICE COMPANY NAME
 DATE.    16 Dec 09                                :   DATE
 UWI.     N/A                                      :   UNIQUE WELL IDENTIFIER
~PARAMETER INFORMATION
#MNEMO.UNIT         VALUE                 DESCRIPTION OF MNEMONIC
#------------------------------------------------------------------------------
~OTHER INFORMATION SECTION
#------------------------------------------------------------------------------
 TCDS 1365
~CURVE INFORMATION
#MNEMO.UNIT         API CODE              CURVE DESCRIPTION
#------------------------------------------------------------------------------
 DEPTH.M                                 :   0     Depth
 TEMP.DegC                               :   1     Temperature
 COND.uS/cm                              :   2     Conductivity@25DegC
 COND.uS/cm                              :   3     Absolute Conductivity
 DELT.DegC                               :   4     Delta T
 DELC.uS/cm                              :   5     Delta C
#------------------------------------------------------------------------------
~A  DEPTH          TEMP          COND          COND          DELT          DELC
# ...
    71.02         12.38       1294.38        967.65          0.01          0.86
    71.03         12.38       1294.38        967.65          0.01          0.88
    71.04         12.38       1293.75        967.23          0.01          0.23
    71.05         12.38       1293.69        967.23          0.01          0.23
    71.06         12.38       1293.67        967.23          0.01          0.30
    71.07         12.38       1293.07        966.81          0.01         -0.80
    71.08         12.38       1293.05        966.81          0.00         -0.73
    71.09         12.39       1293.60        967.23          0.00         -0.08
    71.10         12.39       1293.60        967.23          0.00         -0.59
    71.11         12.39       1293.60        967.23         -0.00         -0.53
    71.12         12.38       1294.20        967.65         -0.00          0.17
    71.13         12.38       1294.28        967.65         -0.01          0.30
    71.14         12.38       1294.28        967.65         -0.01          0.35
    71.15         12.38       1294.87        968.07         -0.01          0.95
    71.16         12.38       1294.84        968.07         -0.01          0.94
    71.17         12.38       1294.78        968.07         -0.01          0.85
    71.18         12.38       1295.32        968.49         -0.01          1.92
    71.19         12.38       1295.31        968.49         -0.01          1.89
    71.20         12.38       1294.79        968.07         -0.01          1.32
    71.21         12.38       1294.85        968.07         -0.01          1.91
    71.22         12.38       1294.90        968.07         -0.01          1.94
    71.23         12.38       1294.38        967.65         -0.01          5.31
    71.24         12.38       1294.41        967.65         -0.01          1.44
    71.25         12.38       1294.46        967.65         -0.01          1.54
    71.26         12.38       1293.93        967.23         -0.01          1.06
    71.27         12.38       1293.91        967.23         -0.01          1.06
    71.28         12.38       1297.81        970.16         -0.01          4.98
    71.29         12.38       1293.29        966.81         -0.01         -0.11
    71.30         12.38       1293.26        966.81         -0.01         -0.11
    71.31         12.38       1293.22        966.81         -0.01         -0.09
    71.32         12.38       1293.17        966.81         -0.01         -0.67
    71.33         12.38       1293.11        966.81         -0.01         -0.70
    71.34         12.38       1293.05        966.81         -0.01         -0.76
    71.35         12.39       1293.01        966.81         -0.01         -1.44
    71.36         12.39       1296.93        969.74         -0.00          2.38
    71.37         12.39       1293.02        966.81         -0.00         -1.57
    71.38         12.38       1293.10        966.81         -0.00         -1.54
    71.39         12.38       1293.16        966.81         -0.00         -1.51
    71.40         12.38       1293.19        966.81         -0.00         -0.95
    71.41         12.38       1293.22        966.81         -0.00         -1.00
    71.42         12.38       1293.23        966.81         -0.00         -1.04
    71.43         12.38       1293.23        966.81         -0.00         -0.51
    71.44         12.38       1293.26        966.81         -0.00         -0.48
    71.45         12.38       1293.26        966.81         -0.00         -0.44
    71.46         12.38       1293.25        966.81         -0.01          0.18
    71.47         12.38       1293.22        966.81         -0.01          0.26
    71.48         12.38       1293.16        966.81         -0.01          0.26
    71.49         12.38       1293.11        966.81         -0.01          0.26
    71.50         12.38       1293.08        966.81         -0.01          0.26
    71.51         12.38       1293.08        966.81         -0.01          0.29
    71.52         12.38       1293.07        966.81         -0.01          0.33
    71.53         12.38       1293.05        966.81         -0.01          0.35
    71.54         12.39       1293.02        966.81         -0.01          0.39
    71.55         12.39       1296.88        969.74         -0.01          4.28
    71.56         12.39       1292.95        966.81         -0.01         -3.59
    71.57         12.39       1292.95        966.81         -0.01          0.32
    71.58         12.39       1292.93        966.81         -0.01          0.23
    71.59         12.39       1292.98        966.81         -0.01          0.20
    71.60         12.39       1292.99        966.81         -0.00          0.17
    71.61         12.39       1293.01        966.81         -0.00          0.14
    71.62         12.39       1292.98        966.81         -0.00          0.06
    71.63         12.39       1296.88        969.74          0.00          3.92
    71.64         12.39       1292.96        966.81          0.00         -0.03
    71.65         12.39       1292.96        966.81          0.00         -0.09
    71.66         12.39       1293.58        967.23          0.00          0.51
    71.67         12.39       1293.60        967.23          0.00          4.45
    71.68         12.39       1293.57        967.23          0.00          0.48
    71.69         12.39       1293.54        967.23          0.00          0.50
    71.70         12.39       1293.45        967.23          0.00         -0.12
    71.71         12.39       1293.34        967.23          0.01         -0.21
    71.72         12.39       1293.26        967.23          0.01         -0.26
    71.73         12.40       1293.22        967.23          0.01         -0.30
    71.74         12.40       1293.17        967.23          0.01         -0.32
    71.75         12.40       1293.16        967.23          0.01         -0.29
    71.76         12.40       1293.17        967.23          0.01         -0.23
    71.77         12.40       1292.58        966.81          0.01         -0.79
    71.78         12.40       1292.61        966.81          0.01         -0.74
    71.79         12.40       1296.59        969.74          0.00          3.24
    71.80         12.39       1292.70        966.81          0.00         -0.70
    71.81         12.39       1292.81        966.81          0.00         -0.05
    71.82         12.39       1296.81        969.74         -0.00          3.95
    71.83         12.39       1292.95        966.81         -0.00          0.06
    71.84         12.39       1293.04        966.81         -0.00          0.17
    71.85         12.38       1293.11        966.81         -0.01          0.24
    71.86         12.38       1293.17        966.81         -0.01          0.24
    71.87         12.38       1293.19        966.81         -0.01          0.20
    71.88         12.38       1293.19        966.81         -0.00          0.12
    71.89         12.38       1293.16        966.81         -0.00         -4.47
    71.90         12.38       1293.11        966.81          0.00         -0.62
    71.91         12.38       1293.14        966.81          0.00         -0.58
    71.92         12.38       1293.13        966.81          0.00         -1.18
    71.93         12.38       1293.16        966.81          0.00         -1.24
    71.94         12.38       1293.22        966.81          0.00         -1.23
    71.95         12.38       1297.17        969.74          0.00          2.12
    71.96         12.38       1293.28        966.81          0.00         -1.83
    71.97         12.38       1293.26        966.81          0.00         -5.74
    71.98         12.38       1297.73        970.16          0.00          2.67
    71.99         12.38       1293.78        967.23          0.00         -1.29
    72.00         12.38       1293.75        967.23          0.00         -0.70
    72.01         12.38       1294.31        967.65          0.00         -0.08
