#Written by Robertson Geologging WinLogger V1.0/406
~VERSION INFORMATION
#------------------------------------------------------------------------------
 VERS. 2.0 : CWLS LOG ASCII STANDARD - VERSION 2.0
 WRAP. NO  : ONE LINE PER DEPTH STEP
~WELL INFORMATION
#MNEM.UNIT         DATA                                DESCRIPTION OF MNEMONIC
#------------------------------------------------------------------------------
 STRT.M         44.9500                            :   START DEPTH
 STOP.M        194.0200                            :   STOP DEPTH
 STEP.M          0.0100                            :   STEP VALUE
 NULL.        -999.2500                            :   NULL VALUE
 COMP.    Coal Authority                           :   COMPANY NAME
 WELL.    Thrislington Shaft                       :   WELL NAME
 FLD.     Banks Yard                               :   FIELD NAME
 LOC.     N/A                                      :   LOCATION
 PROV.    N/A                                      :   PROVINCE
 SRVC.    N/A                                      :   SERVICE COMPANY NAME
 DATE.    19 May 08                                :   DATE
 UWI.     N/A                                      :   UNIQUE WELL IDENTIFIER
~PARAMETER INFORMATION
#MNEMO.UNIT         VALUE                 DESCRIPTION OF MNEMONIC
#------------------------------------------------------------------------------
~OTHER INFORMATION SECTION
#------------------------------------------------------------------------------
 TCDS 1365
~CURVE INFORMATION
#MNEMO.UNIT         API CODE              CURVE DESCRIPTION
#------------------------------------------------------------------------------
 DEPTH.M                                 :   0     Depth
 TEMP.DegC                               :   1     Temperature
 COND.uS/cm                              :   2     Absolute Conductivity
 COND.uS/cm                              :   3     Conductivity@25DegC
 DELT.DegC                               :   4     Delta T
 DELC.uS/cm                              :   5     Delta C
#------------------------------------------------------------------------------
~A  DEPTH     TEMP      COND      COND      DELT      DELC      
# ...
   133.39     12.62    940.38   1249.95     -0.04      1.28 
   133.40     12.62    940.38   1249.79     -0.03     10.51 
   133.41     12.63    939.48   1248.27     -0.01      0.32 
   133.42     12.64    940.38   1249.30      0.00      0.00 
   133.43     12.65    940.38   1248.98      0.02     -0.64 
   133.44     12.65    933.19   1239.44      0.02    -10.35 
   133.45     12.64    940.38   1249.30      0.01      0.71 
   133.46     12.64    940.38   1249.30      0.00     -0.16 
   133.47     12.63    939.48   1248.27     -0.00     -1.03 
   133.48     12.64    940.38   1249.30      0.00      0.00 
   133.49     12.64    940.38   1249.14      0.00      9.39 
   133.50     12.63    940.38   1249.46     -0.01      0.32 
   133.51     12.63    939.48   1248.27     -0.00      0.16 
   133.52     12.63    940.38   1249.46     -0.01      0.32 
   133.53     12.63    940.38   1249.63     -0.01      0.48 
   133.54     12.63    940.38   1249.63     -0.01      0.48 
   133.55     12.63    940.38   1249.46     -0.02      0.64 
   133.56     12.63    939.48   1248.43     -0.02     -0.55 
   133.57     12.63    940.38   1249.46     -0.01     10.03 
   133.58     12.64    933.19   1239.60     -0.00     -9.39 
   133.59     12.64    940.38   1249.30     -0.00      1.35 
   133.60     12.65    939.48   1247.63      0.00     -1.35 
   133.61     12.66    940.38   1248.66      0.01     -0.32 
   133.62     12.65    940.38   1248.82      0.00     -0.16 
   133.63     12.64    939.48   1247.95     -0.00     -1.03 
   133.64     12.63    940.38   1249.63     -0.02      0.64 
   133.65     12.63    940.38   1249.63     -0.01      9.87 
   133.66     12.63    940.38   1249.63     -0.01    -10.26 
   133.67     12.64    939.48   1248.11     -0.01      8.67 
   133.68     12.65    940.38   1248.98      0.00      0.00 
   133.69     12.65    940.38   1248.98     -0.00      0.16 
   133.70     12.65    933.19   1239.28      0.00     -9.55 
   133.71     12.65    940.38   1248.82      0.01     -0.32 
   133.72     12.65    940.38   1248.98      0.01     -0.48 
   133.73     12.65    940.38   1248.82      0.01      0.71 
   133.74     12.66    939.48   1247.31      0.03     -2.15 
   133.75     12.66    940.38   1248.66      0.01      9.07 
   133.76     12.66    940.38   1248.50      0.02     -0.80 
   133.77     12.66    940.38   1248.66      0.02     -0.80 
   133.78     12.63    940.38   1249.46     -0.00      0.16 
   133.79     12.62    940.38   1249.79     -0.01      1.67 
   133.80     12.62    939.48   1248.75     -0.02     -0.55 
   133.81     12.62    940.38   1249.95     -0.02      0.64 
   133.82     12.63    940.38   1249.63     -0.00      0.16 
   133.83     12.64    933.19   1239.75      0.01     -9.87 
   133.84     12.63    940.38   1249.46     -0.01      1.51 
   133.85     12.63    940.38   1249.63     -0.02     10.19 
   133.86     12.63    939.48   1248.27     -0.01     -0.87 
   133.87     12.64    940.38   1249.30     -0.00      0.16 
   133.88     12.64    940.38   1249.14      0.00     -0.16 
   133.89     12.64    940.38   1249.14      0.00      1.03 
   133.90     12.62    940.38   1249.79     -0.02      0.64 
   133.91     12.62    940.38   1249.79     -0.03      0.96 
   133.92     12.62    940.38   1249.95     -0.03      1.12 
   133.93     12.62    939.48   1248.59     -0.02     -0.39 
   133.94     12.64    940.38   1249.30     -0.01     10.03 
   133.95     12.65    940.38   1248.82      0.00    -10.90 
   133.96     12.66    940.38   1248.66      0.01      9.23 
   133.97     12.66    933.19   1238.96      0.01    -10.02 
   133.98     12.66    940.38   1248.50      0.02     -0.64 
   133.99     12.64    940.38   1249.14      0.00     -0.16 
   134.00     12.64    940.38   1249.30      0.00      1.03 
   134.01     12.63    940.38   1249.46     -0.00      0.16 
   134.02     12.64    940.38   1249.30     -0.00      0.16 
   134.03     12.64    940.38   1249.14      0.00      0.00 
   134.04     12.64    939.48   1247.95     -0.00     -1.03 
   134.05     12.64    940.38   1249.14      0.00     -0.16 
   134.06     12.64    940.38   1249.30      0.00      1.19 
   134.07     12.64    940.38   1249.30     -0.00      9.71 
   134.08     12.63    940.38   1249.46     -0.00      0.16 
   134.09     12.64    933.19   1239.75     -0.01     -9.23 
   134.10     12.64    940.38   1249.30     -0.00      0.16 
   134.11     12.64    940.38   1249.30      0.00      1.19 
   134.12     12.64    939.48   1248.11     -0.01     -0.87 
   134.13     12.64    940.38   1249.30     -0.01      0.48 
   134.14     12.64    940.38   1249.14     -0.01      0.32 
   134.15     12.64    940.38   1249.14     -0.00      0.16 
   134.16     12.64    940.38   1249.14      0.00      1.19 
   134.17     12.65    940.38   1248.98      0.01     -0.32 
   134.18     12.65    939.48   1247.79      0.01     -1.67 
   134.19     12.65    940.38   1248.82      0.01      9.07 
   134.20     12.65    940.38   1248.82      0.01     -0.32 
   134.21     12.64    940.38   1249.14     -0.00      1.35 
   134.22     12.63    940.38   1249.46     -0.01      0.48 
   134.23     12.63    939.48   1248.43     -0.02     -0.55 
   134.24     12.63    940.38   1249.46      0.00      0.00 
   134.25     12.63    933.19   1240.07      0.00     -8.36 
   134.26     12.62    940.38   1249.95     -0.02      0.64 
   134.27     12.62    940.38   1249.95     -0.01      0.48 
   134.28     12.63    940.38   1249.46     -0.01      0.32 
   134.29     12.64    939.48   1247.95      0.00     -1.19 
   134.30     12.65    940.38   1248.82      0.01      0.87 
   134.31     12.65    940.38   1248.82      0.01     -0.32 
   134.32     12.64    940.38   1249.30     -0.00      0.16 
   134.33     12.63    939.48   1248.27     -0.01      8.68 
   134.34     12.64    940.38   1249.30      0.00     -0.16 
   134.35     12.64    940.38   1249.30      0.01     -0.32 
   134.36     12.64    940.38   1249.30      0.02     -0.64 
   134.37     12.64    940.38   1249.30      0.02     -0.64 
   134.38     12.64    939.48   1248.11      0.02     -1.84 
   134.39     12.65    940.38   1248.98      0.02     -0.80 
   134.40     12.65    940.38   1248.98      0.01      0.71 
   134.41     12.65    933.19   1239.44      0.01     -9.87 
   134.42     12.65    940.38   1248.98      0.00      0.00 
   134.43     12.64    940.38   1249.30     -0.01      9.87 
   134.44     12.65    939.48   1247.79      0.01     -1.51 
   134.45     12.64    940.38   1249.14      0.00     -0.16 
   134.46     12.64    940.38   1249.30      0.00      1.03 
   134.47     12.64    940.38   1249.30      0.00      0.00 
   134.48     12.64    940.38   1249.30     -0.00      0.16 
   134.49     12.64    939.48   1247.95      0.01     -1.51 
   134.50     12.64    940.38   1249.14      0.01      0.87 
   134.51     12.64    940.38   1249.30      0.00     -0.16 
   134.52     12.64    940.38   1249.30      0.01     -0.32 
   134.53     12.64    940.38   1249.30      0.01     -0.32 
   134.54     12.64    939.48   1248.11      0.00     -1.35 
   134.55     12.64    940.38   1249.14      0.01      0.71 
   134.56     12.64    940.38   1249.14      0.01     -0.32 
   134.57     12.63    933.19   1240.07     -0.01      0.48 
   134.58     12.63    940.38   1249.63     -0.01      0.32 
   134.59     12.62    940.38   1249.95     -0.03      2.32 
   134.60     12.61    940.38   1250.11     -0.04      1.44 
   134.61     12.61    940.38   1250.11     -0.04      1.28 
   134.62     12.64    940.38   1249.30     -0.00      1.35 
   134.63     12.64    939.48   1247.95      0.01     -1.67 
   134.64     12.64    940.38   1249.30      0.01     -0.32 
   134.65     12.65    940.38   1248.98      0.02     -0.64 
   134.66     12.64    940.38   1249.14      0.00      1.03 
   134.67     12.64    940.38   1249.14     -0.00      0.16 
   134.68     12.65    939.48   1247.63      0.00     -1.35 
   134.69     12.65    940.38   1248.82      0.00      9.55 
   134.70     12.64    940.38   1249.14     -0.01      0.32 
