#Written by Robertson Geologging WinLogger V1.5/410
~VERSION INFORMATION
#------------------------------------------------------------------------------
 VERS. 2.0 : CWLS LOG ASCII STANDARD - VERSION 2.0
 WRAP. NO  : ONE LINE PER DEPTH STEP
~WELL INFORMATION
#MNEM.UNIT         DATA                                DESCRIPTION OF MNEMONIC
#------------------------------------------------------------------------------
 STRT.M         25.0100                            :   START DEPTH
 STOP.M        192.0000                            :   STOP DEPTH
 STEP.M          0.0100                            :   STEP VALUE
 NULL.        -999.2500                            :   NULL VALUE
 COMP.    IWS                                      :   COMPANY NAME
 WELL.    Thristlington                            :   WELL NAME
 FLD.     N/A                                      :   FIELD NAME
 LOC.     N/A                                      :   LOCATION
 PROV.    N/A                                      :   PROVINCE
 SRVC.    N/A                                      :   SERVICE COMPANY NAME
 DATE.    01 Feb 11                                :   DATE
 UWI.     N/A                                      :   UNIQUE WELL IDENTIFIER
~PARAMETER INFORMATION
#MNEMO.UNIT         VALUE                 DESCRIPTION OF MNEMONIC
#------------------------------------------------------------------------------
~OTHER INFORMATION SECTION
#------------------------------------------------------------------------------
 1365
~CURVE INFORMATION
#MNEMO.UNIT         API CODE              CURVE DESCRIPTION
#------------------------------------------------------------------------------
 DEPTH.M                                 :   0     Depth
 TEMP.DegC                               :   1     Temperature
 CN25.uS/cm                              :   2     Conductivity@25DegC
 DELT.DegC                               :   3     Delta T
 DELC.uS/cm                              :   4     Delta C
#------------------------------------------------------------------------------
~A  DEPTH          TEMP          CN25          DELT          DELC
# ...
   125.05         12.17       1179.44         -0.01         -1.80
   125.06         12.17       1179.44         -0.01         -1.78
   125.07         12.17       1177.73         -0.01         -1.24
   125.08         12.17       1179.41         -0.01          0.41
   125.09         12.17       1179.32         -0.01         -1.97
   125.10         12.17       1179.28         -0.01          0.18
   125.11         12.17       1179.24         -0.00          0.11
   125.12         12.17       1176.96         -0.00         -4.48
   125.13         12.18       1179.17          0.00          1.01
   125.14         12.18       1176.84          0.01         -3.06
   125.15         12.18       1179.07          0.01         -4.31
   125.16         12.18       1180.74          0.01          1.23
   125.17         12.18       1177.38          0.01         -2.12
   125.18         12.18       1181.35          0.01         -1.48
   125.19         12.18       1181.36          0.01          0.28
   125.20         12.18       1177.95          0.01         -0.79
   125.21         12.18       1181.87          0.01         -0.21
   125.22         12.18       1181.87          0.01          1.48
   125.23         12.18       1181.87          0.01          3.77
   125.24         12.18       1181.94          0.00          1.59
   125.25         12.17       1182.04          0.00          1.68
   125.26         12.17       1179.82         -0.00          2.83
   125.27         12.17       1182.10         -0.00          1.14
   125.28         12.17       1182.10          0.00          1.08
   125.29         12.17       1178.14          0.00          0.42
   125.30         12.17       1181.53          0.01         -0.23
   125.31         12.17       1181.59          0.01         -0.27
   125.32         12.17       1177.69          0.01         -0.82
   125.33         12.17       1177.70          0.01         -4.76
   125.34         12.17       1181.07          0.01         -1.43
   125.35         12.17       1177.04          0.01         -1.51
   125.36         12.17       1176.94          0.01         -4.99
   125.37         12.18       1180.26          0.02         -1.67
   125.38         12.18       1176.28          0.02         -1.69
   125.39         12.18       1176.28          0.02         -5.05
   125.40         12.18       1181.38          0.02          0.06
   125.41         12.18       1176.35          0.01         -0.96
   125.42         12.17       1176.39          0.01         -4.26
   125.43         12.17       1181.48          0.01          2.53
   125.44         12.17       1179.80          0.01          3.15
   125.45         12.17       1176.45          0.01         -2.47
   125.46         12.17       1180.45          0.00         -0.13
   125.47         12.17       1180.49          0.00          3.30
   125.48         12.17       1177.13          0.00         -2.34
   125.49         12.17       1181.08          0.00         -0.04
   125.50         12.17       1181.04          0.00          1.03
   125.51         12.17       1177.62          0.00         -2.40
   125.52         12.17       1181.55          0.01          1.49
   125.53         12.17       1181.53          0.01          4.84
   125.54         12.17       1176.49          0.01         -5.27
   125.55         12.17       1181.59          0.00          1.53
   125.56         12.17       1181.61          0.00          3.86
   125.57         12.17       1177.63          0.00         -3.51
   125.58         12.17       1181.00          0.00          1.56
   125.59         12.17       1179.32          0.00         -0.13
   125.60         12.17       1177.04          0.01         -2.42
   125.61         12.17       1180.48          0.00          3.30
   125.62         12.17       1178.80          0.00         -0.62
   125.63         12.17       1176.53          0.00         -4.52
   125.64         12.17       1178.80         -0.00         -0.55
   125.65         12.17       1180.45          0.00          1.10
   125.66         12.17       1179.31          0.00         -0.06
   125.67         12.17       1179.28          0.00         -0.09
   125.68         12.17       1180.98          0.00          1.65
   125.69         12.17       1179.87          0.00          0.56
   125.70         12.17       1181.56         -0.00          4.58
   125.71         12.17       1179.90         -0.00          0.66
   125.72         12.17       1179.87         -0.00          0.62
   125.73         12.17       1179.89         -0.00          2.87
   125.74         12.17       1179.89          0.00          0.53
   125.75         12.17       1181.01          0.00         -0.06
   125.76         12.17       1179.35          0.00          1.63
   125.77         12.17       1177.08          0.00         -4.61
   125.78         12.17       1179.38          0.00         -2.30
   125.79         12.17       1179.39          0.00         -1.16
   125.80         12.17       1177.18         -0.00         -5.06
   125.81         12.16       1179.49         -0.00         -2.75
   125.82         12.16       1181.21         -0.00          2.93
   125.83         12.16       1180.14         -0.01         -1.52
   125.84         12.16       1181.86         -0.01          1.92
   125.85         12.16       1180.23         -0.01          2.59
   125.86         12.16       1176.90         -0.01         -2.97
   125.87         12.16       1180.92         -0.01          1.05
   125.88         12.15       1180.98         -0.02          3.34
   125.89         12.15       1178.74         -0.01         -1.21
   125.90         12.15       1181.01         -0.01          3.29
   125.91         12.16       1180.93         -0.01          0.93
   125.92         12.16       1180.85         -0.01          0.79
   125.93         12.16       1180.78         -0.00          0.71
   125.94         12.16       1178.45         -0.00         -1.61
   125.95         12.16       1180.72         -0.00         -1.03
   125.96         12.16       1182.41         -0.00          2.40
   125.97         12.16       1180.72         -0.00         -0.44
   125.98         12.16       1181.83         -0.00          2.38
   125.99         12.16       1181.83         -0.00          2.41
   126.00         12.16       1180.14         -0.01          0.73
   126.01         12.16       1181.24         -0.00          1.83
   126.02         12.16       1179.55         -0.00          0.13
   126.03         12.16       1177.30         -0.00         -2.13
   126.04         12.16       1179.58         -0.00          0.14
   126.05         12.16       1179.62         -0.01          0.18
   126.06         12.16       1179.61         -0.01          1.88
   126.07         12.16       1179.59         -0.01          0.18
   126.08         12.16       1181.26         -0.01          1.93
   126.09         12.16       1176.16         -0.01         -3.12
   126.10         12.16       1179.54         -0.01          0.30
   126.11         12.16       1179.54         -0.01          2.58
   126.12         12.16       1176.18         -0.01         -2.98
   126.13         12.16       1180.17         -0.02          3.33
   126.14         12.16       1180.20         -0.02          1.13
   126.15         12.16       1180.21         -0.02         -0.53
   126.16         12.16       1180.21         -0.02          2.84
   126.17         12.16       1176.26         -0.02         -5.09
   126.18         12.16       1179.62         -0.02         -1.74
   126.19         12.16       1177.90         -0.02         -0.05
   126.20         12.16       1179.58         -0.02         -2.29
   126.21         12.16       1178.42         -0.02         -3.45
   126.22         12.16       1180.10         -0.01         -1.77
   126.23         12.16       1182.35         -0.01          0.41
   126.24         12.16       1180.10         -0.01         -1.94
   126.25         12.16       1178.42         -0.01         -1.39
   126.26         12.16       1179.55         -0.01         -2.55
