#Written by Robertson Geologging WinLogger V1.0/370
~VERSION INFORMATION
#------------------------------------------------------------------------------
 VERS. 2.0 : CWLS LOG ASCII STANDARD - VERSION 2.0
 WRAP. NO  : ONE LINE PER DEPTH STEP
~WELL INFORMATION
#MNEM.UNIT         DATA                                DESCRIPTION OF MNEMONIC
#------------------------------------------------------------------------------
 STRT.M         44.0600                            :   START DEPTH
 STOP.M        195.1500                            :   STOP DEPTH
 STEP.M          0.0100                            :   STEP VALUE
 NULL.        -999.2500                            :   NULL VALUE
 COMP.    WHITE YOUN GREEN                         :   COMPANY NAME
 WELL.    THRISINGTON SHAFT                        :   WELL NAME
 FLD.     THRISINGTON                              :   FIELD NAME
 LOC.     N/A                                      :   LOCATION
 PROV.    N/A                                      :   PROVINCE
 SRVC.    N/A                                      :   SERVICE COMPANY NAME
 DATE.    15 Dec 06                                :   DATE
 UWI.     N/A                                      :   UNIQUE WELL IDENTIFIER
~PARAMETER INFORMATION
#MNEMO.UNIT         VALUE                 DESCRIPTION OF MNEMONIC
#------------------------------------------------------------------------------
~OTHER INFORMATION SECTION
#------------------------------------------------------------------------------
 lLOGGING DOWN
~CURVE INFORMATION
#MNEMO.UNIT         API CODE              CURVE DESCRIPTION
#------------------------------------------------------------------------------
 DEPTH.M                                 :   0     Depth
 TEMP.DegC                               :   1     Temperature
 CN25.mS/cm                              :   2     Conductivity@25DegC
 COND.mS/cm                              :   3     Conductivity
 DELT.DegC                               :   4     Delta T
 DELC.mS/cm                              :   5     Delta C
 NGAM.CPS                                :   6     Natural Gamma
#------------------------------------------------------------------------------
~A  DEPTH     TEMP      CN25      COND      DELT      DELC      NGAM      
# ...
   114.12     12.63      7.82      1.60     -0.00      0.00      0.00 
   114.13     12.63      7.82      1.61     -0.00      0.01      0.00 
   114.14     12.63      7.82      1.61      0.00      0.00      0.47 
   114.15     12.63      7.82      1.61      0.00      0.00      0.47 
   114.16     12.63      7.82      1.61      0.00     -0.00      0.47 
   114.17     12.63      7.82      1.60      0.01     -0.01      0.47 
   114.18     12.63      7.82      1.60      0.01     -0.01      0.47 
   114.19     12.63      7.82      1.61      0.01     -0.01      0.88 
   114.20     12.63      7.81      1.60      0.01     -0.01      0.88 
   114.21     12.63      7.81      1.60      0.00     -0.00      0.88 
   114.22     12.63      7.82      1.61      0.00     -0.00      0.88 
   114.23     12.63      7.81      1.60      0.00     -0.01      0.88 
   114.24     12.63      7.81      1.60      0.00     -0.01      0.88 
   114.25     12.63      7.81      1.60      0.00     -0.01      0.88 
   114.26     12.63      7.81      1.60      0.00     -0.01      0.88 
   114.27     12.63      7.82      1.60      0.00     -0.00      0.88 
   114.28     12.63      7.82      1.60      0.00     -0.00      0.88 
   114.29     12.63      7.82      1.61     -0.00      0.00      0.88 
   114.30     12.63      7.82      1.61     -0.00      0.00      0.88 
   114.31     12.63      7.82      1.61     -0.00      0.01      0.41 
   114.32     12.63      7.82      1.61     -0.01      0.00      0.41 
   114.33     12.63      7.82      1.60     -0.01      0.00      0.41 
   114.34     12.62      7.82      1.61     -0.01      0.01      0.41 
   114.35     12.62      7.82      1.61     -0.01      0.01      0.41 
   114.36     12.62      7.83      1.61     -0.01      0.01      0.00 
   114.37     12.62      7.82      1.61     -0.01      0.01      0.00 
   114.38     12.62      7.82      1.61     -0.01      0.00      0.00 
   114.39     12.62      7.83      1.61     -0.00      0.01      0.00 
   114.40     12.63      7.82      1.60     -0.00      0.00      0.00 
   114.41     12.63      7.82      1.60     -0.00      0.00      0.00 
   114.42     12.63      7.82      1.60      0.00     -0.00      0.00 
   114.43     12.63      7.82      1.60      0.00     -0.00      0.00 
   114.44     12.63      7.82      1.61      0.00      0.00      0.00 
   114.45     12.63      7.82      1.60     -0.00     -0.00      0.00 
   114.46     12.63      7.82      1.60     -0.00     -0.00      0.00 
   114.47     12.63      7.81      1.60     -0.00     -0.00      0.00 
   114.48     12.63      7.81      1.60     -0.00      0.00      0.00 
   114.49     12.63      7.82      1.61     -0.00      0.00      0.00 
   114.50     12.63      7.81      1.60     -0.00      0.00      0.00 
   114.51     12.63      7.82      1.61     -0.01      0.01      0.00 
   114.52     12.63      7.82      1.61     -0.01      0.01      0.00 
   114.53     12.63      7.82      1.61     -0.00      0.01      0.00 
   114.54     12.63      7.82      1.61     -0.00      0.00      0.00 
   114.55     12.63      7.82      1.61      0.00      0.00      0.00 
   114.56     12.63      7.81      1.61      0.00     -0.00      0.00 
   114.57     12.63      7.82      1.61      0.01     -0.00      0.00 
   114.58     12.63      7.82      1.61      0.01     -0.01      0.00 
   114.59     12.63      7.82      1.61      0.01     -0.00      0.00 
   114.60     12.63      7.82      1.61      0.01     -0.01      0.00 
   114.61     12.63      7.82      1.61      0.01     -0.00      0.00 
   114.62     12.63      7.82      1.61      0.01     -0.01      0.00 
   114.63     12.63      7.82      1.61      0.01     -0.00      0.41 
   114.64     12.63      7.82      1.60      0.01     -0.01      0.41 
   114.65     12.63      7.82      1.61      0.00      0.00      0.41 
   114.66     12.63      7.82      1.61      0.00     -0.00      0.41 
   114.67     12.63      7.82      1.60     -0.00      0.00      0.41 
   114.68     12.63      7.82      1.60     -0.00      0.00      0.41 
   114.69     12.63      7.82      1.61     -0.00      0.00      0.41 
   114.70     12.63      7.82      1.60     -0.00      0.00      0.41 
   114.71     12.63      7.82      1.61     -0.00      0.01      0.41 
   114.72     12.63      7.82      1.61     -0.01      0.01      0.41 
   114.73     12.63      7.82      1.60     -0.00      0.00      0.41 
   114.74     12.63      7.82      1.60     -0.00      0.00      0.41 
   114.75     12.63      7.81      1.60     -0.00      0.00      0.41 
   114.76     12.63      7.81      1.60      0.00     -0.00      0.41 
   114.77     12.64      7.81      1.60      0.00     -0.00      0.41 
   114.78     12.64      7.81      1.61      0.00     -0.00      0.88 
   114.79     12.64      7.81      1.60      0.01     -0.01      0.88 
   114.80     12.64      7.81      1.61      0.01     -0.01      0.88 
   114.81     12.64      7.81      1.60      0.00     -0.01      0.88 
   114.82     12.64      7.81      1.61      0.00     -0.00      0.88 
   114.83     12.64      7.81      1.61      0.00     -0.01      0.88 
   114.84     12.64      7.81      1.61      0.00     -0.00      0.88 
   114.85     12.64      7.81      1.61      0.00     -0.01      0.88 
   114.86     12.64      7.81      1.61      0.01     -0.00      0.88 
   114.87     12.64      7.81      1.61      0.00     -0.00      0.88 
   114.88     12.64      7.81      1.61      0.00     -0.00      0.88 
   114.89     12.64      7.81      1.61     -0.00      0.00      0.88 
   114.90     12.64      7.81      1.61     -0.00      0.00      0.88 
   114.91     12.64      7.81      1.60     -0.00      0.01      0.88 
   114.92     12.64      7.81      1.61     -0.00      0.00      0.88 
   114.93     12.64      7.81      1.60     -0.00     -0.00      0.88 
   114.94     12.64      7.81      1.60      0.00     -0.00      0.88 
   114.95     12.64      7.81      1.60      0.00     -0.00      0.41 
   114.96     12.64      7.81      1.60      0.00     -0.00      0.41 
   114.97     12.64      7.81      1.60      0.00     -0.00      0.00 
   114.98     12.64      7.81      1.60      0.00     -0.00      0.00 
   114.99     12.64      7.81      1.60      0.00     -0.00      0.00 
   115.00     12.63      7.81      1.60      0.00     -0.01      0.00 
   115.01     12.63      7.81      1.60      0.00     -0.00      0.00 
   115.02     12.63      7.82      1.61      0.00     -0.00      0.00 
   115.03     12.63      7.82      1.61      0.00     -0.00      0.00 
   115.04     12.63      7.82      1.61     -0.00      0.00      0.00 
   115.05     12.63      7.82      1.61     -0.00      0.01      0.00 
   115.06     12.62      7.82      1.60     -0.01      0.00      0.00 
   115.07     12.62      7.83      1.61     -0.01      0.01      0.00 
   115.08     12.62      7.83      1.60     -0.01      0.00      0.00 
   115.09     12.62      7.83      1.61     -0.01      0.01      0.00 
   115.10     12.62      7.83      1.61     -0.01      0.01      0.00 
   115.11     12.62      7.83      1.61     -0.01      0.01      0.00 
   115.12     12.62      7.83      1.61     -0.01      0.01      0.00 
   115.13     12.62      7.83      1.60     -0.01      0.01      0.00 
   115.14     12.62      7.83      1.61     -0.01      0.01      0.00 
   115.15     12.62      7.83      1.60     -0.01      0.01      0.00 
   115.16     12.62      7.83      1.61     -0.01      0.02      0.00 
   115.17     12.62      7.83      1.61     -0.01      0.02      0.00 
   115.18     12.62      7.83      1.61     -0.01      0.02      0.00 
   115.19     12.62      7.83      1.61     -0.01      0.02      0.00 
   115.20     12.62      7.83      1.61     -0.01      0.01      0.00 
   115.21     12.62      7.83      1.61     -0.01      0.01      0.00 
   115.22     12.62      7.83      1.61     -0.01      0.02      0.00 
   115.23     12.62      7.83      1.61     -0.01      0.01      0.00 
   115.24     12.62      7.82      1.61     -0.01      0.01      0.00 
