#Written by Robertson Geologging WinLogger V1.5/410
~VERSION INFORMATION
#------------------------------------------------------------------------------
 VERS. 2.0 : CWLS LOG ASCII STANDARD - VERSION 2.0
 WRAP. NO  : ONE LINE PER DEPTH STEP
~WELL INFORMATION
#MNEM.UNIT         DATA                                DESCRIPTION OF MNEMONIC
#------------------------------------------------------------------------------
 STRT.M        191.7300                            :   START DEPTH
 STOP.M         42.4500                            :   STOP DEPTH
 STEP.M         -0.0100                            :   STEP VALUE
 NULL.        -999.2500                            :   NULL VALUE
 COMP.    I.W.S.                                   :   COMPANY NAME
 WELL.    THRISLINGTON                             :   WELL NAME
 FLD.     N/A                                      :   FIELD NAME
 LOC.     N/A                                      :   LOCATION
 PROV.    N/A                                      :   PROVINCE
 SRVC.    N/A                                      :   SERVICE COMPANY NAME
 DATE.    14 Nov 11                                :   DATE
 UWI.     N/A                                      :   UNIQUE WELL IDENTIFIER
~PARAMETER INFORMATION
#MNEMO.UNIT         VALUE                 DESCRIPTION OF MNEMONIC
#------------------------------------------------------------------------------
~OTHER INFORMATION SECTION
#------------------------------------------------------------------------------
 1365 LOW
~CURVE INFORMATION
#MNEMO.UNIT         API CODE              CURVE DESCRIPTION
#------------------------------------------------------------------------------
 DEPTH.M                                 :   0     Depth
 TEMP.DegC                               :   1     Temperature
 COND.uS/cm                              :   2     Conductivity
 DELT.DegC                               :   3     Delta T
 DELC.uS/cm                              :   4     Delta C
 NGAM.CPS                                :   5     Natural Gamma
#------------------------------------------------------------------------------
~A  DEPTH          TEMP          COND          DELT          DELC          NGAM
# ...
    92.73         12.38        917.39         -0.00         -2.93          0.00
    92.72         12.38        917.39          0.00         -2.51          0.42
    92.71         12.38        919.90          0.00          2.09          0.42
    92.70         12.38        919.90          0.01         -0.00          0.83
    92.69         12.38        919.90          0.01         -0.42          0.83
    92.68         12.38        919.90          0.01         -0.00          0.83
    92.67         12.38        919.90          0.01         -0.42          0.83
    92.66         12.38        919.90          0.00          2.51          0.83
    92.65         12.38        919.90          0.00         -0.42          0.83
    92.64         12.37        919.90         -0.00         -0.00          1.25
    92.63         12.37        917.80         -0.01         -2.51          1.25
    92.62         12.37        919.90         -0.01         -0.00          1.25
    92.61         12.36        919.90         -0.01          2.09          1.25
    92.60         12.36        919.90         -0.01         -0.00          1.25
    92.59         12.37        920.32         -0.01         -0.00          1.25
    92.58         12.37        917.39         -0.00         -2.93          1.25
    92.57         12.37        917.80         -0.00         -0.00          1.25
    92.56         12.37        919.90         -0.00          2.09          1.25
    92.55         12.37        920.32          0.00         -0.00          0.83
    92.54         12.37        919.90          0.00         -0.42          0.83
    92.53         12.37        917.39          0.01         -2.93          0.42
    92.52         12.38        919.90          0.01          2.09          0.42
    92.51         12.38        919.90          0.00          2.09          0.42
    92.50         12.38        920.32          0.00          0.00          0.92
    92.49         12.38        919.90         -0.00         -0.42          0.92
    92.48         12.37        917.39         -0.00         -0.42          0.92
    92.47         12.37        919.90         -0.01          2.51          0.50
    92.46         12.37        919.90         -0.01         -0.42          0.50
    92.45         12.37        919.90         -0.01          0.00          0.50
    92.44         12.37        917.39         -0.01         -2.51          0.50
    92.43         12.37        917.39         -0.01          0.00          0.50
    92.42         12.37        920.32         -0.00          2.93          0.50
    92.41         12.37        919.90         -0.00          0.00          0.50
    92.40         12.37        920.32          0.00          0.42          0.50
    92.39         12.37        917.39          0.00         -2.51          0.50
    92.38         12.37        917.39          0.00          0.00          0.50
    92.37         12.37        919.90          0.00          0.00          0.50
    92.36         12.38        920.32          0.01          0.42          0.50
    92.35         12.38        919.90          0.01          0.00          0.50
    92.34         12.38        917.80          0.01         -2.09          0.50
    92.33         12.38        919.90          0.01          2.09          0.00
    92.32         12.38        920.32          0.01          0.42          0.00
    92.31         12.38        919.90          0.01          0.00          0.00
    92.30         12.38        917.80          0.01         -2.09          0.00
    92.29         12.38        917.39          0.01         -2.51          0.00
    92.28         12.38        920.32          0.01          2.93          0.00
    92.27         12.38        920.32          0.01          0.42          0.00
    92.26         12.38        920.32          0.01          0.84          0.42
    92.25         12.38        917.39          0.00         -2.51          0.42
    92.24         12.37        917.80         -0.00         -1.68          0.42
    92.23         12.37        919.90         -0.01          2.51          0.42
    92.22         12.37        920.32         -0.01          0.84          0.42
    92.21         12.37        919.90         -0.01          0.42          0.42
    92.20         12.37        917.80         -0.01         -2.09          0.42
    92.19         12.37        919.90         -0.01          0.42          0.42
    92.18         12.37        919.90         -0.01          2.51          0.42
    92.17         12.37        919.90         -0.00          0.42          0.42
    92.16         12.37        919.90         -0.00          0.42          0.42
    92.15         12.37        917.39         -0.00         -2.51          0.42
    92.14         12.37        919.90         -0.00          0.42          0.42
    92.13         12.37        919.90         -0.00          2.51          0.42
    92.12         12.37        919.90          0.00          0.42          0.42
    92.11         12.37        919.90          0.00          0.00          0.42
    92.10         12.37        917.39         -0.00         -2.51          0.42
    92.09         12.37        919.90         -0.00          0.00          0.00
    92.08         12.37        919.90         -0.01          2.51          0.00
    92.07         12.36        920.32         -0.01          0.42          0.00
    92.06         12.36        919.90         -0.01          0.00          0.00
    92.05         12.36        917.80         -0.01         -2.51          0.00
    92.04         12.37        919.90         -0.01          0.00          0.00
    92.03         12.37        920.32         -0.01          2.51          0.00
    92.02         12.37        919.90         -0.00          0.00          0.00
    92.01         12.37        917.80         -0.00         -2.51          0.00
    92.00         12.37        917.39          0.00         -2.51          0.00
    91.99         12.38        920.32          0.00          2.51          0.00
    91.98         12.38        919.90          0.01          2.51          0.00
    91.97         12.38        920.32          0.01          0.42          0.00
    91.96         12.39        917.39          0.01         -2.51          0.00
    91.95         12.39        917.39          0.01         -2.93          0.00
    91.94         12.39        919.90          0.01          2.51          0.00
    91.93         12.39        919.90          0.01          2.09          0.00
    91.92         12.39        919.90          0.01          0.00          0.00
    91.91         12.39        917.39          0.01         -2.93          0.00
    91.90         12.38        919.90          0.01          0.00          0.00
    91.89         12.38        919.90          0.01          2.09          0.42
    91.88         12.38        919.90          0.01         -0.42          0.42
    91.87         12.38        919.90          0.01         -0.42          0.42
    91.86         12.38        917.39          0.01         -3.35          0.42
    91.85         12.38        919.90          0.01          2.09          0.42
    91.84         12.38        920.32          0.01          2.51          0.42
    91.83         12.38        919.90          0.01         -0.84          0.42
    91.82         12.38        917.80          0.01         -2.51          0.42
    91.81         12.38        917.39          0.01         -3.35          0.42
    91.80         12.38        920.32          0.01          2.51          0.42
    91.79         12.39        919.90          0.02          1.68          0.42
    91.78         12.39        920.32          0.01         -0.00          0.42
    91.77         12.39        917.39          0.01         -2.93          0.42
    91.76         12.39        917.80          0.01         -2.51          0.42
    91.75         12.38        919.90          0.01          2.09          0.42
    91.74         12.38        920.32          0.00         -0.42          0.42
