#Written by Robertson Geologging WinLogger V1.0/370
~VERSION INFORMATION
#------------------------------------------------------------------------------
 VERS. 2.0 : CWLS LOG ASCII STANDARD - VERSION 2.0
 WRAP. NO  : ONE LINE PER DEPTH STEP
~WELL INFORMATION
#MNEM.UNIT         DATA                                DESCRIPTION OF MNEMONIC
#------------------------------------------------------------------------------
 STRT.M         44.0600                            :   START DEPTH
 STOP.M        195.1500                            :   STOP DEPTH
 STEP.M          0.0100                            :   STEP VALUE
 NULL.        -999.2500                            :   NULL VALUE
 COMP.    WHITE YOUN GREEN                         :   COMPANY NAME
 WELL.    THRISINGTON SHAFT                        :   WELL NAME
 FLD.     THRISINGTON                              :   FIELD NAME
 LOC.     N/A                                      :   LOCATION
 PROV.    N/A                                      :   PROVINCE
 SRVC.    N/A                                      :   SERVICE COMPANY NAME
 DATE.    15 Dec 06                                :   DATE
 UWI.     N/A                                      :   UNIQUE WELL IDENTIFIER
~PARAMETER INFORMATION
#MNEMO.UNIT         VALUE                 DESCRIPTION OF MNEMONIC
#------------------------------------------------------------------------------
~OTHER INFORMATION SECTION
#------------------------------------------------------------------------------
 lLOGGING DOWN
~CURVE INFORMATION
#MNEMO.UNIT         API CODE              CURVE DESCRIPTION
#------------------------------------------------------------------------------
 DEPTH.M                                 :   0     Depth
 TEMP.DegC                               :   1     Temperature
 CN25.mS/cm                              :   2     Conductivity@25DegC
 COND.mS/cm                              :   3     Conductivity
 DELT.DegC                               :   4     Delta T
 DELC.mS/cm                              :   5     Delta C
 NGAM.CPS                                :   6     Natural Gamma
#------------------------------------------------------------------------------
~A  DEPTH     TEMP      CN25      COND      DELT      DELC      NGAM      
# ...
   194.35     13.62     11.70      5.41      0.21      1.56      0.82 
   194.36     13.62     11.72      5.43      0.21      1.58      0.82 
   194.37     13.62     11.73      5.45      0.21      1.59      1.24 
   194.38     13.63     11.76      5.46      0.21      1.60      1.24 
   194.39     13.63     11.77      5.48      0.20      1.62      1.24 
   194.40     13.63     11.79      5.49      0.20      1.63      1.24 
   194.41     13.63     11.81      5.51      0.20      1.64      1.65 
   194.42     13.63     11.84      5.53      0.20      1.66      1.24 
   194.43     13.63     11.85      5.54      0.19      1.67      1.24 
   194.44     13.63     11.87      5.56      0.19      1.69      1.24 
   194.45     13.63     11.90      5.58      0.19      1.70      1.24 
   194.46     13.63     11.92      5.60      0.19      1.72      1.24 
   194.47     13.64     11.93      5.61      0.19      1.72      1.71 
   194.48     13.64     11.94      5.61      0.18      1.72      1.71 
   194.49     13.64     11.93      5.61      0.18      1.71      1.71 
   194.50     13.64     11.93      5.61      0.18      1.69      1.71 
   194.51     13.65     11.91      5.61      0.19      1.67      2.53 
   194.52     13.65     11.89      5.59      0.19      1.64      2.59 
   194.53     13.66     11.85      5.57      0.19      1.59      3.00 
   194.54     13.66     11.81      5.54      0.19      1.54      3.41 
   194.55     13.67     11.77      5.51      0.19      1.48      3.41 
   194.56     13.67     11.71      5.47      0.19      1.42      3.41 
   194.57     13.68     11.64      5.42      0.20      1.34      3.41 
   194.58     13.68     11.58      5.38      0.20      1.26      3.00 
   194.59     13.69     11.50      5.32      0.20      1.17      3.00 
   194.60     13.69     11.43      5.27      0.21      1.08      3.41 
   194.61     13.70     11.35      5.21      0.21      0.99      3.41 
   194.62     13.70     11.28      5.16      0.21      0.91      3.41 
   194.63     13.70     11.21      5.11      0.21      0.83      4.24 
   194.64     13.71     11.15      5.07      0.22      0.75      4.18 
   194.65     13.71     11.08      5.02      0.22      0.67      4.65 
   194.66     13.71     11.02      4.98      0.22      0.60      5.06 
   194.67     13.72     10.96      4.93      0.22      0.52      5.06 
   194.68     13.72     10.90      4.89      0.22      0.45      6.18 
   194.69     13.72     10.84      4.84      0.22      0.37      6.12 
   194.70     13.71     10.78      4.79      0.22      0.30      6.12 
   194.71     13.71     10.72      4.74      0.21      0.21      5.71 
   194.72     13.71     10.66      4.69      0.21      0.13      5.71 
   194.73     13.72     10.59      4.64      0.21      0.05      6.12 
   194.74     13.72     10.53      4.60      0.21     -0.02      6.12 
   194.75     13.72     10.47      4.55      0.21     -0.10      6.53 
   194.76     13.72     10.41      4.51      0.22     -0.18      7.76 
   194.77     13.72     10.36      4.47      0.22     -0.26      8.29 
   194.78     13.72     10.31      4.43      0.22     -0.32      8.71 
   194.79     13.73     10.27      4.40      0.23     -0.39     10.65 
   194.80     13.73     10.23      4.38      0.23     -0.44      9.82 
   194.81     13.74     10.21      4.37      0.23     -0.48     10.65 
   194.82     13.74     10.20      4.36      0.23     -0.51     10.59 
   194.83     13.74     10.19      4.36      0.24     -0.54     10.65 
   194.84     13.75     10.18      4.35      0.24     -0.57     11.06 
   194.85     13.75     10.17      4.35      0.24     -0.60     10.35 
   194.86     13.75     10.16      4.35      0.24     -0.63     10.76 
   194.87     13.76     10.16      4.35      0.24     -0.65     11.18 
   194.88     13.76     10.15      4.35      0.24     -0.67     12.24 
   194.89     13.76     10.14      4.34      0.24     -0.70     12.65 
   194.90     13.76     10.14      4.34      0.24     -0.72     12.24 
   194.91     13.77     10.13      4.34      0.24     -0.75     13.06 
   194.92     13.77     10.13      4.33      0.24     -0.77     14.29 
   194.93     13.77     10.12      4.33      0.24     -0.80     14.00 
   194.94     13.77     10.11      4.33      0.24     -0.83     14.29 
   194.95     13.77     10.11      4.32      0.24     -0.86     14.29 
   194.96     13.77     10.10      4.32      0.24     -0.88     12.76 
   194.97     13.78     10.09      4.31      0.23     -0.91     12.76 
   194.98     13.78     10.09      4.31      0.23     -0.93     11.94 
   194.99     13.78     10.08      4.31      0.23     -0.96     11.53 
   195.00     13.78     10.07      4.30      0.23     -0.99     12.29 
   195.01     13.78     10.07      4.30      0.23     -1.02     12.82 
   195.02     13.78     10.06      4.30      0.23     -1.04     12.41 
   195.03     13.78     10.06      4.30      0.23     -1.07     12.82 
   195.04     13.78     10.06      4.30      0.23     -1.09     13.65 
   195.05     13.78     10.06      4.30      0.23     -1.11     13.41 
   195.06     13.78     10.06      4.30      0.23     -1.13     13.00 
   195.07     13.78     10.06      4.29      0.23     -1.16     13.00 
   195.08     13.78     10.06      4.29      0.23     -1.17     12.59 
   195.09     13.78     10.06      4.29      0.22     -1.20     11.76 
   195.10     13.78     10.06      4.29      0.22     -1.21     11.29 
   195.11     13.78     10.06      4.29      0.22     -1.23     10.06 
   195.12     13.78     10.06      4.29      0.22     -1.25     10.06 
   195.13     13.78     10.06      4.29      0.21     -1.27     10.47 
   195.14     13.78     10.05      4.28      0.21     -1.30     10.47 
   195.15     13.78     10.05      4.28      0.21     -1.32     10.47 
