#Written by Robertson Geologging WinLogger V1.5/410
~VERSION INFORMATION
#------------------------------------------------------------------------------
 VERS. 2.0 : CWLS LOG ASCII STANDARD - VERSION 2.0
 WRAP. NO  : ONE LINE PER DEPTH STEP
~WELL INFORMATION
#MNEM.UNIT         DATA                                DESCRIPTION OF MNEMONIC
#------------------------------------------------------------------------------
 STRT.M        191.7300                            :   START DEPTH
 STOP.M         42.4500                            :   STOP DEPTH
 STEP.M         -0.0100                            :   STEP VALUE
 NULL.        -999.2500                            :   NULL VALUE
 COMP.    I.W.S.                                   :   COMPANY NAME
 WELL.    THRISLINGTON                             :   WELL NAME
 FLD.     N/A                                      :   FIELD NAME
 LOC.     N/A                                      :   LOCATION
 PROV.    N/A                                      :   PROVINCE
 SRVC.    N/A                                      :   SERVICE COMPANY NAME
 DATE.    14 Nov 11                                :   DATE
 UWI.     N/A                                      :   UNIQUE WELL IDENTIFIER
~PARAMETER INFORMATION
#MNEMO.UNIT         VALUE                 DESCRIPTION OF MNEMONIC
#------------------------------------------------------------------------------
~OTHER INFORMATION SECTION
#------------------------------------------------------------------------------
 1365 LOW
~CURVE INFORMATION
#MNEMO.UNIT         API CODE              CURVE DESCRIPTION
#------------------------------------------------------------------------------
 DEPTH.M                                 :   0     Depth
 TEMP.DegC                               :   1     Temperature
 COND.uS/cm                              :   2     Conductivity
 DELT.DegC                               :   3     Delta T
 DELC.uS/cm                              :   4     Delta C
 NGAM.CPS                                :   5     Natural Gamma
#------------------------------------------------------------------------------
~A  DEPTH          TEMP          COND          DELT          DELC          NGAM
# ...
   132.73         12.40        920.74          0.01          0.00          1.50
   132.72         12.40        918.22          0.01         -2.51          1.50
   132.71         12.40        920.74          0.01          0.00          1.50
   132.70         12.40        920.74          0.01          0.00          1.50
   132.69         12.40        920.74          0.01          0.00          1.50
   132.68         12.40        920.32          0.01         -0.42          1.50
   132.67         12.40        920.32          0.01         -0.42          1.50
   132.66         12.39        920.32          0.01         -0.42          1.50
   132.65         12.39        920.32          0.01         -0.42          1.50
   132.64         12.39        920.32          0.00         -2.51          2.00
   132.63         12.39        920.74          0.00          0.00          2.00
   132.62         12.39        918.22          0.00         -2.51          2.00
   132.61         12.39        920.74          0.01          0.00          2.00
   132.60         12.39        920.74          0.01          0.00          2.50
   132.59         12.39        920.74          0.01          0.00          3.00
   132.58         12.39        920.74          0.01          0.00          2.50
   132.57         12.39        920.74          0.01          0.00          2.50
   132.56         12.39        920.74          0.01          0.00          2.00
   132.55         12.39        920.74          0.01          2.09          2.00
   132.54         12.39        920.74          0.01          2.09          2.00
   132.53         12.39        920.74          0.01          2.09          2.00
   132.52         12.39        920.32          0.00         -0.42          2.00
   132.51         12.39        920.32         -0.00         -0.42          2.00
   132.50         12.39        920.32         -0.00         -0.42          2.00
   132.49         12.39        920.32         -0.01         -0.42          2.00
   132.48         12.39        920.74         -0.01          0.00          2.00
   132.47         12.39        920.74         -0.00          0.00          2.00
   132.46         12.39        920.74         -0.00          0.00          2.00
   132.45         12.39        920.74         -0.00          0.00          2.00
   132.44         12.39        920.74         -0.00          0.42          2.00
   132.43         12.39        920.74         -0.01          0.00          1.50
   132.42         12.39        920.74         -0.01          0.00          1.00
   132.41         12.39        918.22         -0.01         -2.51          1.00
   132.40         12.39        920.74         -0.00          0.00          1.00
   132.39         12.39        920.74         -0.00          0.00          1.00
   132.38         12.39        920.74         -0.00          0.00          1.50
   132.37         12.39        920.32         -0.00         -0.42          1.50
   132.36         12.39        920.32         -0.00         -0.42          2.00
   132.35         12.39        920.32          0.00         -0.42          2.00
   132.34         12.39        920.32          0.00          2.09          2.00
   132.33         12.40        920.32          0.01         -0.42          2.00
   132.32         12.40        920.32          0.01          0.00          1.50
   132.31         12.40        920.32          0.01          0.00          1.50
   132.30         12.40        922.83          0.01          2.51          1.00
   132.29         12.40        920.32          0.01          0.00          1.00
   132.28         12.40        920.32          0.01          0.00          1.00
   132.27         12.39        920.32          0.01          0.00          1.00
   132.26         12.39        920.32          0.01          0.00          1.00
   132.25         12.39        920.32          0.01          0.00          1.00
   132.24         12.39        920.32          0.01          0.00          1.00
   132.23         12.38        920.32          0.00          0.00          1.00
   132.22         12.38        920.32         -0.00          0.00          1.00
   132.21         12.38        920.32         -0.00          0.00          0.50
   132.20         12.38        920.32         -0.01          0.00          0.50
   132.19         12.38        920.32         -0.01          0.00          0.00
   132.18         12.38        920.32         -0.01          0.00          0.00
   132.17         12.38        920.32         -0.00          0.00          0.00
   132.16         12.38        920.32         -0.00          0.00          0.00
   132.15         12.38        920.32          0.00          0.00          0.00
   132.14         12.38        920.32          0.00          0.00          0.00
   132.13         12.39        920.32          0.00          0.00          0.00
   132.12         12.39        920.32          0.00         -0.42          0.00
   132.11         12.39        920.32          0.01         -0.42          0.00
   132.10         12.39        920.32          0.01         -0.42          0.00
   132.09         12.39        920.32          0.01         -0.42          0.00
   132.08         12.39        920.32          0.01         -0.42          0.00
   132.07         12.39        920.32          0.01         -0.42          0.00
   132.06         12.39        920.32          0.00         -0.42          0.00
   132.05         12.39        920.32          0.00         -0.42          0.00
   132.04         12.39        920.32         -0.00         -0.42          0.00
   132.03         12.39        920.32         -0.00         -0.42          0.00
   132.02         12.39        920.32         -0.01         -0.42          0.00
   132.01         12.39        920.32         -0.01          0.00          0.00
   132.00         12.39        920.32         -0.01          0.00          0.00
   131.99         12.39        920.32         -0.01          0.00          0.00
   131.98         12.39        920.32         -0.01          0.00          0.00
   131.97         12.38        920.32         -0.01          0.00          0.00
   131.96         12.38        922.83         -0.01          2.51          0.00
   131.95         12.38        920.32         -0.01          0.00          0.00
   131.94         12.38        920.32         -0.01          0.00          0.00
   131.93         12.38        920.32         -0.01          0.00          0.00
   131.92         12.38        920.32         -0.01          0.00          0.00
   131.91         12.38        920.32         -0.01          0.00          0.00
   131.90         12.38        920.32         -0.01          0.00          0.00
   131.89         12.38        920.32         -0.01          0.00          0.00
   131.88         12.38        920.74         -0.01          0.42          0.00
   131.87         12.38        920.74         -0.01          0.42          0.00
   131.86         12.38        920.74         -0.01          0.00          0.00
   131.85         12.38        918.22         -0.01         -2.51          0.00
   131.84         12.39        920.74         -0.01          0.00          0.50
   131.83         12.39        920.74         -0.00          0.00          0.50
   131.82         12.39        920.74         -0.00          0.00          0.50
   131.81         12.39        920.74          0.00          0.00          0.50
   131.80         12.39        920.74          0.00          2.51          0.50
   131.79         12.39        920.74          0.00          0.00          0.50
   131.78         12.39        920.74          0.01          0.00          0.50
   131.77         12.39        920.32          0.01         -0.42          0.50
   131.76         12.39        918.22          0.00         -2.51          0.50
   131.75         12.39        918.22         -0.00         -2.51          0.50
   131.74         12.39        920.74         -0.01         -0.00          0.50
