#Written by Robertson Geologging WinLogger V1.0/370
~VERSION INFORMATION
#------------------------------------------------------------------------------
 VERS. 2.0 : CWLS LOG ASCII STANDARD - VERSION 2.0
 WRAP. NO  : ONE LINE PER DEPTH STEP
~WELL INFORMATION
#MNEM.UNIT         DATA                                DESCRIPTION OF MNEMONIC
#------------------------------------------------------------------------------
 STRT.M         44.0600                            :   START DEPTH
 STOP.M        195.1500                            :   STOP DEPTH
 STEP.M          0.0100                            :   STEP VALUE
 NULL.        -999.2500                            :   NULL VALUE
 COMP.    WHITE YOUN GREEN                         :   COMPANY NAME
 WELL.    THRISINGTON SHAFT                        :   WELL NAME
 FLD.     THRISINGTON                              :   FIELD NAME
 LOC.     N/A                                      :   LOCATION
 PROV.    N/A                                      :   PROVINCE
 SRVC.    N/A                                      :   SERVICE COMPANY NAME
 DATE.    15 Dec 06                                :   DATE
 UWI.     N/A                                      :   UNIQUE WELL IDENTIFIER
~PARAMETER INFORMATION
#MNEMO.UNIT         VALUE                 DESCRIPTION OF MNEMONIC
#------------------------------------------------------------------------------
~OTHER INFORMATION SECTION
#------------------------------------------------------------------------------
 lLOGGING DOWN
~CURVE INFORMATION
#MNEMO.UNIT         API CODE              CURVE DESCRIPTION
#------------------------------------------------------------------------------
 DEPTH.M                                 :   0     Depth
 TEMP.DegC                               :   1     Temperature
 CN25.mS/cm                              :   2     Conductivity@25DegC
 COND.mS/cm                              :   3     Conductivity
 DELT.DegC                               :   4     Delta T
 DELC.mS/cm                              :   5     Delta C
 NGAM.CPS                                :   6     Natural Gamma
#------------------------------------------------------------------------------
~A  DEPTH     TEMP      CN25      COND      DELT      DELC      NGAM      
# ...
   154.80     12.63      7.82      1.61     -0.00      0.00      0.00 
   154.81     12.63      7.82      1.61     -0.00      0.00      0.41 
   154.82     12.63      7.82      1.61     -0.01      0.01      0.41 
   154.83     12.63      7.81      1.61     -0.01      0.00      0.41 
   154.84     12.63      7.81      1.61     -0.01      0.01      0.41 
   154.85     12.64      7.81      1.60     -0.00     -0.00      0.41 
   154.86     12.64      7.81      1.61     -0.00      0.00      0.41 
   154.87     12.64      7.81      1.61     -0.00      0.00      0.41 
   154.88     12.64      7.81      1.61     -0.00      0.00      0.82 
   154.89     12.64      7.80      1.61     -0.00     -0.00      0.82 
   154.90     12.65      7.80      1.61      0.00     -0.00      0.82 
   154.91     12.65      7.80      1.61      0.00     -0.01      0.82 
   154.92     12.65      7.80      1.60      0.01     -0.01      0.82 
   154.93     12.65      7.80      1.61      0.01     -0.01      0.82 
   154.94     12.65      7.80      1.60      0.00     -0.01      0.82 
   154.95     12.65      7.80      1.61      0.00     -0.01      0.82 
   154.96     12.65      7.80      1.61      0.00      0.00      0.82 
   154.97     12.64      7.80      1.61      0.00     -0.00      0.82 
   154.98     12.65      7.80      1.61      0.00     -0.00      0.41 
   154.99     12.65      7.80      1.61      0.00     -0.01      0.41 
   155.00     12.65      7.80      1.60      0.00     -0.01      0.41 
   155.01     12.65      7.80      1.60      0.00     -0.01      0.41 
   155.02     12.65      7.80      1.60      0.00     -0.01      0.41 
   155.03     12.65      7.80      1.61      0.00     -0.01      0.41 
   155.04     12.64      7.80      1.60      0.00     -0.00      0.41 
   155.05     12.64      7.81      1.61      0.00     -0.00      0.00 
   155.06     12.64      7.81      1.61      0.00      0.00      0.00 
   155.07     12.64      7.80      1.60      0.00     -0.00      0.00 
   155.08     12.64      7.81      1.61      0.00     -0.00      0.41 
   155.09     12.64      7.80      1.60      0.00     -0.00      0.41 
   155.10     12.64      7.80      1.60      0.00     -0.00      0.41 
   155.11     12.64      7.81      1.61      0.00      0.00      0.41 
   155.12     12.64      7.81      1.60     -0.00      0.00      0.41 
   155.13     12.64      7.81      1.61     -0.00      0.00      0.41 
   155.14     12.64      7.81      1.61     -0.01      0.01      0.41 
   155.15     12.64      7.81      1.61     -0.00      0.01      0.41 
   155.16     12.64      7.81      1.61     -0.00      0.01      0.41 
   155.17     12.64      7.80      1.60     -0.00      0.00      0.41 
   155.18     12.65      7.80      1.60     -0.00      0.00      0.41 
   155.19     12.65      7.80      1.60     -0.00      0.00      0.41 
   155.20     12.65      7.80      1.60      0.00     -0.00      0.41 
   155.21     12.65      7.80      1.61      0.00     -0.00      0.41 
   155.22     12.65      7.79      1.60      0.00     -0.01      0.41 
   155.23     12.65      7.79      1.61      0.01     -0.01      0.41 
   155.24     12.65      7.79      1.60      0.01     -0.01      0.41 
   155.25     12.65      7.79      1.60      0.01     -0.01      0.00 
   155.26     12.65      7.80      1.61      0.01     -0.01      0.00 
   155.27     12.65      7.79      1.60      0.01     -0.01      0.00 
   155.28     12.65      7.79      1.60      0.01     -0.02      0.00 
   155.29     12.65      7.80      1.61      0.01     -0.01      0.00 
   155.30     12.65      7.79      1.61      0.01     -0.01      0.00 
   155.31     12.65      7.80      1.61      0.01     -0.01      0.00 
   155.32     12.65      7.80      1.61      0.01     -0.01      0.00 
   155.33     12.65      7.80      1.61      0.01     -0.00      0.00 
   155.34     12.65      7.80      1.61      0.01     -0.00      0.00 
   155.35     12.64      7.81      1.61      0.00     -0.00      0.00 
   155.36     12.64      7.81      1.61      0.00      0.00      0.00 
   155.37     12.64      7.80      1.61     -0.00      0.00      0.00 
   155.38     12.64      7.81      1.61     -0.00      0.00      0.00 
   155.39     12.65      7.81      1.61     -0.00      0.01      0.00 
   155.40     12.65      7.80      1.61     -0.00      0.01      0.00 
   155.41     12.64      7.80      1.61     -0.00      0.00      0.00 
   155.42     12.64      7.80      1.61     -0.00      0.00      0.94 
   155.43     12.64      7.80      1.61     -0.00      0.00      0.94 
   155.44     12.64      7.81      1.61     -0.00      0.00      0.94 
   155.45     12.64      7.81      1.61     -0.00     -0.00      0.94 
   155.46     12.64      7.81      1.61     -0.00      0.01      0.94 
   155.47     12.64      7.81      1.61     -0.00      0.00      0.94 
   155.48     12.64      7.81      1.61     -0.00      0.00      0.94 
   155.49     12.64      7.81      1.61     -0.00      0.00      0.94 
   155.50     12.64      7.81      1.61     -0.00     -0.00      0.94 
   155.51     12.63      7.82      1.61     -0.00      0.00      0.94 
   155.52     12.63      7.82      1.61     -0.00      0.01      0.94 
   155.53     12.63      7.82      1.61     -0.00      0.00      0.94 
   155.54     12.63      7.82      1.61     -0.01      0.01      0.94 
   155.55     12.63      7.82      1.61     -0.01      0.00      0.94 
   155.56     12.63      7.82      1.61     -0.01      0.01      1.35 
   155.57     12.64      7.81      1.61     -0.01      0.00      1.35 
   155.58     12.64      7.81      1.61     -0.01      0.00      1.35 
   155.59     12.64      7.81      1.61     -0.00      0.00      0.41 
   155.60     12.64      7.81      1.60     -0.00      0.00      0.41 
   155.61     12.64      7.81      1.61     -0.00      0.00      0.41 
   155.62     12.64      7.81      1.60     -0.00      0.00      0.41 
   155.63     12.64      7.81      1.61     -0.00      0.00      0.41 
   155.64     12.64      7.81      1.61     -0.01      0.01      0.41 
   155.65     12.64      7.81      1.61     -0.00      0.00      0.41 
   155.66     12.64      7.81      1.61     -0.00      0.01      0.41 
   155.67     12.64      7.81      1.61     -0.00      0.00      0.41 
   155.68     12.64      7.81      1.60      0.00     -0.00      0.41 
   155.69     12.64      7.81      1.61      0.00      0.00      0.41 
   155.70     12.64      7.81      1.61      0.00      0.00      0.41 
   155.71     12.64      7.81      1.61      0.00      0.00      0.41 
   155.72     12.64      7.80      1.60      0.00     -0.00      0.41 
   155.73     12.64      7.81      1.61      0.00     -0.01      0.00 
   155.74     12.64      7.81      1.61      0.01     -0.00      0.00 
   155.75     12.64      7.81      1.61      0.01     -0.01      0.00 
   155.76     12.64      7.81      1.61      0.01     -0.01      0.00 
   155.77     12.64      7.80      1.61      0.01     -0.01      0.00 
   155.78     12.64      7.80      1.60      0.01     -0.02      0.00 
   155.79     12.64      7.81      1.61      0.01     -0.01      0.00 
   155.80     12.64      7.80      1.60      0.01     -0.01      0.00 
   155.81     12.64      7.81      1.61      0.01     -0.01      0.00 
   155.82     12.64      7.81      1.60      0.01     -0.01      0.00 
   155.83     12.64      7.81      1.61      0.00     -0.00      0.00 
   155.84     12.64      7.81      1.61      0.00      0.00      0.00 
   155.85     12.64      7.81      1.60      0.00     -0.00      0.00 
   155.86     12.64      7.80      1.60      0.00     -0.00      0.00 
   155.87     12.64      7.80      1.60      0.00     -0.00      0.00 
   155.88     12.64      7.80      1.60     -0.00     -0.00      0.00 
   155.89     12.64      7.81      1.61     -0.00      0.00      0.00 
   155.90     12.64      7.80      1.60     -0.00      0.00      0.00 
   155.91     12.64      7.81      1.61     -0.00      0.01      0.00 
   155.92     12.64      7.80      1.60     -0.00      0.00      0.00 
