#Written by Robertson Geologging WinLogger V1.5/410
~VERSION INFORMATION
#------------------------------------------------------------------------------
 VERS. 2.0 : CWLS LOG ASCII STANDARD - VERSION 2.0
 WRAP. NO  : ONE LINE PER DEPTH STEP
~WELL INFORMATION
#MNEM.UNIT         DATA                                DESCRIPTION OF MNEMONIC
#------------------------------------------------------------------------------
 STRT.M         40.0200                            :   START DEPTH
 STOP.M        195.6300                            :   STOP DEPTH
 STEP.M          0.0100                            :   STEP VALUE
 NULL.        -999.2500                            :   NULL VALUE
 COMP.    IWS                                      :   COMPANY NAME
 WELL.    THRISLINGTON                             :   WELL NAME
 FLD.     DURHAM                                   :   FIELD NAME
 LOC.     N/A                                      :   LOCATION
 PROV.    N/A                                      :   PROVINCE
 SRVC.    N/A                                      :   SERVICE COMPANY NAME
 DATE.    16 Dec 09                                :   DATE
 UWI.     N/A                                      :   UNIQUE WELL IDENTIFIER
~PARAMETER INFORMATION
#MNEMO.UNIT         VALUE                 DESCRIPTION OF MNEMONIC
#------------------------------------------------------------------------------
~OTHER INFORMATION SECTION
#------------------------------------------------------------------------------
 TCDS 1365
~CURVE INFORMATION
#MNEMO.UNIT         API CODE              CURVE DESCRIPTION
#------------------------------------------------------------------------------
 DEPTH.M                                 :   0     Depth
 TEMP.DegC                               :   1     Temperature
 COND.uS/cm                              :   2     Conductivity@25DegC
 COND.uS/cm                              :   3     Absolute Conductivity
 DELT.DegC                               :   4     Delta T
 DELC.uS/cm                              :   5     Delta C
#------------------------------------------------------------------------------
~A  DEPTH          TEMP          COND          COND          DELT          DELC
# ...
   112.02         12.41       1296.78        970.16         -0.00          0.67
   112.03         12.41       1292.27        966.81         -0.00         -3.86
   112.04         12.41       1296.11        969.74          0.00          3.84
   112.05         12.41       1292.15        966.81          0.00         -4.09
   112.06         12.41       1296.05        969.74          0.01          3.71
   112.07         12.41       1296.06        969.74          0.01         -0.80
   112.08         12.41       1296.08        969.74          0.01         -0.83
   112.09         12.41       1296.09        969.74          0.01         -0.91
   112.10         12.41       1296.11        969.74          0.01         -1.00
   112.11         12.41       1296.14        969.74          0.01          2.88
   112.12         12.41       1292.30        966.81          0.01         -4.90
   112.13         12.40       1296.31        969.74          0.01          3.03
   112.14         12.40       1296.40        969.74          0.01         -1.33
   112.15         12.40       1296.49        969.74          0.00         -1.21
   112.16         12.40       1296.59        969.74          0.00         -1.14
   112.17         12.39       1297.23        970.16         -0.00         -0.53
   112.18         12.39       1297.28        970.16         -0.00          3.98
   112.19         12.39       1293.34        967.23         -0.00         -3.86
   112.20         12.39       1297.22        970.16         -0.00          4.01
   112.21         12.40       1293.25        967.23         -0.00         -3.80
   112.22         12.40       1297.09        970.16         -0.00          0.08
   112.23         12.40       1297.08        970.16         -0.00          3.97
   112.24         12.40       1293.13        967.23         -0.00         -3.89
   112.25         12.40       1297.02        970.16         -0.00          4.50
   112.26         12.40       1293.05        967.23          0.00         -3.36
   112.27         12.40       1296.90        970.16          0.00          4.46
   112.28         12.41       1292.33        966.81          0.00         -3.98
   112.29         12.41       1296.17        969.74          0.00         -0.12
   112.30         12.41       1296.14        969.74          0.00         -0.17
   112.31         12.41       1296.16        969.74          0.00         -0.17
   112.32         12.41       1296.19        969.74          0.00          3.77
   112.33         12.41       1292.30        966.81          0.00         -4.04
   112.34         12.41       1296.22        969.74          0.00         -0.11
   112.35         12.41       1296.25        969.74          0.00         -0.08
   112.36         12.40       1296.29        969.74          0.00         -0.05
   112.37         12.40       1296.34        969.74         -0.00          0.03
   112.38         12.40       1296.38        969.74         -0.00          0.12
   112.39         12.40       1296.38        969.74         -0.01          4.10
   112.40         12.40       1292.43        966.81         -0.01         -3.71
   112.41         12.40       1296.91        970.16         -0.01          4.71
   112.42         12.40       1292.98        967.23         -0.01         -3.13
   112.43         12.40       1296.88        970.16         -0.01          0.76
   112.44         12.40       1296.91        970.16         -0.01          0.79
   112.45         12.40       1296.93        970.16         -0.01          0.82
   112.46         12.40       1296.91        970.16         -0.01          0.80
   112.47         12.40       1292.98        967.23         -0.01         -3.12
   112.48         12.40       1296.88        970.16         -0.00          4.63
   112.49         12.40       1292.99        967.23         -0.00         -3.83
   112.50         12.40       1297.00        970.16         -0.00          0.03
   112.51         12.40       1297.09        970.16          0.00         -0.02
   112.52         12.40       1296.59        969.74          0.00         -0.56
   112.53         12.39       1296.62        969.74          0.00          3.32
   112.54         12.39       1292.70        966.81          0.00         -4.53
   112.55         12.40       1296.61        969.74          0.00          3.30
   112.56         12.40       1292.67        966.81          0.00         -4.59
   112.57         12.40       1296.58        969.74          0.00          3.24
   112.58         12.40       1296.59        969.74          0.00         -0.67
   112.59         12.39       1296.62        969.74          0.00         -0.61
   112.60         12.39       1296.62        969.74         -0.00          0.02
   112.61         12.39       1292.73        966.81         -0.00         -3.77
   112.62         12.39       1296.69        969.74         -0.01          4.21
   112.63         12.39       1292.78        966.81         -0.01         -3.54
   112.64         12.39       1296.76        969.74         -0.01          0.48
   112.65         12.39       1296.81        969.74         -0.02          0.53
   112.66         12.39       1296.84        969.74         -0.01          0.52
   112.67         12.39       1296.87        969.74         -0.02         -0.03
   112.68         12.39       1292.96        966.81         -0.01         -3.97
   112.69         12.39       1296.90        969.74         -0.01          3.81
   112.70         12.39       1292.99        966.81         -0.01         -4.06
   112.71         12.39       1296.91        969.74         -0.01          3.69
   112.72         12.39       1296.87        969.74         -0.01         -0.38
   112.73         12.39       1296.81        969.74         -0.00         -0.51
   112.74         12.39       1296.76        969.74          0.00         -0.64
   112.75         12.39       1296.69        969.74          0.01         -0.74
   112.76         12.39       1296.66        969.74          0.01          3.13
   112.77         12.39       1292.72        966.81          0.01         -4.69
   112.78         12.40       1296.59        969.74          0.01          3.68
   112.79         12.40       1296.56        969.74          0.01         -0.27
   112.80         12.40       1297.08        970.16          0.01          0.30
   112.81         12.40       1297.05        970.16          0.01          0.29
   112.82         12.40       1297.05        970.16          0.01          0.30
   112.83         12.40       1297.05        970.16          0.01          4.27
   112.84         12.40       1293.16        967.23          0.00         -3.53
   112.85         12.40       1297.11        970.16          0.00          4.37
   112.86         12.40       1293.23        967.23          0.00         -3.38
   112.87         12.39       1297.79        970.58         -0.00          1.21
   112.88         12.39       1297.81        970.58         -0.00          5.16
   112.89         12.39       1297.84        970.58         -0.00          1.29
   112.90         12.39       1297.84        970.58         -0.01          5.24
   112.91         12.39       1293.29        967.23         -0.00         -3.75
   112.92         12.40       1297.17        970.16         -0.00          4.06
   112.93         12.40       1293.19        967.23         -0.00         -3.78
   112.94         12.40       1297.08        970.16         -0.00          0.15
   112.95         12.40       1297.06        970.16         -0.01          4.10
   112.96         12.40       1293.14        967.23         -0.01         -3.72
   112.97         12.40       1297.06        970.16         -0.01          4.10
   112.98         12.40       1292.57        966.81         -0.00         -4.31
   112.99         12.40       1296.50        969.74         -0.01         -0.38
   113.00         12.40       1292.60        966.81         -0.01         -4.22
   113.01         12.40       1296.55        969.74         -0.01         -0.23
