#Written by Robertson Geologging WinLogger V1.0/370
~VERSION INFORMATION
#------------------------------------------------------------------------------
 VERS. 2.0 : CWLS LOG ASCII STANDARD - VERSION 2.0
 WRAP. NO  : ONE LINE PER DEPTH STEP
~WELL INFORMATION
#MNEM.UNIT         DATA                                DESCRIPTION OF MNEMONIC
#------------------------------------------------------------------------------
 STRT.M         44.0600                            :   START DEPTH
 STOP.M        195.1500                            :   STOP DEPTH
 STEP.M          0.0100                            :   STEP VALUE
 NULL.        -999.2500                            :   NULL VALUE
 COMP.    WHITE YOUN GREEN                         :   COMPANY NAME
 WELL.    THRISINGTON SHAFT                        :   WELL NAME
 FLD.     THRISINGTON                              :   FIELD NAME
 LOC.     N/A                                      :   LOCATION
 PROV.    N/A                                      :   PROVINCE
 SRVC.    N/A                                      :   SERVICE COMPANY NAME
 DATE.    15 Dec 06                                :   DATE
 UWI.     N/A                                      :   UNIQUE WELL IDENTIFIER
~PARAMETER INFORMATION
#MNEMO.UNIT         VALUE                 DESCRIPTION OF MNEMONIC
#------------------------------------------------------------------------------
~OTHER INFORMATION SECTION
#------------------------------------------------------------------------------
 lLOGGING DOWN
~CURVE INFORMATION
#MNEMO.UNIT         API CODE              CURVE DESCRIPTION
#------------------------------------------------------------------------------
 DEPTH.M                                 :   0     Depth
 TEMP.DegC                               :   1     Temperature
 CN25.mS/cm                              :   2     Conductivity@25DegC
 COND.mS/cm                              :   3     Conductivity
 DELT.DegC                               :   4     Delta T
 DELC.mS/cm                              :   5     Delta C
 NGAM.CPS                                :   6     Natural Gamma
#------------------------------------------------------------------------------
~A  DEPTH     TEMP      CN25      COND      DELT      DELC      NGAM      
    44.06      0.00     15.89      0.00      0.00      0.00      0.00 
    44.07      0.00     15.89      0.00      0.00      0.00      0.00 
    44.08      0.00     15.89      0.00      0.00      0.00      0.00 
    44.09      0.00     15.89      0.00      0.00      0.00      0.00 
    44.10      0.00     15.89      0.00      0.00      0.00      0.00 
    44.11      0.00     15.89      0.00      0.00      0.00      0.00 
    44.12      0.00     15.89      0.00      0.00      0.00      0.00 
    44.13      0.00     15.89      0.00      0.00      0.00      0.00 
    44.14      0.00     15.89      0.00      0.00      0.00      0.00 
    44.15      0.00     15.89      0.00      0.00      0.00      0.00 
    44.16      0.00     15.89      0.00      0.00      0.00      0.00 
    44.17      0.00     15.89      0.00      0.00      0.00      0.00 
    44.18      0.00     15.89      0.00      0.00      0.00      0.00 
    44.19      0.00     15.89      0.00      0.00      0.00      0.00 
    44.20      0.00     15.89      0.00      0.00      0.00      0.00 
    44.21      0.00     15.89      0.00      0.00      0.00      0.00 
    44.22      0.00     15.89      0.00      0.00      0.00      0.00 
    44.23      0.00     15.89      0.00      0.00      0.00      0.00 
    44.24      0.00     15.89      0.00      0.00      0.00      0.00 
    44.25      0.00     15.89      0.00      0.00      0.00      0.00 
    44.26      0.00     15.89      0.00      0.00      0.00      0.00 
    44.27      0.00     15.89      0.00      0.00      0.00      0.00 
    44.28      0.00     15.89      0.00      0.00      0.00      0.00 
    44.29      0.00     15.89      0.00      0.00      0.00      0.00 
    44.30      0.00     15.89      0.00      0.00      0.00      0.00 
    44.31      0.00     15.89      0.00      0.00      0.00      0.00 
    44.32      0.00     15.89      0.00      0.00      0.00      0.00 
    44.33      0.00     15.89      0.00      0.00      0.00      0.00 
    44.34      0.00     15.89      0.00      0.00      0.00      0.00 
    44.35      0.00     15.89      0.00      0.00      0.00      0.00 
    44.36      0.00     15.89      0.00      0.00      0.00      0.00 
    44.37      0.00     15.89      0.00      0.00      0.00      0.00 
    44.38      0.00     15.89      0.00      0.00      0.00      0.00 
    44.39      0.00     15.89      0.00      0.00      0.00      0.00 
    44.40      0.00     15.89      0.00      0.00      0.00      0.00 
    44.41      0.00     15.89      0.00      0.00      0.00      0.00 
    44.42      0.00     15.89      0.00      0.00      0.00      0.00 
    44.43      0.00     15.89      0.00      0.00      0.00      0.00 
    44.44      0.00     15.89      0.00      0.00      0.00      0.00 
    44.45      0.00     15.89      0.00      0.00      0.00      0.00 
    44.46      0.00     15.89      0.00      0.00      0.00      0.00 
    44.47      0.00     15.89      0.00      0.00      0.00      0.00 
    44.48      0.00     15.89      0.00      0.00      0.00      0.00 
    44.49      0.00     15.89      0.00      0.00      0.00      0.00 
    44.50      0.00     15.89      0.00      0.00      0.00      0.00 
    44.51      0.00     15.89      0.00      0.00      0.00      0.00 
    44.52      0.00     15.89      0.00      0.00      0.00      0.00 
    44.53      0.00     15.89      0.00      0.00      0.00      0.00 
    44.54      0.00     15.89      0.00      0.00      0.00      0.00 
    44.55      0.00     15.89      0.00      0.00      0.00      0.00 
    44.56      0.00     15.89      0.00      0.00      0.00      0.00 
    44.57      0.00     15.89      0.00      0.00      0.00      0.00 
    44.58      0.00     15.89      0.00      0.00      0.00      0.00 
    44.59      0.00     15.89      0.00      0.00      0.00      0.00 
    44.60      0.00     15.89      0.00      0.00      0.00      0.00 
    44.61      0.00     15.89      0.00      0.00      0.00      0.00 
    44.62      0.00     15.89      0.00      0.00      0.00      0.00 
    44.63      0.00     15.89      0.00      0.00      0.00      0.00 
    44.64      0.00     15.89      0.00      0.00      0.00      0.00 
    44.65      0.00     15.89      0.00      0.00      0.00      0.00 
    44.66      0.00     15.89      0.00      0.00      0.00      0.00 
    44.67      0.00     15.89      0.00      0.00      0.00      0.00 
    44.68      0.00     15.89      0.00      0.00      0.00      0.00 
    44.69      0.00     15.89      0.00      0.00      0.00      0.00 
    44.70      0.00     15.89      0.00      0.00      0.00      0.00 
    44.71      0.00     15.89      0.00      0.00      0.00      0.00 
    44.72      0.00     15.89      0.00      0.00      0.00      0.00 
    44.73      0.00     15.89      0.00      0.00      0.00      0.00 
    44.74      0.00     15.89      0.00      0.00      0.00      0.00 
    44.75      0.00     15.89      0.00      0.00      0.00      0.00 
    44.76      0.00     15.89      0.00      0.00      0.00      0.00 
    44.77      0.00     15.89      0.00      0.00      0.00      0.00 
    44.78      0.00     15.89      0.00      0.00      0.00      0.00 
    44.79      0.00     15.89      0.00      0.00      0.00      0.00 
    44.80      0.00     15.89      0.00      0.00      0.00      0.00 
    44.81      0.00     15.89      0.00      0.00      0.00      0.00 
    44.82      0.00     15.89      0.00      0.00      0.00      0.00 
    44.83      0.00     15.89      0.00      0.00      0.00      0.00 
    44.84      0.00     15.89      0.00      0.00      0.00      0.00 
    44.85      0.00     15.89      0.00      0.00      0.00      0.00 
    44.86      0.00     15.89      0.00      0.00      0.00      0.00 
    44.87      0.00     15.89      0.00      0.00      0.00      0.00 
    44.88      0.00     15.89      0.00      0.00      0.00      0.00 
    44.89      0.00     15.89      0.00      0.00      0.00      0.00 
    44.90      0.00     15.89      0.00      0.00      0.00      0.00 
    44.91      0.00     15.89      0.00      0.00      0.00      0.00 
    44.92      0.00     15.89      0.00      0.00      0.00      0.00 
    44.93      0.00     15.89      0.00      0.00      0.00      0.00 
    44.94      0.00     15.89      0.00      0.00      0.00      0.00 
    44.95      0.00     15.89      0.00      0.00      0.00      0.00 
    44.96      0.00     15.89      0.00      0.00      0.00      0.00 
    44.97      0.00     15.89      0.00      0.00      0.00      0.00 
    44.98      0.00     15.89      0.00      0.00      0.00      0.00 
    44.99      0.00     15.89      0.00      0.00      0.00      0.00 
    45.00      0.00     15.89      0.00      0.00      0.00      0.00 
    45.01      0.00     15.89      0.00      0.00      0.00      0.00 
    45.02      0.00     15.89      0.00      0.00      0.00      0.00 
    45.03      0.00     15.89      0.00      0.00      0.00      0.00 
    45.04      0.00     15.89      0.00      0.00      0.00      0.00 
    45.05      0.00     15.89      0.00      0.00      0.00      0.00 
    45.06      0.00     15.89      0.00      0.00      0.00      0.00 
    45.07      0.00     15.89      0.00      0.00      0.00      0.00 
    45.08      0.00     15.89      0.00      0.00      0.00      0.00 
    45.09      0.00     15.89      0.00      0.00      0.00      0.00 
    45.10      0.00     15.89      0.00      0.00      0.00      0.00 
    45.11      0.00     15.89      0.00      0.00      0.00      0.00 
    45.12      0.00     15.89      0.00      0.00      0.00      0.00 
    45.13      0.00     15.89      0.00      0.00      0.00      0.00 
    45.14      0.00     15.89      0.00      0.00      0.00      0.00 
    45.15      0.00     15.89      0.00      0.00      0.00      0.00 
    45.16      0.00     15.89      0.00      0.00      0.00      0.00 
    45.17      0.00     15.89      0.00      0.00      0.00      0.00 
    45.18      0.00     15.89      0.00      0.00      0.00      0.00 
