#Written by Robertson Geologging WinLogger V1.0/406
~VERSION INFORMATION
#------------------------------------------------------------------------------
 VERS. 2.0 : CWLS LOG ASCII STANDARD - VERSION 2.0
 WRAP. NO  : ONE LINE PER DEPTH STEP
~WELL INFORMATION
#MNEM.UNIT         DATA                                DESCRIPTION OF MNEMONIC
#------------------------------------------------------------------------------
 STRT.M         44.9500                            :   START DEPTH
 STOP.M        194.0200                            :   STOP DEPTH
 STEP.M          0.0100                            :   STEP VALUE
 NULL.        -999.2500                            :   NULL VALUE
 COMP.    Coal Authority                           :   COMPANY NAME
 WELL.    Thrislington Shaft                       :   WELL NAME
 FLD.     Banks Yard                               :   FIELD NAME
 LOC.     N/A                                      :   LOCATION
 PROV.    N/A                                      :   PROVINCE
 SRVC.    N/A                                      :   SERVICE COMPANY NAME
 DATE.    19 May 08                                :   DATE
 UWI.     N/A                                      :   UNIQUE WELL IDENTIFIER
~PARAMETER INFORMATION
#MNEMO.UNIT         VALUE                 DESCRIPTION OF MNEMONIC
#------------------------------------------------------------------------------
~OTHER INFORMATION SECTION
#------------------------------------------------------------------------------
 TCDS 1365
~CURVE INFORMATION
#MNEMO.UNIT         API CODE              CURVE DESCRIPTION
#------------------------------------------------------------------------------
 DEPTH.M                                 :   0     Depth
 TEMP.DegC                               :   1     Temperature
 COND.uS/cm                              :   2     Absolute Conductivity
 COND.uS/cm                              :   3     Conductivity@25DegC
 DELT.DegC                               :   4     Delta T
 DELC.uS/cm                              :   5     Delta C
#------------------------------------------------------------------------------
~A  DEPTH     TEMP      COND      COND      DELT      DELC      
# ...
   104.35     12.62    933.19   1240.39      0.00      9.40 
   104.36     12.62    930.50   1236.81      0.00      5.97 
   104.37     12.62    933.19   1240.39     -0.00      3.74 
   104.38     12.63    933.19   1240.07      0.01     19.83 
   104.39     12.63    933.19   1240.07      0.00      9.39 
   104.40     12.63    939.48   1248.27      0.00     11.78 
   104.41     12.63    933.19   1240.07      0.00      9.55 
   104.42     12.62    933.19   1240.23     -0.01     10.03 
   104.43     12.63    930.50   1236.33      0.00      5.97 
   104.44     12.62    933.19   1240.39     -0.01     15.84 
   104.45     12.62    933.19   1240.39      0.00      9.55 
   104.46     12.61    930.50   1236.97     -0.01      6.29 
   104.47     12.61    933.19   1240.55     -0.01      3.90 
   104.48     12.63    933.19   1240.07      0.00      9.39 
   104.49     12.63    939.48   1248.27      0.00     17.91 
   104.50     12.64    933.19   1239.75      0.01      3.26 
   104.51     12.63    933.19   1239.91      0.01      9.24 
   104.52     12.63    933.19   1240.07      0.00      9.55 
   104.53     12.63    930.50   1236.49     -0.00     12.10 
   104.54     12.63    933.19   1240.07     -0.00      0.16 
   104.55     12.63    933.19   1240.07     -0.00      9.71 
   104.56     12.64    939.48   1248.11      0.01     23.56 
   104.57     12.64    933.19   1239.75      0.02     -0.64 
   104.58     12.63    933.19   1239.91      0.01      9.08 
   104.59     12.64    930.50   1236.17      0.02     11.31 
   104.60     12.64    933.19   1239.75      0.02     -0.80 
   104.61     12.64    940.38   1249.30      0.01     24.60 
   104.62     12.63    930.50   1236.49      0.01     -3.90 
   104.63     12.62    933.19   1240.39      0.00      9.55 
   104.64     12.61    933.19   1240.55     -0.02      4.22 
   104.65     12.62    933.19   1240.39     -0.01      9.87 
   104.66     12.62    939.48   1248.59     -0.01     12.42 
   104.67     12.63    933.19   1240.07     -0.00      9.71 
   104.68     12.64    933.19   1239.75      0.01      9.08 
   104.69     12.63    939.48   1248.43      0.01     11.62 
   104.70     12.63    933.19   1240.07      0.02      8.92 
   104.71     12.62    933.19   1240.23      0.00      3.42 
   104.72     12.62    930.50   1236.65      0.01     -3.90 
   104.73     12.62    940.38   1249.79     -0.00     19.27 
   104.74     12.63    933.19   1239.91      0.00      3.42 
   104.75     12.63    930.50   1236.33      0.01      5.65 
   104.76     12.63    933.19   1239.91      0.01     -0.32 
   104.77     12.63    939.48   1248.27      0.00     23.72 
   104.78     12.62    933.19   1240.23      0.00      0.00 
   104.79     12.62    933.19   1240.39     -0.00      3.74 
   104.80     12.62    939.48   1248.59      0.00     17.76 
   104.81     12.62    933.19   1240.23      0.01      3.27 
   104.82     12.63    939.48   1248.43      0.02     17.28 
   104.83     12.63    933.19   1240.07      0.02     -0.64 
   104.84     12.62    933.19   1240.39      0.00     15.37 
   104.85     12.62    930.50   1236.81      0.00      5.81 
   104.86     12.61    940.38   1250.11     -0.00     13.30 
   104.87     12.62    930.50   1236.81      0.00     -3.58 
   104.88     12.63    933.19   1239.91      0.00      3.58 
   104.89     12.63    940.38   1249.46      0.00     19.10 
   104.90     12.64    930.50   1236.01      0.01     -4.06 
   104.91     12.64    933.19   1239.60      0.02      2.95 
   104.92     12.63    940.38   1249.46      0.01     18.63 
   104.93     12.63    930.50   1236.49      0.00     -3.74 
   104.94     12.62    933.19   1240.23     -0.00      3.74 
   104.95     12.62    939.48   1248.59      0.00     17.91 
   104.96     12.62    933.19   1240.39      0.00      0.00 
   104.97     12.62    933.19   1240.39     -0.00      3.74 
   104.98     12.62    939.48   1248.59      0.00      8.20 
   104.99     12.62    933.19   1240.23      0.00      9.40 
   105.00     12.62    933.19   1240.23      0.01     -0.32 
   105.01     12.62    939.48   1248.59      0.00     11.78 
   105.02     12.63    933.19   1240.07      0.02     -0.64 
   105.03     12.63    933.19   1240.07      0.01      9.08 
   105.04     12.63    939.48   1248.27      0.01      8.04 
   105.05     12.64    933.19   1239.75      0.02      2.95 
   105.06     12.62    933.19   1240.23      0.00      0.00 
   105.07     12.63    939.48   1248.27      0.01      8.04 
   105.08     12.63    933.19   1239.91      0.01      3.26 
   105.09     12.62    940.38   1249.79     -0.00      9.71 
   105.10     12.63    930.50   1236.33      0.00      5.97 
   105.11     12.61    940.38   1250.11     -0.02      1.84 
   105.12     12.61    933.19   1240.55     -0.01      9.87 
   105.13     12.61    930.50   1236.97     -0.01    -11.46 
   105.14     12.62    940.38   1249.95     -0.01     19.43 
   105.15     12.63    933.19   1240.07     -0.00      0.16 
   105.16     12.63    939.48   1248.43     -0.01     12.42 
   105.17     12.63    933.19   1239.91      0.00      0.00 
   105.18     12.64    933.19   1239.75      0.01      3.26 
   105.19     12.64    939.48   1247.95      0.02      7.72 
   105.20     12.64    933.19   1239.60      0.02      2.79 
   105.21     12.63    940.38   1249.46      0.01      9.07 
   105.22     12.63    930.50   1236.49      0.01     -3.90 
   105.23     12.62    940.38   1249.79      0.01     12.82 
   105.24     12.62    933.19   1240.39      0.00     -0.16 
   105.25     12.62    933.19   1240.23      0.01     -8.68 
   105.26     12.63    939.48   1248.43      0.01     17.60 
   105.27     12.62    933.19   1240.39      0.00      0.00 
   105.28     12.62    940.38   1249.79      0.00      1.03 
   105.29     12.62    930.50   1236.65      0.00     -3.74 
   105.30     12.63    940.38   1249.63      0.01     12.82 
   105.31     12.63    933.19   1240.07      0.01     -0.32 
   105.32     12.63    940.38   1249.63      0.00     13.14 
   105.33     12.63    930.50   1236.33      0.01     -3.90 
   105.34     12.62    940.38   1249.79      0.00      9.40 
   105.35     12.64    933.19   1239.75      0.02      2.95 
   105.36     12.63    939.48   1248.43      0.01      8.04 
   105.37     12.63    933.19   1240.07      0.00      0.00 
   105.38     12.63    939.48   1248.27      0.00      8.20 
   105.39     12.62    933.19   1240.23     -0.01     -8.04 
   105.40     12.63    940.38   1249.46      0.00      9.39 
   105.41     12.62    930.50   1236.65      0.00     -3.58 
   105.42     12.62    940.38   1249.79     -0.01     13.45 
   105.43     12.62    939.48   1248.59      0.00      8.20 
   105.44     12.62    933.19   1240.39      0.00      0.00 
   105.45     12.62    939.48   1248.59      0.01     11.63 
   105.46     12.62    933.19   1240.23      0.01     -0.32 
   105.47     12.63    940.38   1249.63      0.00      9.55 
   105.48     12.63    930.50   1236.49     -0.00    -11.78 
   105.49     12.62    940.38   1249.95     -0.02     10.19 
   105.50     12.63    930.50   1236.33      0.00     -3.58 
   105.51     12.62    940.38   1249.79     -0.00      9.71 
   105.52     12.63    939.48   1248.43      0.00     11.94 
   105.53     12.64    933.19   1239.60      0.01     -0.48 
   105.54     12.65    940.38   1248.98      0.02      8.91 
   105.55     12.66    930.50   1235.54      0.02    -12.57 
   105.56     12.65    940.38   1248.98      0.01      9.23 
   105.57     12.65    933.19   1239.28      0.02     -0.64 
   105.58     12.65    939.48   1247.79      0.01     11.62 
   105.59     12.63    933.19   1239.91     -0.00      0.16 
   105.60     12.64    940.38   1249.30      0.00      0.00 
   105.61     12.64    939.48   1248.11      0.01     11.62 
   105.62     12.63    933.19   1240.07      0.01     -0.32 
   105.63     12.64    940.38   1249.30      0.02      8.76 
   105.64     12.64    930.50   1236.17      0.02     -4.22 
   105.65     12.63    940.38   1249.63      0.00      1.03 
   105.66     12.63    939.48   1248.27      0.00      8.20 
