#Written by Robertson Geologging WinLogger V1.5/410
~VERSION INFORMATION
#------------------------------------------------------------------------------
 VERS. 2.0 : CWLS LOG ASCII STANDARD - VERSION 2.0
 WRAP. NO  : ONE LINE PER DEPTH STEP
~WELL INFORMATION
#MNEM.UNIT         DATA                                DESCRIPTION OF MNEMONIC
#------------------------------------------------------------------------------
 STRT.M         25.0100                            :   START DEPTH
 STOP.M        192.0000                            :   STOP DEPTH
 STEP.M          0.0100                            :   STEP VALUE
 NULL.        -999.2500                            :   NULL VALUE
 COMP.    IWS                                      :   COMPANY NAME
 WELL.    Thristlington                            :   WELL NAME
 FLD.     N/A                                      :   FIELD NAME
 LOC.     N/A                                      :   LOCATION
 PROV.    N/A                                      :   PROVINCE
 SRVC.    N/A                                      :   SERVICE COMPANY NAME
 DATE.    01 Feb 11                                :   DATE
 UWI.     N/A                                      :   UNIQUE WELL IDENTIFIER
~PARAMETER INFORMATION
#MNEMO.UNIT         VALUE                 DESCRIPTION OF MNEMONIC
#------------------------------------------------------------------------------
~OTHER INFORMATION SECTION
#------------------------------------------------------------------------------
 1365
~CURVE INFORMATION
#MNEMO.UNIT         API CODE              CURVE DESCRIPTION
#------------------------------------------------------------------------------
 DEPTH.M                                 :   0     Depth
 TEMP.DegC                               :   1     Temperature
 CN25.uS/cm                              :   2     Conductivity@25DegC
 DELT.DegC                               :   3     Delta T
 DELC.uS/cm                              :   4     Delta C
#------------------------------------------------------------------------------
~A  DEPTH          TEMP          CN25          DELT          DELC
# ...
   147.01         12.17       1179.76         -0.00          0.61
   147.02         12.17       1177.55         -0.00         -3.28
   147.03         12.17       1179.83         -0.00         -0.98
   147.04         12.17       1177.56         -0.00          1.85
   147.05         12.17       1175.90         -0.01         -4.83
   147.06         12.17       1180.91         -0.01          1.89
   147.07         12.17       1179.21         -0.01          3.59
   147.08         12.17       1175.83         -0.01         -3.73
   147.09         12.18       1180.86         -0.00          1.27
   147.10         12.17       1179.21         -0.01          1.86
   147.11         12.17       1176.93         -0.00         -2.70
   147.12         12.17       1176.94         -0.00         -0.48
   147.13         12.17       1179.24         -0.00          3.47
   147.14         12.17       1177.01         -0.00         -2.14
   147.15         12.17       1177.08         -0.01         -2.05
   147.16         12.17       1181.04         -0.01          5.33
   147.17         12.17       1177.69         -0.01         -1.93
   147.18         12.17       1181.61         -0.01          1.97
   147.19         12.17       1181.56         -0.01          1.92
   147.20         12.17       1176.48         -0.01         -3.15
   147.21         12.17       1181.46         -0.00          3.54
   147.22         12.18       1179.73         -0.01          0.75
   147.23         12.18       1179.69         -0.01          2.48
   147.24         12.18       1179.63         -0.01          0.78
   147.25         12.18       1179.62         -0.01          4.17
   147.26         12.18       1179.59         -0.00          0.14
   147.27         12.18       1179.56         -0.00          0.04
   147.28         12.18       1179.56          0.00         -0.01
   147.29         12.18       1175.65          0.00         -3.96
   147.30         12.18       1179.07         -0.00          1.72
   147.31         12.18       1179.14         -0.00         -0.48
   147.32         12.17       1175.82         -0.00         -5.49
   147.33         12.17       1179.79         -0.00          3.48
   147.34         12.17       1179.82         -0.00          1.78
   147.35         12.17       1179.82         -0.00         -1.62
   147.36         12.17       1179.80          0.00          0.00
   147.37         12.17       1178.11         -0.00          0.58
   147.38         12.17       1175.89         -0.00         -3.90
   147.39         12.17       1178.17         -0.00          0.63
   147.40         12.17       1179.89         -0.00          2.37
   147.41         12.17       1178.76         -0.00         -1.01
   147.42         12.17       1180.41         -0.00          2.90
   147.43         12.17       1180.38         -0.00          0.62
   147.44         12.17       1180.38         -0.00         -1.04
   147.45         12.17       1180.38         -0.00         -1.04
   147.46         12.17       1176.46         -0.00          0.10
   147.47         12.17       1176.46         -0.00         -4.93
   147.48         12.17       1181.51         -0.00          1.82
   147.49         12.17       1179.80         -0.01          2.42
   147.50         12.17       1177.49         -0.01         -3.21
   147.51         12.18       1179.67         -0.00          0.71
   147.52         12.18       1177.36         -0.00          0.71
   147.53         12.18       1177.29         -0.00         -1.60
   147.54         12.18       1179.50         -0.00          2.89
   147.55         12.18       1177.24         -0.00          0.68
   147.56         12.18       1177.21         -0.00         -1.59
   147.57         12.18       1181.14         -0.00          0.66
   147.58         12.18       1181.15         -0.00          4.03
   147.59         12.18       1177.77         -0.00         -3.34
   147.60         12.18       1181.70          0.00          0.56
   147.61         12.18       1181.71          0.00          5.62
   147.62         12.18       1179.49          0.00          1.68
   147.63         12.18       1177.81          0.00         -3.42
   147.64         12.18       1181.25          0.00          3.93
   147.65         12.18       1179.04          0.00          1.69
   147.66         12.18       1177.36          0.00         -2.32
   147.67         12.18       1180.77          0.00          3.28
   147.68         12.18       1178.50          0.00          1.01
   147.69         12.18       1176.79          0.00         -2.96
   147.70         12.18       1176.79          0.00         -0.68
   147.71         12.18       1177.93          0.00          0.46
   147.72         12.18       1176.28          0.00         -5.15
   147.73         12.18       1176.27          0.00         -5.20
   147.74         12.18       1181.31          0.00          4.93
   147.75         12.18       1176.18          0.01         -5.25
   147.76         12.18       1176.12          0.01         -5.31
   147.77         12.18       1177.76          0.01          0.32
   147.78         12.18       1176.60          0.01         -0.78
   147.79         12.18       1176.60          0.01         -3.00
   147.80         12.18       1178.29          0.00          0.98
   147.81         12.18       1180.56          0.00          1.03
   147.82         12.19       1177.15          0.00         -2.37
   147.83         12.19       1178.80          0.00          3.24
   147.84         12.19       1181.05          0.00          2.14
   147.85         12.19       1177.69          0.00         -1.23
   147.86         12.18       1177.74          0.00          2.24
   147.87         12.18       1181.16         -0.00          3.44
   147.88         12.18       1181.22         -0.00          1.79
   147.89         12.18       1177.32         -0.00         -2.11
   147.90         12.18       1180.71         -0.01          1.30
   147.91         12.18       1179.04         -0.01         -0.38
   147.92         12.18       1176.77         -0.00         -2.67
   147.93         12.18       1176.79         -0.00         -2.67
   147.94         12.18       1179.02         -0.00         -0.49
   147.95         12.18       1176.79         -0.00          0.59
   147.96         12.18       1179.05          0.00         -2.25
   147.97         12.18       1180.71          0.00          1.03
   147.98         12.18       1177.33          0.00         -0.13
   147.99         12.18       1179.59          0.01         -0.17
   148.00         12.18       1181.31          0.00          1.55
   148.01         12.18       1176.27          0.00         -1.28
   148.02         12.18       1178.00          0.00         -1.83
   148.03         12.18       1180.26          0.00          2.70
   148.04         12.18       1180.28          0.00          4.38
   148.05         12.17       1180.31          0.00         -0.61
   148.06         12.18       1180.29          0.00          1.08
   148.07         12.17       1176.36          0.00          0.53
   148.08         12.17       1179.74         -0.00         -1.11
   148.09         12.17       1178.05          0.00         -1.16
   148.10         12.17       1175.80          0.00         -1.13
   148.11         12.18       1179.12          0.00          2.18
   148.12         12.18       1179.10          0.00         -0.14
   148.13         12.18       1179.05          0.01          2.04
   148.14         12.18       1179.02          0.01          1.94
   148.15         12.18       1179.01          0.01         -2.03
   148.16         12.18       1175.04          0.01         -2.65
   148.17         12.18       1178.39          0.01         -3.21
   148.18         12.18       1178.38          0.01         -3.19
   148.19         12.18       1175.00          0.01         -1.48
   148.20         12.18       1180.07          0.01         -1.40
   148.21         12.18       1178.38          0.01         -1.35
   148.22         12.18       1175.03          0.00         -4.66
