#Written by Robertson Geologging WinLogger V1.0/370
~VERSION INFORMATION
#------------------------------------------------------------------------------
 VERS. 2.0 : CWLS LOG ASCII STANDARD - VERSION 2.0
 WRAP. NO  : ONE LINE PER DEPTH STEP
~WELL INFORMATION
#MNEM.UNIT         DATA                                DESCRIPTION OF MNEMONIC
#------------------------------------------------------------------------------
 STRT.M         44.0600                            :   START DEPTH
 STOP.M        195.1500                            :   STOP DEPTH
 STEP.M          0.0100                            :   STEP VALUE
 NULL.        -999.2500                            :   NULL VALUE
 COMP.    WHITE YOUN GREEN                         :   COMPANY NAME
 WELL.    THRISINGTON SHAFT                        :   WELL NAME
 FLD.     THRISINGTON                              :   FIELD NAME
 LOC.     N/A                                      :   LOCATION
 PROV.    N/A                                      :   PROVINCE
 SRVC.    N/A                                      :   SERVICE COMPANY NAME
 DATE.    15 Dec 06                                :   DATE
 UWI.     N/A                                      :   UNIQUE WELL IDENTIFIER
~PARAMETER INFORMATION
#MNEMO.UNIT         VALUE                 DESCRIPTION OF MNEMONIC
#------------------------------------------------------------------------------
~OTHER INFORMATION SECTION
#------------------------------------------------------------------------------
 lLOGGING DOWN
~CURVE INFORMATION
#MNEMO.UNIT         API CODE              CURVE DESCRIPTION
#------------------------------------------------------------------------------
 DEPTH.M                                 :   0     Depth
 TEMP.DegC                               :   1     Temperature
 CN25.mS/cm                              :   2     Conductivity@25DegC
 COND.mS/cm                              :   3     Conductivity
 DELT.DegC                               :   4     Delta T
 DELC.mS/cm                              :   5     Delta C
 NGAM.CPS                                :   6     Natural Gamma
#------------------------------------------------------------------------------
~A  DEPTH     TEMP      CN25      COND      DELT      DELC      NGAM      
# ...
   163.84     12.64      7.81      1.61     -0.00     -0.00      0.00 
   163.85     12.64      7.81      1.61     -0.00      0.00      0.00 
   163.86     12.64      7.80      1.60     -0.00     -0.00      0.00 
   163.87     12.64      7.80      1.60     -0.00     -0.00      0.00 
   163.88     12.64      7.80      1.60     -0.00      0.00      0.00 
   163.89     12.64      7.81      1.61     -0.00      0.00      0.41 
   163.90     12.64      7.80      1.60     -0.00      0.00      0.82 
   163.91     12.64      7.81      1.61     -0.01      0.01      0.82 
   163.92     12.64      7.80      1.60     -0.01      0.00      0.82 
   163.93     12.64      7.81      1.61     -0.01      0.01      0.82 
   163.94     12.64      7.81      1.60     -0.01      0.01      0.82 
   163.95     12.64      7.81      1.61     -0.02      0.02      0.82 
   163.96     12.64      7.81      1.61     -0.02      0.02      0.82 
   163.97     12.64      7.81      1.61     -0.02      0.02      0.82 
   163.98     12.64      7.81      1.61     -0.02      0.02      0.82 
   163.99     12.64      7.81      1.61     -0.01      0.02      0.82 
   164.00     12.64      7.81      1.61     -0.01      0.02      0.82 
   164.01     12.64      7.81      1.61     -0.02      0.01      0.82 
   164.02     12.64      7.81      1.61     -0.02      0.02      0.82 
   164.03     12.64      7.81      1.61     -0.01      0.02      0.82 
   164.04     12.64      7.81      1.61     -0.01      0.01      0.82 
   164.05     12.64      7.81      1.61     -0.01      0.01      0.82 
   164.06     12.65      7.80      1.61     -0.01      0.01      0.41 
   164.07     12.65      7.80      1.61     -0.00      0.00      0.00 
   164.08     12.65      7.80      1.61     -0.00      0.01      0.00 
   164.09     12.65      7.80      1.61     -0.00      0.00      0.00 
   164.10     12.65      7.80      1.61     -0.00      0.00      0.00 
   164.11     12.65      7.80      1.61      0.00     -0.00      0.00 
   164.12     12.65      7.80      1.61      0.00      0.00      0.00 
   164.13     12.65      7.80      1.61      0.00     -0.00      0.00 
   164.14     12.64      7.80      1.61      0.00     -0.00      0.00 
   164.15     12.64      7.81      1.61      0.00     -0.00      0.00 
   164.16     12.64      7.81      1.61      0.00     -0.00      0.00 
   164.17     12.64      7.81      1.61     -0.00     -0.00      0.00 
   164.18     12.64      7.81      1.61     -0.00     -0.00      0.00 
   164.19     12.64      7.81      1.61     -0.00      0.00      0.00 
   164.20     12.63      7.82      1.61     -0.01      0.01      0.00 
   164.21     12.63      7.82      1.61     -0.01      0.00      0.00 
   164.22     12.63      7.82      1.61     -0.01      0.01      0.00 
   164.23     12.63      7.82      1.61     -0.01      0.01      0.00 
   164.24     12.63      7.82      1.61     -0.01      0.01      0.00 
   164.25     12.63      7.82      1.61     -0.01      0.01      0.00 
   164.26     12.63      7.82      1.61     -0.01      0.01      0.00 
   164.27     12.63      7.82      1.61     -0.01      0.01      0.00 
   164.28     12.63      7.81      1.61     -0.01      0.01      0.00 
   164.29     12.63      7.81      1.61     -0.01      0.01      0.00 
   164.30     12.63      7.81      1.61     -0.01      0.00      0.00 
   164.31     12.64      7.81      1.60     -0.01      0.00      0.00 
   164.32     12.64      7.81      1.61     -0.00      0.00      0.00 
   164.33     12.64      7.80      1.60     -0.00     -0.00      0.00 
   164.34     12.64      7.81      1.61     -0.00     -0.00      0.00 
   164.35     12.64      7.80      1.60     -0.00     -0.00      0.00 
   164.36     12.64      7.80      1.60      0.00     -0.00      0.00 
   164.37     12.64      7.80      1.60      0.00     -0.00      0.00 
   164.38     12.64      7.80      1.60      0.00     -0.01      0.00 
   164.39     12.65      7.80      1.61      0.00     -0.00      0.00 
   164.40     12.65      7.80      1.61      0.01     -0.01      0.00 
   164.41     12.65      7.80      1.61      0.01     -0.01      0.00 
   164.42     12.65      7.80      1.61      0.01     -0.01      0.00 
   164.43     12.65      7.80      1.60      0.01     -0.01      0.00 
   164.44     12.65      7.80      1.61      0.01     -0.01      0.00 
   164.45     12.65      7.80      1.61      0.00     -0.01      0.41 
   164.46     12.65      7.80      1.61      0.00     -0.00      0.41 
   164.47     12.65      7.80      1.61      0.00     -0.00      0.41 
   164.48     12.65      7.80      1.60      0.00     -0.01      0.41 
   164.49     12.65      7.80      1.60      0.00     -0.00      0.41 
   164.50     12.64      7.80      1.60      0.00     -0.01      0.41 
   164.51     12.64      7.80      1.60     -0.00      0.00      0.41 
   164.52     12.64      7.80      1.60     -0.00     -0.00      0.41 
   164.53     12.64      7.81      1.60     -0.00     -0.00      0.41 
   164.54     12.64      7.81      1.60     -0.00     -0.00      0.41 
   164.55     12.64      7.81      1.60     -0.00     -0.00      0.41 
   164.56     12.63      7.81      1.61     -0.00      0.00      0.41 
   164.57     12.63      7.81      1.60     -0.00      0.00      0.41 
   164.58     12.63      7.81      1.61     -0.00      0.00      0.41 
   164.59     12.63      7.81      1.61     -0.00      0.00      0.41 
   164.60     12.63      7.82      1.61     -0.00      0.00      0.41 
   164.61     12.64      7.81      1.61     -0.00      0.01      0.41 
   164.62     12.64      7.81      1.61     -0.00     -0.00      0.00 
   164.63     12.64      7.81      1.61      0.00      0.00      0.00 
   164.64     12.64      7.81      1.61      0.00     -0.00      0.00 
   164.65     12.64      7.81      1.61      0.00      0.00      0.00 
   164.66     12.65      7.80      1.61      0.00     -0.00      0.00 
   164.67     12.65      7.80      1.61      0.00     -0.00      0.00 
   164.68     12.65      7.80      1.61      0.00     -0.00      0.00 
   164.69     12.65      7.80      1.61      0.00     -0.00      0.00 
   164.70     12.65      7.80      1.61      0.00     -0.00      0.00 
   164.71     12.65      7.80      1.61      0.00     -0.00      0.00 
   164.72     12.64      7.81      1.61      0.00     -0.00      0.47 
   164.73     12.64      7.81      1.61      0.00      0.00      0.47 
   164.74     12.64      7.80      1.61      0.00     -0.01      0.47 
   164.75     12.64      7.81      1.61      0.00     -0.00      0.94 
   164.76     12.64      7.81      1.61      0.00     -0.00      0.94 
   164.77     12.64      7.81      1.61      0.00      0.00      0.94 
   164.78     12.64      7.81      1.61      0.00     -0.00      0.94 
   164.79     12.64      7.81      1.61     -0.00      0.00      0.94 
   164.80     12.64      7.81      1.61     -0.00      0.00      0.94 
   164.81     12.64      7.81      1.61     -0.00      0.00      0.94 
   164.82     12.64      7.81      1.61     -0.00      0.00      0.94 
   164.83     12.64      7.81      1.61     -0.00     -0.00      0.94 
   164.84     12.64      7.81      1.61      0.00     -0.00      0.94 
   164.85     12.64      7.81      1.61     -0.00      0.00      0.94 
   164.86     12.64      7.80      1.61     -0.00      0.00      0.94 
   164.87     12.64      7.81      1.61     -0.00      0.01      0.94 
   164.88     12.64      7.81      1.61     -0.00     -0.00      0.94 
   164.89     12.64      7.81      1.61     -0.00      0.00      0.47 
   164.90     12.64      7.81      1.61     -0.00      0.00      0.47 
   164.91     12.64      7.81      1.61     -0.00      0.00      0.47 
   164.92     12.64      7.81      1.61     -0.00      0.00      0.41 
   164.93     12.64      7.81      1.61      0.00     -0.00      0.41 
   164.94     12.64      7.81      1.61      0.00     -0.00      0.41 
   164.95     12.64      7.81      1.61      0.00      0.00      0.41 
   164.96     12.64      7.81      1.61      0.00     -0.00      0.41 
