#Written by Robertson Geologging WinLogger V1.5/410
~VERSION INFORMATION
#------------------------------------------------------------------------------
 VERS. 2.0 : CWLS LOG ASCII STANDARD - VERSION 2.0
 WRAP. NO  : ONE LINE PER DEPTH STEP
~WELL INFORMATION
#MNEM.UNIT         DATA                                DESCRIPTION OF MNEMONIC
#------------------------------------------------------------------------------
 STRT.M         40.0200                            :   START DEPTH
 STOP.M        195.6300                            :   STOP DEPTH
 STEP.M          0.0100                            :   STEP VALUE
 NULL.        -999.2500                            :   NULL VALUE
 COMP.    IWS                                      :   COMPANY NAME
 WELL.    THRISLINGTON                             :   WELL NAME
 FLD.     DURHAM                                   :   FIELD NAME
 LOC.     N/A                                      :   LOCATION
 PROV.    N/A                                      :   PROVINCE
 SRVC.    N/A                                      :   SERVICE COMPANY NAME
 DATE.    16 Dec 09                                :   DATE
 UWI.     N/A                                      :   UNIQUE WELL IDENTIFIER
~PARAMETER INFORMATION
#MNEMO.UNIT         VALUE                 DESCRIPTION OF MNEMONIC
#------------------------------------------------------------------------------
~OTHER INFORMATION SECTION
#------------------------------------------------------------------------------
 TCDS 1365
~CURVE INFORMATION
#MNEMO.UNIT         API CODE              CURVE DESCRIPTION
#------------------------------------------------------------------------------
 DEPTH.M                                 :   0     Depth
 TEMP.DegC                               :   1     Temperature
 COND.uS/cm                              :   2     Conductivity@25DegC
 COND.uS/cm                              :   3     Absolute Conductivity
 DELT.DegC                               :   4     Delta T
 DELC.uS/cm                              :   5     Delta C
#------------------------------------------------------------------------------
~A  DEPTH          TEMP          COND          COND          DELT          DELC
# ...
    50.02         11.12        616.81        445.55         -0.01          0.16
    50.03         11.12        617.39        445.97         -0.01          0.74
    50.04         11.12        622.02        449.32         -0.01          0.73
    50.05         11.12        617.96        446.39         -0.01          0.13
    50.06         11.12        617.94        446.39         -0.00          0.65
    50.07         11.12        622.00        449.32         -0.01          4.73
    50.08         11.12        622.02        449.32         -0.01          0.17
    50.09         11.12        616.83        445.55         -0.01         -0.37
    50.10         11.12        617.41        445.97         -0.01          0.24
    50.11         11.12        617.40        445.97         -0.01         -3.27
    50.12         11.12        617.35        445.97         -0.01          0.10
    50.13         11.12        617.29        445.97          0.00         -0.01
    50.14         11.12        617.26        445.97          0.00         -0.06
    50.15         11.13        617.22        445.97          0.01         -0.11
    50.16         11.13        617.22        445.97          0.01         -3.63
    50.17         11.13        617.22        445.97          0.01         -0.16
    50.18         11.13        616.64        445.55          0.01         -0.21
    50.19         11.13        617.21        445.97          0.02         -0.27
    50.20         11.13        621.83        449.32          0.02         -0.31
    50.21         11.13        617.78        446.39          0.02         -0.30
    50.22         11.13        617.79        446.39          0.02         -0.27
    50.23         11.13        621.87        449.32          0.01          0.39
    50.24         11.12        621.92        449.32          0.01         -0.10
    50.25         11.12        616.73        445.55          0.00         -0.05
    50.26         11.12        617.33        445.97          0.00         -0.02
    50.27         11.12        620.80        448.48          0.00          3.48
    50.28         11.12        617.31        445.97         -0.00          0.03
    50.29         11.12        617.32        445.97         -0.01          0.09
    50.30         11.12        617.32        445.97         -0.01          0.71
    50.31         11.12        617.31        445.97         -0.01          0.16
    50.32         11.12        617.29        445.97         -0.01         -3.32
    50.33         11.13        617.25        445.97         -0.01          0.13
    50.34         11.13        616.64        445.55         -0.01         -0.48
    50.35         11.13        617.19        445.97         -0.00          0.07
    50.36         11.13        621.83        449.32         -0.00          0.08
    50.37         11.13        617.77        446.39         -0.00          0.08
    50.38         11.13        617.79        446.39         -0.01          0.11
    50.39         11.13        621.89        449.32         -0.01          0.71
    50.40         11.13        617.25        445.97         -0.01         -4.51
    50.41         11.13        617.25        445.97         -0.01         -1.05
    50.42         11.12        617.26        445.97         -0.01         -0.48
    50.43         11.12        621.32        448.90         -0.00          3.54
    50.44         11.12        616.70        445.55         -0.00         -1.09
    50.45         11.12        617.31        445.97         -0.00         -0.52
    50.46         11.12        616.75        445.55         -0.00         -1.11
    50.47         11.12        617.31        445.97         -0.00         -0.56
    50.48         11.12        616.16        445.13          0.00         -1.75
    50.49         11.12        616.13        445.13          0.00         -1.80
    50.50         11.12        616.11        445.13          0.01         -1.85
    50.51         11.12        620.75        448.48          0.01          2.75
    50.52         11.12        616.70        445.55          0.01         -4.78
    50.53         11.12        617.28        445.97          0.01         -0.72
    50.54         11.12        616.71        445.55          0.01         -1.28
    50.55         11.12        621.33        448.90          0.01         -0.68
    50.56         11.13        617.24        445.97          0.01         -0.09
    50.57         11.13        617.22        445.97          0.01         -0.10
    50.58         11.13        617.19        445.97          0.01         -0.10
    50.59         11.13        621.80        449.32          0.01          1.05
    50.60         11.13        618.31        446.81          0.01          1.06
    50.61         11.13        617.71        446.39          0.00          0.50
    50.62         11.13        617.68        446.39          0.00          0.52
    50.63         11.14        617.66        446.39          0.00          0.51
    50.64         11.14        617.07        445.97          0.00         -0.08
    50.65         11.14        617.62        446.39          0.01          0.44
    50.66         11.14        617.61        446.39          0.01          0.36
    50.67         11.14        617.62        446.39          0.02         -4.32
    50.68         11.14        617.62        446.39          0.02         -0.30
    50.69         11.14        617.65        446.39          0.02         -0.27
    50.70         11.13        617.67        446.39          0.01         -0.83
    50.71         11.13        621.15        448.90          0.01         -0.80
    50.72         11.14        617.66        446.39          0.01         -0.80
    50.73         11.14        617.65        446.39          0.01         -0.25
    50.74         11.14        621.70        449.32          0.01          3.23
    50.75         11.14        621.68        449.32          0.02         -0.26
    50.76         11.14        616.49        445.55          0.01         -0.78
    50.77         11.13        617.11        445.97          0.01         -0.11
    50.78         11.13        620.62        448.48          0.00          3.45
    50.79         11.13        617.17        445.97         -0.00         -4.02
    50.80         11.13        616.60        445.55         -0.00          0.02
    50.81         11.13        616.61        445.55         -0.00          0.02
    50.82         11.13        617.20        445.97         -0.00          0.59
    50.83         11.13        620.71        448.48         -0.00          4.10
    50.84         11.13        617.25        445.97         -0.00          0.65
    50.85         11.12        616.68        445.55         -0.01          0.67
    50.86         11.12        617.28        445.97         -0.01          0.68
    50.87         11.12        621.90        449.32         -0.00          0.62
    50.88         11.13        617.83        446.39          0.00          0.58
    50.89         11.13        617.80        446.39          0.00          0.51
    50.90         11.13        621.26        448.90          0.01          3.95
    50.91         11.13        617.77        446.39          0.01         -4.16
    50.92         11.13        617.77        446.39          0.01          1.02
    50.93         11.13        617.78        446.39          0.01          0.45
    50.94         11.13        617.79        446.39          0.01         -3.05
    50.95         11.13        617.80        446.39          0.01          0.43
    50.96         11.13        617.79        446.39          0.01          0.43
    50.97         11.13        617.79        446.39          0.01          0.43
    50.98         11.13        617.79        446.39          0.01          0.46
    50.99         11.13        621.27        448.90          0.01          0.45
    51.00         11.13        617.81        446.39          0.01          0.44
    51.01         11.13        617.82        446.39          0.01          1.02
