#Written by Robertson Geologging WinLogger V1.5/410
~VERSION INFORMATION
#------------------------------------------------------------------------------
 VERS. 2.0 : CWLS LOG ASCII STANDARD - VERSION 2.0
 WRAP. NO  : ONE LINE PER DEPTH STEP
~WELL INFORMATION
#MNEM.UNIT         DATA                                DESCRIPTION OF MNEMONIC
#------------------------------------------------------------------------------
 STRT.M        191.7300                            :   START DEPTH
 STOP.M         42.4500                            :   STOP DEPTH
 STEP.M         -0.0100                            :   STEP VALUE
 NULL.        -999.2500                            :   NULL VALUE
 COMP.    I.W.S.                                   :   COMPANY NAME
 WELL.    THRISLINGTON                             :   WELL NAME
 FLD.     N/A                                      :   FIELD NAME
 LOC.     N/A                                      :   LOCATION
 PROV.    N/A                                      :   PROVINCE
 SRVC.    N/A                                      :   SERVICE COMPANY NAME
 DATE.    14 Nov 11                                :   DATE
 UWI.     N/A                                      :   UNIQUE WELL IDENTIFIER
~PARAMETER INFORMATION
#MNEMO.UNIT         VALUE                 DESCRIPTION OF MNEMONIC
#------------------------------------------------------------------------------
~OTHER INFORMATION SECTION
#------------------------------------------------------------------------------
 1365 LOW
~CURVE INFORMATION
#MNEMO.UNIT         API CODE              CURVE DESCRIPTION
#------------------------------------------------------------------------------
 DEPTH.M                                 :   0     Depth
 TEMP.DegC                               :   1     Temperature
 COND.uS/cm                              :   2     Conductivity
 DELT.DegC                               :   3     Delta T
 DELC.uS/cm                              :   4     Delta C
 NGAM.CPS                                :   5     Natural Gamma
#------------------------------------------------------------------------------
~A  DEPTH          TEMP          COND          DELT          DELC          NGAM
# ...
   171.73         12.40        921.57          0.00          0.00          0.00
   171.72         12.40        921.57          0.00         -0.42          0.00
   171.71         12.40        921.57          0.00          0.00          0.00
   171.70         12.40        921.57          0.00          0.00          0.00
   171.69         12.40        921.57          0.00         -0.42          0.00
   171.68         12.40        921.99         -0.00          0.42          0.00
   171.67         12.40        921.57         -0.00          0.00          0.00
   171.66         12.40        921.57         -0.00          0.00          0.00
   171.65         12.40        921.57          0.00          2.09          0.00
   171.64         12.40        921.57          0.00          0.00          0.50
   171.63         12.40        919.06          0.00         -2.51          0.50
   171.62         12.40        921.57          0.00         -0.42          0.50
   171.61         12.40        921.99          0.00          0.42          0.50
   171.60         12.40        921.57          0.01          0.00          0.50
   171.59         12.40        921.99          0.01          0.00          0.50
   171.58         12.40        921.99          0.01          0.42          0.50
   171.57         12.40        921.57          0.01          0.00          0.50
   171.56         12.40        921.57          0.01          2.09          0.50
   171.55         12.40        921.99          0.01          2.51          0.50
   171.54         12.40        921.99          0.01          0.42          0.50
   171.53         12.40        919.06          0.01         -2.51          1.50
   171.52         12.40        921.99          0.01          0.00          1.50
   171.51         12.40        921.99          0.01          0.42          1.50
   171.50         12.40        921.57          0.01          0.00          1.50
   171.49         12.40        921.57          0.01          0.00          1.50
   171.48         12.40        921.57          0.01          0.00          1.50
   171.47         12.40        921.57          0.01          0.00          1.00
   171.46         12.40        921.57          0.00          0.00          1.00
   171.45         12.40        921.57         -0.00          0.00          1.00
   171.44         12.40        921.57         -0.00          0.00          1.00
   171.43         12.39        921.57         -0.01          0.00          1.00
   171.42         12.39        921.57         -0.01         -0.42          1.00
   171.41         12.39        921.57         -0.01          0.00          1.00
   171.40         12.40        921.57         -0.01          0.00          1.00
   171.39         12.40        921.57         -0.01          0.00          1.00
   171.38         12.40        921.57         -0.01         -0.42          1.00
   171.37         12.40        921.57         -0.01          0.00          1.00
   171.36         12.40        921.57         -0.01          0.00          0.00
   171.35         12.40        921.57         -0.00          0.00          0.00
   171.34         12.40        921.57         -0.00          0.00          0.00
   171.33         12.40        921.57         -0.00          0.00          0.00
   171.32         12.40        919.06         -0.00         -2.51          0.00
   171.31         12.40        921.57         -0.00          0.42          0.00
   171.30         12.40        921.15         -0.01         -0.42          0.50
   171.29         12.40        921.15         -0.01         -0.42          0.50
   171.28         12.40        921.57         -0.00          0.00          0.50
   171.27         12.40        921.57         -0.00          0.00          0.50
   171.26         12.40        921.15         -0.00         -0.42          0.50
   171.25         12.40        921.15         -0.00         -0.42          0.50
   171.24         12.40        921.57         -0.00          0.00          0.50
   171.23         12.40        921.57         -0.00          0.00          0.50
   171.22         12.40        921.15         -0.00         -0.42          0.50
   171.21         12.40        923.67          0.00          2.09          0.50
   171.20         12.40        921.15          0.00         -0.42          0.50
   171.19         12.40        921.57          0.00          0.00          0.50
   171.18         12.39        921.57          0.00          0.00          0.50
   171.17         12.39        921.15          0.00         -0.42          0.50
   171.16         12.39        921.15          0.00          0.00          0.50
   171.15         12.40        921.57          0.00          0.00          0.50
   171.14         12.40        921.57          0.00          0.00          0.50
   171.13         12.40        921.15         -0.00          2.09          0.00
   171.12         12.40        921.15         -0.00         -0.42          0.50
   171.11         12.40        921.15         -0.01         -0.42          0.50
   171.10         12.40        921.57         -0.01          0.00          0.50
   171.09         12.40        921.57         -0.00          0.00          0.50
   171.08         12.40        921.15         -0.00         -0.42          0.50
   171.07         12.40        921.15         -0.00         -0.42          0.50
   171.06         12.40        921.57         -0.00          0.00          0.50
   171.05         12.40        921.57         -0.00         -0.42          1.00
   171.04         12.40        921.15         -0.00         -0.42          1.00
   171.03         12.40        921.15          0.00         -0.42          1.00
   171.02         12.40        921.57          0.00          0.00          1.00
   171.01         12.40        921.57          0.00          0.00          1.00
   171.00         12.40        921.57          0.00          0.00          1.00
   170.99         12.40        921.15          0.00         -0.42          1.00
   170.98         12.40        921.57          0.00         -0.42          1.00
   170.97         12.40        921.57          0.00         -0.00          1.00
   170.96         12.40        921.57          0.00         -0.00          1.00
   170.95         12.40        921.15          0.00         -0.42          0.50
   170.94         12.40        921.57          0.00         -0.00          0.50
   170.93         12.40        921.57         -0.00         -0.00          0.50
   170.92         12.40        921.57         -0.00          2.51          0.50
   170.91         12.40        921.57         -0.01         -0.00          0.50
   170.90         12.40        921.57         -0.01         -0.00          0.50
   170.89         12.40        921.57         -0.00         -0.00          0.50
   170.88         12.40        921.57         -0.01         -0.00          0.00
   170.87         12.40        921.57         -0.01         -0.00          0.00
   170.86         12.40        921.57         -0.01         -0.00          0.00
   170.85         12.40        921.57         -0.01         -0.00          0.00
   170.84         12.40        921.57         -0.01         -0.00          0.00
   170.83         12.40        921.57         -0.01         -0.00          0.00
   170.82         12.40        921.57         -0.01          2.51          0.00
   170.81         12.40        921.57         -0.01         -0.00          0.00
   170.80         12.40        921.57         -0.01         -0.00          0.00
   170.79         12.40        921.57         -0.01          0.42          0.00
   170.78         12.39        921.57         -0.01         -0.00          0.42
   170.77         12.39        921.57         -0.00         -0.00          0.42
   170.76         12.39        921.57         -0.00          0.42          0.42
   170.75         12.39        921.57          0.00         -0.00          0.42
   170.74         12.40        921.57          0.00         -0.00          0.42
