#Written by Robertson Geologging WinLogger V1.0/370
~VERSION INFORMATION
#------------------------------------------------------------------------------
 VERS. 2.0 : CWLS LOG ASCII STANDARD - VERSION 2.0
 WRAP. NO  : ONE LINE PER DEPTH STEP
~WELL INFORMATION
#MNEM.UNIT         DATA                                DESCRIPTION OF MNEMONIC
#------------------------------------------------------------------------------
 STRT.M         44.0600                            :   START DEPTH
 STOP.M        195.1500                            :   STOP DEPTH
 STEP.M          0.0100                            :   STEP VALUE
 NULL.        -999.2500                            :   NULL VALUE
 COMP.    WHITE YOUN GREEN                         :   COMPANY NAME
 WELL.    THRISINGTON SHAFT                        :   WELL NAME
 FLD.     THRISINGTON                              :   FIELD NAME
 LOC.     N/A                                      :   LOCATION
 PROV.    N/A                                      :   PROVINCE
 SRVC.    N/A                                      :   SERVICE COMPANY NAME
 DATE.    15 Dec 06                                :   DATE
 UWI.     N/A                                      :   UNIQUE WELL IDENTIFIER
~PARAMETER INFORMATION
#MNEMO.UNIT         VALUE                 DESCRIPTION OF MNEMONIC
#------------------------------------------------------------------------------
~OTHER INFORMATION SECTION
#------------------------------------------------------------------------------
 lLOGGING DOWN
~CURVE INFORMATION
#MNEMO.UNIT         API CODE              CURVE DESCRIPTION
#------------------------------------------------------------------------------
 DEPTH.M                                 :   0     Depth
 TEMP.DegC                               :   1     Temperature
 CN25.mS/cm                              :   2     Conductivity@25DegC
 COND.mS/cm                              :   3     Conductivity
 DELT.DegC                               :   4     Delta T
 DELC.mS/cm                              :   5     Delta C
 NGAM.CPS                                :   6     Natural Gamma
#------------------------------------------------------------------------------
~A  DEPTH     TEMP      CN25      COND      DELT      DELC      NGAM      
# ...
    93.78     12.04      7.88      1.20      0.00      0.00      0.00 
    93.79     12.04      7.88      1.20      0.00      0.00      0.00 
    93.80     12.04      7.88      1.20      0.00     -0.00      0.00 
    93.81     12.04      7.88      1.20      0.00     -0.00      0.00 
    93.82     12.04      7.88      1.20      0.00     -0.00      0.00 
    93.83     12.04      7.88      1.20      0.00     -0.00      0.00 
    93.84     12.04      7.88      1.20      0.01     -0.00      0.00 
    93.85     12.04      7.88      1.20      0.01     -0.01      0.00 
    93.86     12.04      7.88      1.20      0.01     -0.01      0.00 
    93.87     12.04      7.88      1.20      0.01     -0.01      0.00 
    93.88     12.05      7.88      1.20      0.02     -0.01      0.00 
    93.89     12.05      7.88      1.20      0.02     -0.02      0.00 
    93.90     12.05      7.88      1.20      0.02     -0.02      0.00 
    93.91     12.05      7.88      1.20      0.02     -0.01      0.00 
    93.92     12.04      7.88      1.20      0.02     -0.02      0.00 
    93.93     12.04      7.88      1.20      0.02     -0.02      0.00 
    93.94     12.04      7.89      1.20      0.02     -0.01      0.00 
    93.95     12.04      7.89      1.20      0.01     -0.01      0.00 
    93.96     12.04      7.88      1.20      0.01     -0.01      0.00 
    93.97     12.04      7.88      1.20      0.01     -0.01      0.00 
    93.98     12.04      7.88      1.20      0.01     -0.01      0.00 
    93.99     12.04      7.88      1.20      0.01     -0.01      0.00 
    94.00     12.04      7.89      1.20      0.01     -0.01      0.00 
    94.01     12.04      7.89      1.20      0.01     -0.01      0.00 
    94.02     12.04      7.88      1.20      0.00     -0.01      0.00 
    94.03     12.04      7.88      1.20      0.00     -0.01      0.00 
    94.04     12.04      7.89      1.20      0.00     -0.00      0.00 
    94.05     12.04      7.88      1.20      0.00     -0.00      0.00 
    94.06     12.04      7.88      1.20      0.00     -0.01      0.00 
    94.07     12.04      7.88      1.20      0.00     -0.00      0.00 
    94.08     12.04      7.89      1.20      0.00      0.00      0.00 
    94.09     12.04      7.89      1.20     -0.00      0.00      0.00 
    94.10     12.04      7.89      1.20     -0.01      0.01      0.00 
    94.11     12.04      7.89      1.20     -0.01      0.01      0.00 
    94.12     12.03      7.89      1.20     -0.01      0.01      0.00 
    94.13     12.03      7.89      1.20     -0.01      0.01      0.00 
    94.14     12.03      7.89      1.20     -0.01      0.01      0.00 
    94.15     12.03      7.89      1.20     -0.01      0.01      0.00 
    94.16     12.03      7.89      1.20     -0.01      0.01      0.00 
    94.17     12.04      7.89      1.20     -0.01      0.01      0.00 
    94.18     12.04      7.89      1.20     -0.01      0.01      0.00 
    94.19     12.04      7.88      1.20     -0.00      0.00      0.00 
    94.20     12.04      7.88      1.20     -0.00     -0.00      0.00 
    94.21     12.04      7.88      1.20      0.00     -0.00      0.00 
    94.22     12.04      7.88      1.20      0.00     -0.00      0.00 
    94.23     12.04      7.88      1.20      0.01     -0.01      0.00 
    94.24     12.04      7.88      1.20      0.01     -0.01      0.00 
    94.25     12.05      7.88      1.20      0.01     -0.01      0.00 
    94.26     12.05      7.88      1.20      0.01     -0.01      0.00 
    94.27     12.05      7.88      1.20      0.01     -0.01      0.00 
    94.28     12.04      7.88      1.20      0.01     -0.01      0.00 
    94.29     12.04      7.88      1.20      0.00     -0.00      0.00 
    94.30     12.04      7.88      1.20      0.00     -0.00      0.00 
    94.31     12.04      7.88      1.20      0.00     -0.00      0.00 
    94.32     12.04      7.88      1.20      0.00     -0.00      0.00 
    94.33     12.04      7.88      1.20      0.00     -0.00      0.47 
    94.34     12.04      7.88      1.20     -0.00     -0.00      0.47 
    94.35     12.04      7.88      1.20     -0.00     -0.00      0.47 
    94.36     12.04      7.88      1.20     -0.00      0.00      0.47 
    94.37     12.04      7.88      1.20     -0.00      0.00      0.47 
    94.38     12.05      7.88      1.20     -0.00     -0.00      0.47 
    94.39     12.05      7.88      1.20      0.00      0.00      0.47 
    94.40     12.05      7.87      1.20      0.00     -0.00      0.47 
    94.41     12.04      7.88      1.20      0.00      0.00      0.47 
    94.42     12.04      7.88      1.20      0.00      0.00      0.47 
    94.43     12.04      7.88      1.20      0.00     -0.00      0.47 
    94.44     12.04      7.88      1.20      0.00     -0.00      0.47 
    94.45     12.05      7.88      1.20      0.00     -0.00      0.47 
    94.46     12.05      7.88      1.20      0.00     -0.00      0.47 
    94.47     12.04      7.88      1.20      0.01     -0.01      0.47 
    94.48     12.04      7.88      1.20      0.01     -0.01      0.47 
    94.49     12.04      7.88      1.20      0.01     -0.01      0.47 
    94.50     12.04      7.88      1.20      0.01     -0.01      0.00 
    94.51     12.05      7.88      1.20      0.02     -0.01      0.00 
    94.52     12.05      7.88      1.20      0.02     -0.02      0.00 
    94.53     12.05      7.88      1.20      0.02     -0.02      0.00 
    94.54     12.04      7.88      1.20      0.02     -0.02      0.00 
    94.55     12.04      7.88      1.20      0.01     -0.01      0.00 
    94.56     12.04      7.88      1.20      0.01     -0.01      0.00 
    94.57     12.04      7.88      1.20      0.01     -0.01      0.00 
    94.58     12.04      7.88      1.20      0.01     -0.01      0.00 
    94.59     12.04      7.89      1.20      0.01     -0.01      0.00 
    94.60     12.04      7.89      1.20      0.01     -0.00      0.00 
    94.61     12.04      7.88      1.20      0.00     -0.01      0.00 
    94.62     12.04      7.89      1.20      0.00      0.00      0.00 
    94.63     12.04      7.89      1.20      0.00      0.00      0.00 
    94.64     12.04      7.88      1.20      0.00     -0.00      0.00 
    94.65     12.04      7.88      1.20     -0.00     -0.00      0.00 
    94.66     12.04      7.89      1.20      0.00      0.00      0.00 
    94.67     12.04      7.88      1.20      0.00     -0.00      0.00 
    94.68     12.04      7.88      1.20      0.00     -0.00      0.00 
    94.69     12.04      7.88      1.20      0.00      0.00      0.00 
    94.70     12.04      7.88      1.20      0.00     -0.00      0.00 
    94.71     12.04      7.88      1.20      0.00     -0.00      0.00 
    94.72     12.04      7.88      1.20      0.00     -0.00      0.00 
    94.73     12.04      7.88      1.20      0.00     -0.01      0.00 
    94.74     12.04      7.88      1.20      0.00     -0.01      0.00 
    94.75     12.04      7.88      1.20      0.00      0.00      0.00 
    94.76     12.04      7.88      1.20      0.00      0.00      0.00 
    94.77     12.04      7.88      1.20      0.00     -0.00      0.00 
    94.78     12.04      7.88      1.20      0.00     -0.00      0.00 
    94.79     12.04      7.88      1.20      0.00      0.00      0.00 
    94.80     12.04      7.88      1.20      0.00     -0.00      0.00 
    94.81     12.04      7.88      1.20      0.00     -0.00      0.00 
    94.82     12.04      7.88      1.20      0.00     -0.00      0.00 
    94.83     12.04      7.88      1.20     -0.00      0.00      0.00 
    94.84     12.04      7.88      1.20     -0.00      0.01      0.00 
    94.85     12.04      7.88      1.20     -0.00      0.00      0.00 
    94.86     12.04      7.88      1.20     -0.01      0.00      0.00 
    94.87     12.04      7.88      1.20     -0.01      0.01      0.00 
    94.88     12.04      7.89      1.20     -0.01      0.01      0.00 
    94.89     12.04      7.89      1.20     -0.01      0.01      0.00 
    94.90     12.04      7.89      1.20     -0.01      0.00      0.00 
