#Written by Robertson Geologging WinLogger V1.5/410
~VERSION INFORMATION
#------------------------------------------------------------------------------
 VERS. 2.0 : CWLS LOG ASCII STANDARD - VERSION 2.0
 WRAP. NO  : ONE LINE PER DEPTH STEP
~WELL INFORMATION
#MNEM.UNIT         DATA                                DESCRIPTION OF MNEMONIC
#------------------------------------------------------------------------------
 STRT.M         40.0200                            :   START DEPTH
 STOP.M        195.6300                            :   STOP DEPTH
 STEP.M          0.0100                            :   STEP VALUE
 NULL.        -999.2500                            :   NULL VALUE
 COMP.    IWS                                      :   COMPANY NAME
 WELL.    THRISLINGTON                             :   WELL NAME
 FLD.     DURHAM                                   :   FIELD NAME
 LOC.     N/A                                      :   LOCATION
 PROV.    N/A                                      :   PROVINCE
 SRVC.    N/A                                      :   SERVICE COMPANY NAME
 DATE.    16 Dec 09                                :   DATE
 UWI.     N/A                                      :   UNIQUE WELL IDENTIFIER
~PARAMETER INFORMATION
#MNEMO.UNIT         VALUE                 DESCRIPTION OF MNEMONIC
#------------------------------------------------------------------------------
~OTHER INFORMATION SECTION
#------------------------------------------------------------------------------
 TCDS 1365
~CURVE INFORMATION
#MNEMO.UNIT         API CODE              CURVE DESCRIPTION
#------------------------------------------------------------------------------
 DEPTH.M                                 :   0     Depth
 TEMP.DegC                               :   1     Temperature
 COND.uS/cm                              :   2     Conductivity@25DegC
 COND.uS/cm                              :   3     Absolute Conductivity
 DELT.DegC                               :   4     Delta T
 DELC.uS/cm                              :   5     Delta C
#------------------------------------------------------------------------------
~A  DEPTH          TEMP          COND          COND          DELT          DELC
# ...
   195.02         13.35       6395.55       4905.36          0.23       1941.17
   195.03         13.35       6407.43       4914.64          0.23       1943.87
   195.04         13.35       6420.88       4925.18          0.23       1946.29
   195.05         13.36       6436.38       4937.41          0.23       1943.19
   195.06         13.36       6443.57       4943.31          0.24       1938.34
   195.07         13.36       6451.92       4950.06          0.24       1933.06
   195.08         13.36       6459.03       4955.97          0.24       1924.48
   195.09         13.37       6458.59       4955.97          0.24       1908.19
   195.10         13.37       6450.38       4950.06          0.24       1886.30
   195.11         13.37       6432.83       4936.99          0.24       1852.80
   195.12         13.38       6404.23       4915.49          0.25       1808.31
   195.13         13.38       6356.41       4879.23          0.25       1747.01
   195.14         13.38       6302.01       4837.91          0.25       1673.13
   195.15         13.39       6232.73       4785.22          0.25       1585.62
   195.16         13.39       6161.00       4730.42          0.25       1498.88
   195.17         13.39       6089.76       4676.04          0.25       1412.36
   195.18         13.39       6012.02       4616.60          0.25       1316.57
   195.19         13.40       5925.43       4550.43          0.25       1210.74
   195.20         13.40       5841.90       4486.79          0.25       1108.56
   195.21         13.41       5754.13       4419.78          0.25       1002.42
   195.22         13.41       5680.45       4363.73          0.26        909.21
   195.23         13.41       5611.80       4311.48          0.26        821.09
   195.24         13.42       5560.29       4272.30          0.26        746.65
   195.25         13.42       5507.64       4232.28          0.26        678.18
   195.26         13.42       5461.16       4196.90          0.27        609.09
   195.27         13.43       5414.63       4161.52          0.27        538.96
   195.28         13.43       5371.28       4128.67          0.27        472.11
   195.29         13.44       5329.52       4097.08          0.27        407.47
   195.30         13.44       5285.58       4063.81          0.28        343.91
   195.31         13.45       5245.67       4033.49          0.28        281.01
   195.32         13.45       5213.61       4009.07          0.28        225.42
   195.33         13.45       5174.01       3978.75          0.28        158.53
   195.34         13.45       5142.14       3954.33          0.28        104.34
   195.35         13.45       5106.92       3927.39          0.28         42.45
   195.36         13.45       5079.38       3906.34          0.28        -12.37
   195.37         13.45       5051.77       3885.29          0.27        -67.19
   195.38         13.46       5024.18       3864.24          0.27       -118.20
   195.39         13.46       5000.70       3846.14          0.27       -171.15
   195.40         13.46       4977.71       3828.46          0.27       -223.06
   195.41         13.46       4962.44       3816.67          0.27       -269.46
   195.42         13.46       4947.61       3805.30          0.26       -315.84
   195.43         13.46       4933.10       3794.36          0.26       -361.35
   195.44         13.46       4921.99       3785.94          0.26       -399.60
   195.45         13.46       4915.80       3781.31          0.26       -437.94
   195.46         13.46       4908.03       3775.42          0.26       -472.90
   195.47         13.46       4900.75       3769.95          0.26       -511.36
   195.48         13.46       4891.77       3763.21          0.26       -547.52
   195.49         13.47       4892.10       3763.63          0.26       -582.09
   195.50         13.47       4887.93       3760.69          0.26       -613.31
   195.51         13.47       4883.34       3757.32          0.25       -644.89
   195.52         13.47       4879.34       3754.37          0.25       -679.24
   195.53         13.47       4874.80       3751.01          0.25       -707.58
   195.54         13.47       4870.86       3748.06          0.25       -743.29
   195.55         13.48       4861.89       3741.33          0.25       -775.28
   195.56         13.48       4849.63       3732.07          0.25       -818.68
   195.57         13.48       4840.61       3725.33          0.25       -851.21
   195.58         13.48       4831.69       3718.60          0.25       -887.28
   195.59         13.48       4826.72       3714.81          0.25       -918.44
   195.60         13.48       4822.23       3711.45          0.25       -943.60
   195.61         13.48       4813.92       3705.13          0.25       -976.99
   195.62         13.48       4808.89       3701.35          0.25      -1007.72
   195.63         13.49       4804.35       3697.98          0.25      -1028.52
