#Written by Robertson Geologging WinLogger V1.0/370
~VERSION INFORMATION
#------------------------------------------------------------------------------
 VERS. 2.0 : CWLS LOG ASCII STANDARD - VERSION 2.0
 WRAP. NO  : ONE LINE PER DEPTH STEP
~WELL INFORMATION
#MNEM.UNIT         DATA                                DESCRIPTION OF MNEMONIC
#------------------------------------------------------------------------------
 STRT.M         44.0600                            :   START DEPTH
 STOP.M        195.1500                            :   STOP DEPTH
 STEP.M          0.0100                            :   STEP VALUE
 NULL.        -999.2500                            :   NULL VALUE
 COMP.    WHITE YOUN GREEN                         :   COMPANY NAME
 WELL.    THRISINGTON SHAFT                        :   WELL NAME
 FLD.     THRISINGTON                              :   FIELD NAME
 LOC.     N/A                                      :   LOCATION
 PROV.    N/A                                      :   PROVINCE
 SRVC.    N/A                                      :   SERVICE COMPANY NAME
 DATE.    15 Dec 06                                :   DATE
 UWI.     N/A                                      :   UNIQUE WELL IDENTIFIER
~PARAMETER INFORMATION
#MNEMO.UNIT         VALUE                 DESCRIPTION OF MNEMONIC
#------------------------------------------------------------------------------
~OTHER INFORMATION SECTION
#------------------------------------------------------------------------------
 lLOGGING DOWN
~CURVE INFORMATION
#MNEMO.UNIT         API CODE              CURVE DESCRIPTION
#------------------------------------------------------------------------------
 DEPTH.M                                 :   0     Depth
 TEMP.DegC                               :   1     Temperature
 CN25.mS/cm                              :   2     Conductivity@25DegC
 COND.mS/cm                              :   3     Conductivity
 DELT.DegC                               :   4     Delta T
 DELC.mS/cm                              :   5     Delta C
 NGAM.CPS                                :   6     Natural Gamma
#------------------------------------------------------------------------------
~A  DEPTH     TEMP      CN25      COND      DELT      DELC      NGAM      
# ...
    64.40     12.03      7.90      1.20      0.01     -0.02      0.47 
    64.41     12.02      7.89      1.20      0.01     -0.02      0.47 
    64.42     12.02      7.90      1.20      0.01     -0.01      0.47 
    64.43     12.02      7.90      1.20      0.01     -0.01      0.47 
    64.44     12.02      7.90      1.20      0.01     -0.01      0.47 
    64.45     12.02      7.90      1.20      0.01     -0.01      0.47 
    64.46     12.02      7.90      1.20      0.01     -0.00      0.47 
    64.47     12.02      7.90      1.20      0.01     -0.01      0.00 
    64.48     12.02      7.90      1.20      0.01     -0.01      0.00 
    64.49     12.02      7.90      1.20      0.01     -0.01      0.00 
    64.50     12.02      7.90      1.20      0.01     -0.01      0.00 
    64.51     12.02      7.90      1.20      0.01     -0.01      0.00 
    64.52     12.02      7.90      1.20      0.01     -0.01      0.00 
    64.53     12.02      7.90      1.20      0.02     -0.02      0.00 
    64.54     12.03      7.90      1.20      0.02     -0.02      0.00 
    64.55     12.03      7.90      1.20      0.02     -0.02      0.00 
    64.56     12.03      7.90      1.20      0.02     -0.02      0.00 
    64.57     12.03      7.90      1.20      0.02     -0.02      0.00 
    64.58     12.02      7.90      1.20      0.02     -0.02      0.00 
    64.59     12.02      7.90      1.20      0.01     -0.02      0.00 
    64.60     12.02      7.90      1.20      0.01     -0.01      0.00 
    64.61     12.02      7.90      1.20      0.01     -0.01      0.00 
    64.62     12.02      7.90      1.20      0.01     -0.01      0.00 
    64.63     12.02      7.90      1.20      0.01     -0.01      0.00 
    64.64     12.02      7.90      1.20      0.01     -0.01      0.00 
    64.65     12.02      7.90      1.20      0.01     -0.00      0.00 
    64.66     12.03      7.90      1.20      0.01     -0.01      0.00 
    64.67     12.03      7.90      1.20      0.01     -0.01      0.00 
    64.68     12.03      7.90      1.20      0.01     -0.01      0.00 
    64.69     12.02      7.90      1.20      0.01     -0.00      0.00 
    64.70     12.02      7.90      1.20      0.01     -0.01      0.00 
    64.71     12.02      7.90      1.20      0.01     -0.01      0.00 
    64.72     12.02      7.90      1.20      0.01     -0.02      0.00 
    64.73     12.02      7.90      1.20      0.01     -0.01      0.00 
    64.74     12.02      7.90      1.20      0.01     -0.00      0.00 
    64.75     12.02      7.91      1.20      0.00     -0.00      0.00 
    64.76     12.02      7.90      1.20      0.00     -0.00      0.00 
    64.77     12.02      7.90      1.20      0.00     -0.00      0.00 
    64.78     12.02      7.90      1.20      0.00     -0.00      0.00 
    64.79     12.02      7.90      1.20      0.00     -0.00      0.00 
    64.80     12.02      7.90      1.20     -0.00     -0.00      0.00 
    64.81     12.02      7.90      1.20     -0.00      0.00      0.00 
    64.82     12.02      7.90      1.20     -0.00      0.01      0.00 
    64.83     12.02      7.90      1.20     -0.00      0.01      0.00 
    64.84     12.03      7.90      1.20     -0.00      0.01      0.00 
    64.85     12.02      7.90      1.20     -0.01      0.01      0.00 
    64.86     12.02      7.90      1.20     -0.00      0.00      0.00 
    64.87     12.02      7.90      1.20     -0.01      0.01      0.00 
    64.88     12.02      7.90      1.20     -0.01      0.01      0.00 
    64.89     12.02      7.90      1.20     -0.01      0.01      0.00 
    64.90     12.02      7.91      1.20     -0.00      0.01      0.00 
    64.91     12.02      7.90      1.20     -0.00      0.01      0.00 
    64.92     12.02      7.90      1.20      0.00      0.00      0.00 
    64.93     12.02      7.90      1.20      0.00     -0.00      0.00 
    64.94     12.02      7.90      1.20      0.00     -0.00      0.00 
    64.95     12.02      7.90      1.20      0.01     -0.01      0.00 
    64.96     12.03      7.90      1.20      0.01     -0.01      0.47 
    64.97     12.03      7.90      1.20      0.01     -0.01      0.47 
    64.98     12.03      7.90      1.20      0.01     -0.01      0.47 
    64.99     12.03      7.89      1.20      0.01     -0.01      0.47 
    65.00     12.03      7.90      1.20      0.01     -0.01      0.47 
    65.01     12.03      7.89      1.20      0.01     -0.01      0.47 
    65.02     12.03      7.89      1.20      0.01     -0.02      0.47 
    65.03     12.03      7.90      1.20      0.01     -0.01      0.47 
    65.04     12.03      7.90      1.20      0.01     -0.01      0.47 
    65.05     12.03      7.90      1.20      0.01     -0.01      0.47 
    65.06     12.03      7.90      1.20      0.01     -0.01      0.47 
    65.07     12.03      7.90      1.20      0.01     -0.01      0.47 
    65.08     12.02      7.90      1.20      0.01     -0.00      0.47 
    65.09     12.02      7.90      1.20      0.00     -0.00      0.47 
    65.10     12.02      7.90      1.20      0.00      0.00      0.47 
    65.11     12.02      7.90      1.20     -0.00     -0.00      0.47 
    65.12     12.02      7.90      1.20     -0.00      0.01      0.47 
    65.13     12.02      7.90      1.20     -0.01      0.01      0.00 
    65.14     12.02      7.90      1.20     -0.01      0.01      0.00 
    65.15     12.02      7.90      1.20     -0.01      0.01      0.00 
    65.16     12.02      7.90      1.20     -0.00      0.00      0.00 
    65.17     12.02      7.90      1.20     -0.00      0.01      0.00 
    65.18     12.02      7.90      1.20     -0.00      0.00      0.00 
    65.19     12.02      7.90      1.20     -0.00     -0.00      0.00 
    65.20     12.02      7.90      1.20     -0.00      0.00      0.41 
    65.21     12.02      7.90      1.20      0.00     -0.00      0.41 
    65.22     12.02      7.90      1.20      0.00     -0.00      0.41 
    65.23     12.03      7.89      1.20      0.01     -0.01      0.41 
    65.24     12.03      7.90      1.20      0.01     -0.01      0.41 
    65.25     12.03      7.90      1.20      0.01     -0.00      0.41 
    65.26     12.03      7.90      1.20      0.01     -0.01      0.41 
    65.27     12.03      7.89      1.20      0.01     -0.01      0.41 
    65.28     12.03      7.89      1.20      0.01     -0.01      0.41 
    65.29     12.03      7.90      1.20      0.01     -0.01      0.88 
    65.30     12.03      7.90      1.20      0.01     -0.01      0.88 
    65.31     12.03      7.89      1.20      0.01     -0.01      0.88 
    65.32     12.03      7.89      1.20      0.00     -0.01      0.88 
    65.33     12.03      7.90      1.20      0.00      0.00      0.88 
    65.34     12.03      7.90      1.20     -0.00      0.00      1.29 
    65.35     12.02      7.90      1.20     -0.00      0.00      1.29 
    65.36     12.02      7.90      1.20     -0.00     -0.00      1.29 
    65.37     12.02      7.90      1.20     -0.00      0.00      0.88 
    65.38     12.02      7.90      1.20     -0.00      0.00      0.88 
    65.39     12.02      7.90      1.20     -0.00      0.00      0.88 
    65.40     12.02      7.90      1.20     -0.00      0.00      0.88 
    65.41     12.02      7.90      1.20      0.00     -0.00      0.88 
    65.42     12.03      7.90      1.20      0.00     -0.00      0.88 
    65.43     12.03      7.90      1.20      0.01     -0.01      0.88 
    65.44     12.03      7.89      1.20      0.01     -0.01      0.88 
    65.45     12.03      7.89      1.20      0.01     -0.02      0.88 
    65.46     12.03      7.89      1.20      0.01     -0.02      0.41 
    65.47     12.04      7.89      1.20      0.02     -0.02      0.41 
    65.48     12.04      7.89      1.20      0.02     -0.01      0.41 
    65.49     12.04      7.88      1.20      0.02     -0.02      0.41 
    65.50     12.04      7.88      1.20      0.02     -0.02      0.41 
    65.51     12.04      7.88      1.20      0.02     -0.02      0.00 
    65.52     12.04      7.88      1.20      0.02     -0.01      0.00 
