#Written by Robertson Geologging WinLogger V1.0/406
~VERSION INFORMATION
#------------------------------------------------------------------------------
 VERS. 2.0 : CWLS LOG ASCII STANDARD - VERSION 2.0
 WRAP. NO  : ONE LINE PER DEPTH STEP
~WELL INFORMATION
#MNEM.UNIT         DATA                                DESCRIPTION OF MNEMONIC
#------------------------------------------------------------------------------
 STRT.M         44.9500                            :   START DEPTH
 STOP.M        194.0200                            :   STOP DEPTH
 STEP.M          0.0100                            :   STEP VALUE
 NULL.        -999.2500                            :   NULL VALUE
 COMP.    Coal Authority                           :   COMPANY NAME
 WELL.    Thrislington Shaft                       :   WELL NAME
 FLD.     Banks Yard                               :   FIELD NAME
 LOC.     N/A                                      :   LOCATION
 PROV.    N/A                                      :   PROVINCE
 SRVC.    N/A                                      :   SERVICE COMPANY NAME
 DATE.    19 May 08                                :   DATE
 UWI.     N/A                                      :   UNIQUE WELL IDENTIFIER
~PARAMETER INFORMATION
#MNEMO.UNIT         VALUE                 DESCRIPTION OF MNEMONIC
#------------------------------------------------------------------------------
~OTHER INFORMATION SECTION
#------------------------------------------------------------------------------
 TCDS 1365
~CURVE INFORMATION
#MNEMO.UNIT         API CODE              CURVE DESCRIPTION
#------------------------------------------------------------------------------
 DEPTH.M                                 :   0     Depth
 TEMP.DegC                               :   1     Temperature
 COND.uS/cm                              :   2     Absolute Conductivity
 COND.uS/cm                              :   3     Conductivity@25DegC
 DELT.DegC                               :   4     Delta T
 DELC.uS/cm                              :   5     Delta C
#------------------------------------------------------------------------------
~A  DEPTH     TEMP      COND      COND      DELT      DELC      
# ...
   163.75     12.65    940.38   1248.98      0.01      0.87 
   163.76     12.65    933.19   1239.44      0.01     -9.87 
   163.77     12.65    939.48   1247.63      0.00     -1.35 
   163.78     12.65    940.38   1248.82      0.01     -0.32 
   163.79     12.64    940.38   1249.14      0.00      9.55 
   163.80     12.64    940.38   1249.30     -0.01      0.48 
   163.81     12.63    939.48   1248.27     -0.01     -0.71 
   163.82     12.64    933.19   1239.75     -0.01     -8.04 
   163.83     12.65    940.38   1248.98     -0.00      0.16 
   163.84     12.65    940.38   1248.98     -0.00      0.16 
   163.85     12.65    939.48   1247.79     -0.01     -0.71 
   163.86     12.65    933.19   1239.28     -0.01      0.32 
   163.87     12.65    940.38   1248.82     -0.00      0.16 
   163.88     12.66    940.38   1248.50      0.00      1.19 
   163.89     12.65    940.38   1248.82      0.00     -0.16 
   163.90     12.65    940.38   1248.82      0.01     -0.32 
   163.91     12.66    939.48   1247.31      0.02     -1.99 
   163.92     12.66    940.38   1248.66      0.03     -0.96 
   163.93     12.65    940.38   1248.82      0.02     -0.64 
   163.94     12.63    933.19   1239.91     -0.00     -8.20 
   163.95     12.62    940.38   1249.79     -0.01     10.03 
   163.96     12.62    940.38   1249.79     -0.02      0.64 
   163.97     12.63    940.38   1249.63     -0.01      0.32 
   163.98     12.63    940.38   1249.46     -0.00      0.16 
   163.99     12.64    939.48   1247.95      0.00     -1.35 
   164.00     12.64    940.38   1249.14     -0.00      0.16 
   164.01     12.65    933.19   1239.28      0.00     -0.16 
   164.02     12.65    940.38   1248.82     -0.01      0.32 
   164.03     12.64    940.38   1249.14     -0.02      1.83 
   164.04     12.64    940.38   1249.30     -0.02      0.80 
   164.05     12.63    940.38   1249.63     -0.03      0.96 
   164.06     12.63    940.38   1249.46     -0.02      0.80 
   164.07     12.64    933.19   1239.60     -0.01     -9.07 
   164.08     12.65    939.48   1247.63     -0.00      8.51 
   164.09     12.66    940.38   1248.50      0.00     -0.16 
   164.10     12.67    940.38   1248.18      0.02      0.55 
   164.11     12.66    940.38   1248.50      0.01     -0.32 
   164.12     12.65    940.38   1248.82      0.02     -0.64 
   164.13     12.64    940.38   1249.30     -0.00      0.16 
   164.14     12.63    940.38   1249.63     -0.01      0.32 
   164.15     12.63    933.19   1240.07      0.00     -9.55 
   164.16     12.64    940.38   1249.30      0.00      1.19 
   164.17     12.65    939.48   1247.79      0.02      7.72 
   164.18     12.66    940.38   1248.66      0.03     -0.96 
   164.19     12.66    940.38   1248.66      0.02     -0.80 
   164.20     12.65    940.38   1248.82      0.02      0.39 
   164.21     12.65    940.38   1248.82      0.01     -0.48 
   164.22     12.65    933.19   1239.44      0.00     -9.71 
   164.23     12.64    940.38   1249.30     -0.01      0.32 
   164.24     12.64    939.48   1247.95     -0.00     -1.03 
   164.25     12.64    940.38   1249.14     -0.00      1.35 
   164.26     12.64    940.38   1249.14     -0.00      9.71 
   164.27     12.65    940.38   1248.82      0.00      0.00 
   164.28     12.65    940.38   1248.98      0.00      0.00 
   164.29     12.64    940.38   1249.14      0.01     -0.32 
   164.30     12.64    939.48   1247.95      0.00     -0.16 
   164.31     12.65    933.19   1239.28      0.02    -10.35 
   164.32     12.66    940.38   1248.66      0.01     -0.48 
   164.33     12.65    940.38   1248.98      0.00     -0.16 
   164.34     12.64    940.38   1249.14     -0.01      9.87 
   164.35     12.63    940.38   1249.63     -0.04      2.47 
   164.36     12.63    939.48   1248.43     -0.04      0.09 
   164.37     12.63    940.38   1249.46     -0.03      1.12 
   164.38     12.64    933.19   1239.60     -0.01     -9.07 
   164.39     12.64    940.38   1249.30      0.00      1.19 
   164.40     12.63    940.38   1249.46      0.00      0.00 
   164.41     12.64    940.38   1249.14      0.00     -0.16 
   164.42     12.64    939.48   1247.95      0.01      7.88 
   164.43     12.65    940.38   1248.98      0.01     -0.32 
   164.44     12.64    933.19   1239.60      0.01    -10.03 
   164.45     12.64    940.38   1249.14      0.00     -0.16 
   164.46     12.64    939.48   1247.95     -0.01      0.32 
   164.47     12.64    940.38   1249.14     -0.01      0.48 
   164.48     12.65    940.38   1248.98     -0.01      0.48 
   164.49     12.64    940.38   1249.14     -0.01      9.87 
   164.50     12.64    939.48   1247.95      0.00     -1.19 
   164.51     12.65    940.38   1248.82      0.02     -0.64 
   164.52     12.66    933.19   1238.96      0.03    -10.51 
   164.53     12.67    940.38   1248.34      0.03     -0.96 
   164.54     12.66    940.38   1248.50      0.02      0.55 
   164.55     12.66    939.48   1247.31      0.01     -1.67 
   164.56     12.66    940.38   1248.66      0.02     -0.64 
   164.57     12.65    940.38   1248.82      0.01      9.07 
   164.58     12.66    940.38   1248.50      0.02     -0.80 
   164.59     12.65    933.19   1239.44      0.00     -9.55 
   164.60     12.63    939.48   1248.27     -0.02      0.80 
   164.61     12.64    940.38   1249.14     -0.01      0.32 
   164.62     12.64    940.38   1249.30     -0.01      0.48 
   164.63     12.65    940.38   1248.98      0.00      1.19 
   164.64     12.65    940.38   1248.82      0.00     -0.16 
   164.65     12.65    939.48   1247.79      0.00      8.35 
   164.66     12.65    940.38   1248.82      0.00     -0.16 
   164.67     12.65    933.19   1239.44     -0.00     -8.19 
   164.68     12.65    940.38   1248.82      0.00      0.00 
   164.69     12.64    940.38   1249.14     -0.01      0.32 
   164.70     12.64    940.38   1249.30     -0.01      1.67 
   164.71     12.62    940.38   1249.79     -0.02      0.64 
   164.72     12.63    939.48   1248.43     -0.01     -0.71 
   164.73     12.65    940.38   1248.98     -0.00      1.35 
   164.74     12.66    933.19   1239.12      0.01     -9.87 
   164.75     12.67    940.38   1248.18      0.02      8.75 
   164.76     12.66    940.38   1248.50      0.01      0.87 
   164.77     12.65    940.38   1248.82      0.00      0.00 
   164.78     12.65    939.48   1247.63      0.01     -1.51 
   164.79     12.65    940.38   1248.98      0.01     -0.32 
   164.80     12.65    933.19   1239.28      0.02     -8.99 
   164.81     12.65    940.38   1248.98      0.01      9.23 
   164.82     12.63    940.38   1249.63     -0.02      0.64 
   164.83     12.63    939.48   1248.27     -0.01     -0.71 
   164.84     12.63    940.38   1249.63     -0.02      1.83 
   164.85     12.63    940.38   1249.63     -0.02     10.35 
   164.86     12.65    939.48   1247.79     -0.00     -1.03 
   164.87     12.64    940.38   1249.30     -0.02      0.80 
   164.88     12.64    933.19   1239.60     -0.01     -9.23 
   164.89     12.65    940.38   1248.98     -0.00      0.16 
   164.90     12.64    939.48   1248.11     -0.02      0.80 
   164.91     12.65    940.38   1248.82     -0.00      0.16 
   164.92     12.66    940.38   1248.66      0.00     -0.16 
   164.93     12.66    939.48   1247.47      0.02      7.56 
   164.94     12.66    940.38   1248.66      0.03     -1.12 
   164.95     12.64    940.38   1249.14      0.02     -0.64 
   164.96     12.63    933.19   1240.07      0.00     -9.55 
   164.97     12.63    948.47   1260.21      0.00     10.75 
   164.98     12.64    933.19   1239.60      0.00     -8.36 
   164.99     12.65    940.38   1248.98      0.00     -0.16 
   165.00     12.65    940.38   1248.98     -0.00      9.71 
   165.01     12.65    940.38   1248.98     -0.00      0.16 
   165.02     12.65    939.48   1247.79      0.00     -1.35 
   165.03     12.65    940.38   1248.98      0.01     -0.32 
   165.04     12.66    933.19   1239.12      0.03    -10.51 
   165.05     12.64    940.38   1249.30      0.00     -0.16 
   165.06     12.64    940.38   1249.30     -0.00      9.71 
