#Written by Robertson Geologging WinLogger V1.5/410
~VERSION INFORMATION
#------------------------------------------------------------------------------
 VERS. 2.0 : CWLS LOG ASCII STANDARD - VERSION 2.0
 WRAP. NO  : ONE LINE PER DEPTH STEP
~WELL INFORMATION
#MNEM.UNIT         DATA                                DESCRIPTION OF MNEMONIC
#------------------------------------------------------------------------------
 STRT.M        191.7300                            :   START DEPTH
 STOP.M         42.4500                            :   STOP DEPTH
 STEP.M         -0.0100                            :   STEP VALUE
 NULL.        -999.2500                            :   NULL VALUE
 COMP.    I.W.S.                                   :   COMPANY NAME
 WELL.    THRISLINGTON                             :   WELL NAME
 FLD.     N/A                                      :   FIELD NAME
 LOC.     N/A                                      :   LOCATION
 PROV.    N/A                                      :   PROVINCE
 SRVC.    N/A                                      :   SERVICE COMPANY NAME
 DATE.    14 Nov 11                                :   DATE
 UWI.     N/A                                      :   UNIQUE WELL IDENTIFIER
~PARAMETER INFORMATION
#MNEMO.UNIT         VALUE                 DESCRIPTION OF MNEMONIC
#------------------------------------------------------------------------------
~OTHER INFORMATION SECTION
#------------------------------------------------------------------------------
 1365 LOW
~CURVE INFORMATION
#MNEMO.UNIT         API CODE              CURVE DESCRIPTION
#------------------------------------------------------------------------------
 DEPTH.M                                 :   0     Depth
 TEMP.DegC                               :   1     Temperature
 COND.uS/cm                              :   2     Conductivity
 DELT.DegC                               :   3     Delta T
 DELC.uS/cm                              :   4     Delta C
 NGAM.CPS                                :   5     Natural Gamma
#------------------------------------------------------------------------------
~A  DEPTH          TEMP          COND          DELT          DELC          NGAM
# ...
   181.73         12.39        921.57         -0.00          0.00          0.00
   181.72         12.39        921.57         -0.00          0.00          0.00
   181.71         12.39        921.57         -0.00          0.00          0.00
   181.70         12.39        921.57         -0.00          0.42          0.00
   181.69         12.39        921.57         -0.00          0.00          0.00
   181.68         12.39        921.57          0.00          0.00          0.00
   181.67         12.39        921.57          0.00          0.00          0.00
   181.66         12.39        921.57         -0.00         -2.09          0.00
   181.65         12.39        921.57         -0.00          0.00          0.00
   181.64         12.39        924.09         -0.00          2.51          0.00
   181.63         12.39        921.57         -0.00         -0.00          0.00
   181.62         12.39        921.57         -0.00          0.00          0.00
   181.61         12.40        921.57         -0.00          0.00          0.00
   181.60         12.40        921.99         -0.00          0.42          0.00
   181.59         12.40        921.57         -0.00         -0.00          0.00
   181.58         12.40        921.57         -0.01          0.00          0.00
   181.57         12.40        921.57         -0.01          0.00          0.00
   181.56         12.40        921.57         -0.01          0.00          0.00
   181.55         12.40        921.57         -0.01          0.00          0.00
   181.54         12.40        921.57         -0.01          0.00          0.00
   181.53         12.40        921.57         -0.01         -0.00          0.00
   181.52         12.40        921.57         -0.01         -0.00          0.00
   181.51         12.40        921.57         -0.01          0.00          0.00
   181.50         12.40        921.57         -0.01          0.00          0.00
   181.49         12.40        921.15         -0.01         -0.42          0.00
   181.48         12.40        921.57         -0.01         -0.00          0.00
   181.47         12.40        921.57         -0.01          0.00          0.50
   181.46         12.40        921.57         -0.01          0.00          0.50
   181.45         12.39        921.15         -0.01         -0.42          0.50
   181.44         12.39        921.15         -0.01          1.68          0.50
   181.43         12.39        921.57         -0.01          0.00          0.50
   181.42         12.39        921.57         -0.01         -0.00          0.50
   181.41         12.39        923.67         -0.01          1.68          0.50
   181.40         12.39        923.67         -0.01          2.09          0.50
   181.39         12.39        921.15         -0.01         -0.42          0.50
   181.38         12.39        921.57         -0.01          0.00          0.50
   181.37         12.39        921.15         -0.01         -0.84          0.50
   181.36         12.39        921.15         -0.01         -0.42          0.50
   181.35         12.39        921.15         -0.01         -0.42          0.50
   181.34         12.39        921.15         -0.00         -0.42          0.50
   181.33         12.40        921.57         -0.00          0.00          0.50
   181.32         12.39        921.15          0.00         -0.42          0.50
   181.31         12.39        921.15          0.00         -0.42          0.50
   181.30         12.39        921.15          0.00          0.00          0.50
   181.29         12.39        921.15          0.00         -0.42          0.50
   181.28         12.39        921.57          0.00          0.00          0.50
   181.27         12.39        921.15          0.00         -0.42          0.50
   181.26         12.40        921.15          0.00          0.00          0.50
   181.25         12.40        921.15          0.00         -0.42          0.50
   181.24         12.40        921.15         -0.00         -0.42          0.50
   181.23         12.40        921.15         -0.00         -0.42          0.50
   181.22         12.40        921.15          0.00         -2.51          0.50
   181.21         12.40        921.15          0.00         -0.42          0.50
   181.20         12.40        921.15          0.00         -0.42          0.50
   181.19         12.40        921.15          0.00         -0.42          0.50
   181.18         12.40        921.15          0.01          0.00          0.50
   181.17         12.40        923.67          0.01          2.09          0.50
   181.16         12.40        923.67          0.01          2.09          0.50
   181.15         12.40        923.67          0.01          2.09          0.50
   181.14         12.40        923.67          0.00          2.51          0.50
   181.13         12.40        921.57          0.00          0.42          0.00
   181.12         12.40        921.57         -0.00          0.42          0.00
   181.11         12.40        921.15         -0.00         -0.42          0.00
   181.10         12.40        921.15         -0.00         -2.51          0.00
   181.09         12.40        921.15         -0.00         -2.51          0.00
   181.08         12.40        921.57         -0.00         -2.09          0.00
   181.07         12.40        921.57         -0.00          0.00          0.00
   181.06         12.40        921.15         -0.00          0.00          0.00
   181.05         12.40        921.15         -0.00         -0.00          0.00
   181.04         12.40        921.15          0.00          0.00          0.00
   181.03         12.40        921.57          0.00          0.42          0.00
   181.02         12.40        923.67          0.00          2.51          0.00
   181.01         12.40        921.15          0.00         -0.42          0.00
   181.00         12.40        921.15         -0.00          0.00          0.00
   180.99         12.40        921.57         -0.00          0.42          0.00
   180.98         12.39        921.57         -0.01          0.42          0.00
   180.97         12.39        921.15         -0.01          0.00          0.00
   180.96         12.39        921.15         -0.01         -2.09          0.00
   180.95         12.39        921.57         -0.01          0.42          0.00
   180.94         12.39        921.57         -0.01          0.42          0.00
   180.93         12.39        921.57         -0.01          0.42          0.00
   180.92         12.39        921.57         -0.01          0.42          0.00
   180.91         12.40        921.57         -0.01          0.00          0.00
   180.90         12.40        921.57         -0.00          0.42          0.00
   180.89         12.40        921.99         -0.00          0.84          0.42
   180.88         12.40        921.57         -0.00          0.42          0.42
   180.87         12.40        921.57          0.00          0.00          0.42
   180.86         12.40        921.57          0.00          0.00          0.42
   180.85         12.40        921.99          0.00          0.42          0.42
   180.84         12.40        921.57          0.00         -2.09          0.42
   180.83         12.40        921.57          0.00          0.00          0.42
   180.82         12.40        921.99         -0.00          0.42          0.42
   180.81         12.40        921.57         -0.00          0.00          0.42
   180.80         12.40        921.57         -0.00          0.42          0.42
   180.79         12.40        924.09         -0.00          2.51          0.83
   180.78         12.39        921.57         -0.00         -0.00          0.83
   180.77         12.39        921.57         -0.00         -0.00          0.83
   180.76         12.39        921.57         -0.01          0.00          0.83
   180.75         12.39        921.57         -0.01          0.00          0.83
   180.74         12.39        921.57         -0.01          0.00          1.33
