#Written by Robertson Geologging WinLogger V1.5/410
~VERSION INFORMATION
#------------------------------------------------------------------------------
 VERS. 2.0 : CWLS LOG ASCII STANDARD - VERSION 2.0
 WRAP. NO  : ONE LINE PER DEPTH STEP
~WELL INFORMATION
#MNEM.UNIT         DATA                                DESCRIPTION OF MNEMONIC
#------------------------------------------------------------------------------
 STRT.M         40.0200                            :   START DEPTH
 STOP.M        195.6300                            :   STOP DEPTH
 STEP.M          0.0100                            :   STEP VALUE
 NULL.        -999.2500                            :   NULL VALUE
 COMP.    IWS                                      :   COMPANY NAME
 WELL.    THRISLINGTON                             :   WELL NAME
 FLD.     DURHAM                                   :   FIELD NAME
 LOC.     N/A                                      :   LOCATION
 PROV.    N/A                                      :   PROVINCE
 SRVC.    N/A                                      :   SERVICE COMPANY NAME
 DATE.    16 Dec 09                                :   DATE
 UWI.     N/A                                      :   UNIQUE WELL IDENTIFIER
~PARAMETER INFORMATION
#MNEMO.UNIT         VALUE                 DESCRIPTION OF MNEMONIC
#------------------------------------------------------------------------------
~OTHER INFORMATION SECTION
#------------------------------------------------------------------------------
 TCDS 1365
~CURVE INFORMATION
#MNEMO.UNIT         API CODE              CURVE DESCRIPTION
#------------------------------------------------------------------------------
 DEPTH.M                                 :   0     Depth
 TEMP.DegC                               :   1     Temperature
 COND.uS/cm                              :   2     Conductivity@25DegC
 COND.uS/cm                              :   3     Absolute Conductivity
 DELT.DegC                               :   4     Delta T
 DELC.uS/cm                              :   5     Delta C
#------------------------------------------------------------------------------
~A  DEPTH          TEMP          COND          COND          DELT          DELC
# ...
   133.02         12.40       1297.11        970.16         -0.01          3.13
   133.03         12.40       1293.17        967.23         -0.01         -4.72
   133.04         12.40       1297.08        970.16         -0.01          3.62
   133.05         12.40       1297.08        970.16         -0.01          3.59
   133.06         12.40       1293.17        967.23         -0.01         -4.86
   133.07         12.40       1297.61        970.58         -0.00          4.01
   133.08         12.40       1293.70        967.65         -0.00         -3.87
   133.09         12.40       1297.62        970.58         -0.00          3.94
   133.10         12.40       1297.64        970.58          0.00          3.89
   133.11         12.40       1293.78        967.65          0.00         -3.94
   133.12         12.40       1297.73        970.58         -0.00          4.51
   133.13         12.39       1293.31        967.23         -0.00         -3.83
   133.14         12.39       1293.32        967.23         -0.00          0.15
   133.15         12.39       1293.34        967.23         -0.01          0.24
   133.16         12.39       1293.37        967.23         -0.01         -3.62
   133.17         12.39       1297.34        970.16         -0.01          4.89
   133.18         12.39       1292.92        966.81         -0.01         -3.97
   133.19         12.39       1292.92        966.81         -0.02         -0.03
   133.20         12.39       1292.92        966.81         -0.02         -0.02
   133.21         12.39       1292.89        966.81         -0.02         -4.51
   133.22         12.39       1297.32        970.16         -0.01          3.83
   133.23         12.39       1293.37        967.23         -0.01         -4.04
   133.24         12.39       1297.23        970.16         -0.01          3.74
   133.25         12.39       1297.18        970.16         -0.01          3.65
   133.26         12.40       1293.23        967.23         -0.01         -4.24
   133.27         12.40       1297.09        970.16         -0.00          3.53
   133.28         12.40       1293.16        967.23         -0.00         -4.34
   133.29         12.40       1297.06        970.16         -0.00          4.03
   133.30         12.40       1297.06        970.16         -0.00          4.00
   133.31         12.40       1293.17        967.23         -0.00         -3.84
   133.32         12.40       1297.11        970.16         -0.00          4.51
   133.33         12.40       1292.66        966.81         -0.00         -3.91
   133.34         12.40       1292.69        966.81         -0.00          0.02
   133.35         12.39       1292.72        966.81          0.00          0.00
   133.36         12.39       1292.73        966.81          0.00         -3.92
   133.37         12.39       1296.66        969.74          0.00          3.92
   133.38         12.39       1292.73        966.81          0.00         -4.53
   133.39         12.39       1292.70        966.81          0.00         -0.65
   133.40         12.39       1292.70        966.81          0.00         -0.64
   133.41         12.39       1292.70        966.81          0.00         -5.13
   133.42         12.39       1296.62        969.74          0.00          2.69
   133.43         12.40       1292.69        966.81          0.00         -5.16
   133.44         12.40       1292.63        966.81          0.01         -1.35
   133.45         12.40       1296.50        969.74          0.01          2.45
   133.46         12.40       1292.55        966.81          0.01         -5.45
   133.47         12.40       1296.50        969.74          0.01          2.38
   133.48         12.40       1292.60        966.81          0.01         -5.50
   133.49         12.40       1292.60        966.81          0.01         -0.95
   133.50         12.40       1297.06        970.16          0.01          3.54
   133.51         12.40       1293.10        967.23          0.01         -4.34
   133.52         12.40       1297.00        970.16          0.01          4.09
   133.53         12.40       1293.04        967.23          0.01          0.12
   133.54         12.40       1293.02        967.23          0.01          0.14
   133.55         12.40       1296.93        970.16          0.01          4.10
   133.56         12.40       1292.99        967.23          0.01         -4.27
   133.57         12.40       1296.93        970.16          0.01          3.62
   133.58         12.40       1292.96        967.23          0.01         -4.21
   133.59         12.40       1292.99        967.23          0.01         -0.23
   133.60         12.40       1296.97        970.16          0.00          3.77
   133.61         12.40       1292.54        966.81          0.00         -4.56
   133.62         12.40       1297.09        970.16         -0.00          3.94
   133.63         12.40       1293.19        967.23         -0.00          0.05
   133.64         12.40       1293.20        967.23         -0.00         -3.83
   133.65         12.40       1297.73        970.58         -0.00          4.62
   133.66         12.39       1293.85        967.65         -0.01         -3.16
   133.67         12.39       1297.82        970.58         -0.01          5.30
   133.68         12.39       1293.92        967.65         -0.01          1.41
   133.69         12.39       1293.92        967.65         -0.01          0.85
   133.70         12.39       1298.37        971.00         -0.01          5.30
   133.71         12.39       1294.38        968.07         -0.00         -2.63
   133.72         12.40       1298.24        971.00         -0.00          5.09
   133.73         12.40       1293.70        967.65          0.00          0.50
   133.74         12.40       1293.66        967.65          0.00         -4.07
   133.75         12.40       1297.55        970.58          0.01          3.71
   133.76         12.40       1293.02        967.23          0.01         -4.72
   133.77         12.40       1296.88        970.16          0.01          3.09
   133.78         12.40       1292.92        967.23          0.01         -0.83
   133.79         12.41       1292.89        967.23          0.01         -4.72
   133.80         12.41       1296.82        970.16          0.01          3.74
   133.81         12.41       1292.33        966.81          0.00         -4.65
   133.82         12.41       1296.82        970.16          0.00          3.80
   133.83         12.40       1292.93        967.23          0.00         -0.05
   133.84         12.40       1292.93        967.23          0.00         -3.92
   133.85         12.40       1297.44        970.58         -0.00          5.11
   133.86         12.40       1293.54        967.65         -0.01         -2.62
   133.87         12.40       1297.44        970.58         -0.01          5.24
   133.88         12.40       1293.49        967.65         -0.00          1.29
   133.89         12.41       1293.45        967.65         -0.00         -2.71
   133.90         12.41       1297.29        970.58          0.00          4.98
   133.91         12.41       1293.30        967.65          0.01         -3.01
   133.92         12.41       1297.76        971.00          0.01          5.33
   133.93         12.41       1293.28        967.65          0.01          0.80
   133.94         12.41       1293.27        967.65          0.01         -3.15
   133.95         12.41       1297.76        971.00          0.01          5.24
   133.96         12.41       1293.27        967.65          0.01         -3.19
   133.97         12.41       1297.14        970.58          0.01          4.54
   133.98         12.41       1293.22        967.65          0.02          0.58
   133.99         12.41       1293.30        967.65          0.01         -3.30
   134.00         12.41       1297.87        971.00          0.01          5.19
   134.01         12.40       1294.07        968.07          0.01         -3.04
