#Written by Robertson Geologging WinLogger V1.0/370
~VERSION INFORMATION
#------------------------------------------------------------------------------
 VERS. 2.0 : CWLS LOG ASCII STANDARD - VERSION 2.0
 WRAP. NO  : ONE LINE PER DEPTH STEP
~WELL INFORMATION
#MNEM.UNIT         DATA                                DESCRIPTION OF MNEMONIC
#------------------------------------------------------------------------------
 STRT.M         44.0600                            :   START DEPTH
 STOP.M        195.1500                            :   STOP DEPTH
 STEP.M          0.0100                            :   STEP VALUE
 NULL.        -999.2500                            :   NULL VALUE
 COMP.    WHITE YOUN GREEN                         :   COMPANY NAME
 WELL.    THRISINGTON SHAFT                        :   WELL NAME
 FLD.     THRISINGTON                              :   FIELD NAME
 LOC.     N/A                                      :   LOCATION
 PROV.    N/A                                      :   PROVINCE
 SRVC.    N/A                                      :   SERVICE COMPANY NAME
 DATE.    15 Dec 06                                :   DATE
 UWI.     N/A                                      :   UNIQUE WELL IDENTIFIER
~PARAMETER INFORMATION
#MNEMO.UNIT         VALUE                 DESCRIPTION OF MNEMONIC
#------------------------------------------------------------------------------
~OTHER INFORMATION SECTION
#------------------------------------------------------------------------------
 lLOGGING DOWN
~CURVE INFORMATION
#MNEMO.UNIT         API CODE              CURVE DESCRIPTION
#------------------------------------------------------------------------------
 DEPTH.M                                 :   0     Depth
 TEMP.DegC                               :   1     Temperature
 CN25.mS/cm                              :   2     Conductivity@25DegC
 COND.mS/cm                              :   3     Conductivity
 DELT.DegC                               :   4     Delta T
 DELC.mS/cm                              :   5     Delta C
 NGAM.CPS                                :   6     Natural Gamma
#------------------------------------------------------------------------------
~A  DEPTH     TEMP      CN25      COND      DELT      DELC      NGAM      
# ...
   184.18     12.64      7.80      1.61      0.00     -0.01      0.00 
   184.19     12.64      7.81      1.61      0.00     -0.01      0.00 
   184.20     12.64      7.81      1.61      0.00     -0.00      0.00 
   184.21     12.64      7.81      1.61      0.00     -0.00      0.00 
   184.22     12.64      7.81      1.61      0.00      0.00      0.00 
   184.23     12.64      7.81      1.61     -0.00      0.00      0.00 
   184.24     12.64      7.81      1.61     -0.00      0.00      0.00 
   184.25     12.65      7.80      1.61     -0.00     -0.00      0.00 
   184.26     12.65      7.81      1.61     -0.00      0.01      0.00 
   184.27     12.65      7.80      1.61     -0.00      0.00      0.00 
   184.28     12.65      7.80      1.61     -0.00      0.00      0.00 
   184.29     12.65      7.80      1.61      0.00      0.00      0.00 
   184.30     12.65      7.80      1.61      0.00     -0.00      0.00 
   184.31     12.65      7.80      1.61      0.00     -0.00      0.00 
   184.32     12.65      7.80      1.61      0.00     -0.01      0.00 
   184.33     12.65      7.80      1.61      0.00     -0.00      0.00 
   184.34     12.65      7.80      1.61      0.01     -0.01      0.00 
   184.35     12.65      7.80      1.61      0.01     -0.01      0.00 
   184.36     12.65      7.80      1.61      0.00     -0.00      0.00 
   184.37     12.65      7.80      1.61      0.00     -0.00      0.00 
   184.38     12.65      7.80      1.61      0.00     -0.00      0.00 
   184.39     12.65      7.80      1.60      0.00     -0.01      0.00 
   184.40     12.64      7.81      1.61     -0.00      0.00      0.00 
   184.41     12.64      7.81      1.61     -0.00      0.00      0.00 
   184.42     12.64      7.81      1.60     -0.01      0.00      0.00 
   184.43     12.64      7.80      1.60     -0.01      0.01      0.00 
   184.44     12.64      7.80      1.60     -0.01      0.00      0.82 
   184.45     12.64      7.81      1.60     -0.01      0.01      0.82 
   184.46     12.64      7.81      1.61     -0.01      0.01      0.82 
   184.47     12.64      7.81      1.60     -0.01      0.00      0.82 
   184.48     12.64      7.81      1.61     -0.01      0.01      0.82 
   184.49     12.64      7.81      1.60     -0.01      0.01      0.82 
   184.50     12.64      7.81      1.61     -0.01      0.00      0.82 
   184.51     12.64      7.80      1.61     -0.00      0.00      0.82 
   184.52     12.65      7.80      1.61      0.00      0.00      0.82 
   184.53     12.65      7.80      1.61      0.01     -0.00      0.82 
   184.54     12.65      7.80      1.61      0.01     -0.01      0.82 
   184.55     12.65      7.80      1.61      0.01     -0.01      0.82 
   184.56     12.65      7.80      1.61      0.02     -0.01      0.82 
   184.57     12.65      7.80      1.61      0.02     -0.02      0.82 
   184.58     12.65      7.80      1.61      0.01     -0.01      0.82 
   184.59     12.65      7.80      1.61      0.01     -0.02      0.82 
   184.60     12.64      7.81      1.61      0.01     -0.01      0.82 
   184.61     12.65      7.80      1.61      0.01     -0.01      0.00 
   184.62     12.65      7.80      1.61      0.01     -0.01      0.00 
   184.63     12.65      7.80      1.61      0.02     -0.02      0.00 
   184.64     12.65      7.80      1.61      0.01     -0.02      0.00 
   184.65     12.65      7.80      1.61      0.01     -0.00      0.00 
   184.66     12.65      7.80      1.61      0.00     -0.01      0.00 
   184.67     12.64      7.80      1.61      0.00      0.00      0.00 
   184.68     12.65      7.80      1.61      0.00     -0.00      0.00 
   184.69     12.65      7.80      1.61      0.00     -0.00      0.00 
   184.70     12.65      7.80      1.61      0.01     -0.00      0.00 
   184.71     12.65      7.80      1.61      0.01     -0.01      0.00 
   184.72     12.65      7.81      1.61      0.00      0.00      0.00 
   184.73     12.65      7.80      1.61      0.00     -0.00      0.00 
   184.74     12.64      7.81      1.61     -0.00      0.00      0.00 
   184.75     12.64      7.81      1.61     -0.00      0.01      0.00 
   184.76     12.64      7.81      1.61     -0.00      0.00      0.00 
   184.77     12.64      7.81      1.61     -0.00      0.00      0.00 
   184.78     12.64      7.81      1.61     -0.00      0.00      0.00 
   184.79     12.64      7.81      1.61     -0.01      0.01      0.41 
   184.80     12.64      7.81      1.61     -0.01      0.01      0.41 
   184.81     12.64      7.81      1.61     -0.01      0.02      0.41 
   184.82     12.64      7.81      1.61     -0.01      0.01      0.41 
   184.83     12.64      7.81      1.61     -0.01      0.01      0.41 
   184.84     12.64      7.81      1.61     -0.01      0.01      0.41 
   184.85     12.64      7.81      1.61     -0.01      0.01      0.41 
   184.86     12.64      7.81      1.61     -0.01      0.01      0.41 
   184.87     12.64      7.81      1.61     -0.01      0.01      0.41 
   184.88     12.64      7.82      1.61     -0.01      0.01      0.41 
   184.89     12.64      7.81      1.61     -0.00      0.01      0.41 
   184.90     12.64      7.81      1.61     -0.00      0.01      0.41 
   184.91     12.64      7.82      1.61     -0.00      0.01      0.41 
   184.92     12.64      7.81      1.61     -0.00     -0.00      0.41 
   184.93     12.64      7.81      1.61     -0.00      0.00      0.41 
   184.94     12.64      7.81      1.61      0.00      0.00      0.41 
   184.95     12.64      7.81      1.61      0.00     -0.00      0.41 
   184.96     12.64      7.81      1.61      0.00     -0.00      0.00 
   184.97     12.64      7.81      1.61      0.00     -0.01      0.00 
   184.98     12.64      7.81      1.61      0.00     -0.01      0.00 
   184.99     12.64      7.81      1.61      0.00     -0.01      0.00 
   185.00     12.64      7.81      1.60      0.00     -0.01      0.00 
   185.01     12.64      7.81      1.61      0.00     -0.00      0.00 
   185.02     12.64      7.81      1.60      0.00     -0.01      0.00 
   185.03     12.64      7.81      1.61     -0.00      0.00      0.41 
   185.04     12.64      7.82      1.61     -0.00      0.00      0.41 
   185.05     12.64      7.81      1.61     -0.00      0.00      0.41 
   185.06     12.64      7.81      1.60     -0.00      0.00      0.41 
   185.07     12.64      7.81      1.61     -0.00      0.00      0.41 
   185.08     12.64      7.81      1.61     -0.00      0.00      0.41 
   185.09     12.64      7.81      1.61     -0.01      0.01      0.41 
   185.10     12.64      7.81      1.60     -0.01      0.01      0.41 
   185.11     12.64      7.81      1.61     -0.00      0.00      0.41 
   185.12     12.64      7.81      1.61     -0.00      0.00      0.41 
   185.13     12.64      7.80      1.61     -0.00      0.00      0.88 
   185.14     12.64      7.81      1.61     -0.00      0.00      0.88 
   185.15     12.64      7.80      1.61     -0.00      0.00      0.88 
   185.16     12.64      7.81      1.61     -0.00      0.00      0.88 
   185.17     12.64      7.81      1.61     -0.00      0.01      0.88 
   185.18     12.64      7.81      1.61     -0.00      0.00      0.88 
   185.19     12.64      7.82      1.61     -0.00      0.01      0.88 
   185.20     12.64      7.81      1.61     -0.00      0.00      0.47 
   185.21     12.64      7.82      1.61     -0.00      0.00      0.47 
   185.22     12.64      7.81      1.61     -0.00      0.00      0.47 
   185.23     12.64      7.81      1.61     -0.00      0.00      0.47 
   185.24     12.64      7.81      1.61     -0.00      0.01      0.47 
   185.25     12.64      7.80      1.61     -0.00     -0.00      0.47 
   185.26     12.64      7.81      1.61     -0.01      0.00      0.47 
   185.27     12.64      7.80      1.61     -0.01      0.00      0.47 
   185.28     12.64      7.80      1.61     -0.01      0.00      0.47 
   185.29     12.65      7.80      1.61     -0.00      0.00      0.47 
   185.30     12.65      7.80      1.61     -0.01      0.00      0.00 
