#Written by Robertson Geologging WinLogger V1.5/410
~VERSION INFORMATION
#------------------------------------------------------------------------------
 VERS. 2.0 : CWLS LOG ASCII STANDARD - VERSION 2.0
 WRAP. NO  : ONE LINE PER DEPTH STEP
~WELL INFORMATION
#MNEM.UNIT         DATA                                DESCRIPTION OF MNEMONIC
#------------------------------------------------------------------------------
 STRT.M        191.7300                            :   START DEPTH
 STOP.M         42.4500                            :   STOP DEPTH
 STEP.M         -0.0100                            :   STEP VALUE
 NULL.        -999.2500                            :   NULL VALUE
 COMP.    I.W.S.                                   :   COMPANY NAME
 WELL.    THRISLINGTON                             :   WELL NAME
 FLD.     N/A                                      :   FIELD NAME
 LOC.     N/A                                      :   LOCATION
 PROV.    N/A                                      :   PROVINCE
 SRVC.    N/A                                      :   SERVICE COMPANY NAME
 DATE.    14 Nov 11                                :   DATE
 UWI.     N/A                                      :   UNIQUE WELL IDENTIFIER
~PARAMETER INFORMATION
#MNEMO.UNIT         VALUE                 DESCRIPTION OF MNEMONIC
#------------------------------------------------------------------------------
~OTHER INFORMATION SECTION
#------------------------------------------------------------------------------
 1365 LOW
~CURVE INFORMATION
#MNEMO.UNIT         API CODE              CURVE DESCRIPTION
#------------------------------------------------------------------------------
 DEPTH.M                                 :   0     Depth
 TEMP.DegC                               :   1     Temperature
 COND.uS/cm                              :   2     Conductivity
 DELT.DegC                               :   3     Delta T
 DELC.uS/cm                              :   4     Delta C
 NGAM.CPS                                :   5     Natural Gamma
#------------------------------------------------------------------------------
~A  DEPTH          TEMP          COND          DELT          DELC          NGAM
# ...
    43.73          0.00          0.00          0.00          0.00          0.00
    43.72          0.00          0.00          0.00          0.00          0.00
    43.71          0.00          0.00          0.00          0.00          0.00
    43.70          0.00          0.00          0.00          0.00          0.00
    43.69          0.00          0.00          0.00          0.00          0.00
    43.68          0.00          0.00          0.00          0.00          0.00
    43.67          0.00          0.00          0.00          0.00          0.00
    43.66          0.00          0.00          0.00          0.00          0.00
    43.65          0.00          0.00          0.00          0.00          0.00
    43.64          0.00          0.00          0.00          0.00          0.00
    43.63          0.00          0.00          0.00          0.00          0.00
    43.62          0.00          0.00          0.00          0.00          0.00
    43.61          0.00          0.00          0.00          0.00          0.00
    43.60          0.00          0.00          0.00          0.00          0.00
    43.59          0.00          0.00          0.00          0.00          0.00
    43.58          0.00          0.00          0.00          0.00          0.00
    43.57          0.00          0.00          0.00          0.00          0.00
    43.56          0.00          0.00          0.00          0.00          0.00
    43.55          0.00          0.00          0.00          0.00          0.00
    43.54          0.00          0.00          0.00          0.00          0.00
    43.53          0.00          0.00          0.00          0.00          0.00
    43.52          0.00          0.00          0.00          0.00          0.00
    43.51          0.00          0.00          0.00          0.00          0.00
    43.50          0.00          0.00          0.00          0.00          0.00
    43.49          0.00          0.00          0.00          0.00          0.00
    43.48          0.00          0.00          0.00          0.00          0.00
    43.47          0.00          0.00          0.00          0.00          0.00
    43.46          0.00          0.00          0.00          0.00          0.00
    43.45          0.00          0.00          0.00          0.00          0.00
    43.44          0.00          0.00          0.00          0.00          0.00
    43.43          0.00          0.00          0.00          0.00          0.00
    43.42          0.00          0.00          0.00          0.00          0.00
    43.41          0.00          0.00          0.00          0.00          0.00
    43.40          0.00          0.00          0.00          0.00          0.00
    43.39          0.00          0.00          0.00          0.00          0.00
    43.38          0.00          0.00          0.00          0.00          0.00
    43.37          0.00          0.00          0.00          0.00          0.00
    43.36          0.00          0.00          0.00          0.00          0.00
    43.35          0.00          0.00          0.00          0.00          0.00
    43.34          0.00          0.00          0.00          0.00          0.00
    43.33          0.00          0.00          0.00          0.00          0.00
    43.32          0.00          0.00          0.00          0.00          0.00
    43.31          0.00          0.00          0.00          0.00          0.00
    43.30          0.00          0.00          0.00          0.00          0.00
    43.29          0.00          0.00          0.00          0.00          0.00
    43.28          0.00          0.00          0.00          0.00          0.00
    43.27          0.00          0.00          0.00          0.00          0.00
    43.26          0.00          0.00          0.00          0.00          0.00
    43.25          0.00          0.00          0.00          0.00          0.00
    43.24          0.00          0.00          0.00          0.00          0.00
    43.23          0.00          0.00          0.00          0.00          0.00
    43.22          0.00          0.00          0.00          0.00          0.00
    43.21          0.00          0.00          0.00          0.00          0.00
    43.20          0.00          0.00          0.00          0.00          0.00
    43.19          0.00          0.00          0.00          0.00          0.00
    43.18          0.00          0.00          0.00          0.00          0.00
    43.17          0.00          0.00          0.00          0.00          0.00
    43.16          0.00          0.00          0.00          0.00          0.00
    43.15          0.00          0.00          0.00          0.00          0.00
    43.14          0.00          0.00          0.00          0.00          0.00
    43.13          0.00          0.00          0.00          0.00          0.00
    43.12          0.00          0.00          0.00          0.00          0.00
    43.11          0.00          0.00          0.00          0.00          0.00
    43.10          0.00          0.00          0.00          0.00          0.00
    43.09          0.00          0.00          0.00          0.00          0.00
    43.08          0.00          0.00          0.00          0.00          0.00
    43.07          0.00          0.00          0.00          0.00          0.00
    43.06          0.00          0.00          0.00          0.00          0.00
    43.05          0.00          0.00          0.00          0.00          0.00
    43.04          0.00          0.00          0.00          0.00          0.00
    43.03          0.00          0.00          0.00          0.00          0.00
    43.02          0.00          0.00          0.00          0.00          0.00
    43.01          0.00          0.00          0.00          0.00          0.00
    43.00          0.00          0.00          0.00          0.00          0.00
    42.99          0.00          0.00          0.00          0.00          0.00
    42.98          0.00          0.00          0.00          0.00          0.00
    42.97          0.00          0.00          0.00          0.00          0.00
    42.96          0.00          0.00          0.00          0.00          0.00
    42.95          0.00          0.00          0.00          0.00          0.00
    42.94          0.00          0.00          0.00          0.00          0.00
    42.93          0.00          0.00          0.00          0.00          0.00
    42.92          0.00          0.00          0.00          0.00          0.00
    42.91          0.00          0.00          0.00          0.00          0.00
    42.90          0.00          0.00          0.00          0.00          0.00
    42.89          0.00          0.00          0.00          0.00          0.00
    42.88          0.00          0.00          0.00          0.00          0.00
    42.87          0.00          0.00          0.00          0.00          0.00
    42.86          0.00          0.00          0.00          0.00          0.00
    42.85          0.00          0.00          0.00          0.00          0.00
    42.84          0.00          0.00          0.00          0.00          0.00
    42.83          0.00          0.00          0.00          0.00          0.00
    42.82          0.00          0.00          0.00          0.00          0.00
    42.81          0.00          0.00          0.00          0.00          0.00
    42.80          0.00          0.00          0.00          0.00          0.00
    42.79          0.00          0.00          0.00          0.00          0.00
    42.78          0.00          0.00          0.00          0.00          0.00
    42.77          0.00          0.00          0.00          0.00          0.00
    42.76          0.00          0.00          0.00          0.00          0.00
    42.75          0.00          0.00          0.00          0.00          0.00
    42.74          0.00          0.00          0.00          0.00          0.00
