#Written by Robertson Geologging WinLogger V1.5/410
~VERSION INFORMATION
#------------------------------------------------------------------------------
 VERS. 2.0 : CWLS LOG ASCII STANDARD - VERSION 2.0
 WRAP. NO  : ONE LINE PER DEPTH STEP
~WELL INFORMATION
#MNEM.UNIT         DATA                                DESCRIPTION OF MNEMONIC
#------------------------------------------------------------------------------
 STRT.M         25.0100                            :   START DEPTH
 STOP.M        192.0000                            :   STOP DEPTH
 STEP.M          0.0100                            :   STEP VALUE
 NULL.        -999.2500                            :   NULL VALUE
 COMP.    IWS                                      :   COMPANY NAME
 WELL.    Thristlington                            :   WELL NAME
 FLD.     N/A                                      :   FIELD NAME
 LOC.     N/A                                      :   LOCATION
 PROV.    N/A                                      :   PROVINCE
 SRVC.    N/A                                      :   SERVICE COMPANY NAME
 DATE.    01 Feb 11                                :   DATE
 UWI.     N/A                                      :   UNIQUE WELL IDENTIFIER
~PARAMETER INFORMATION
#MNEMO.UNIT         VALUE                 DESCRIPTION OF MNEMONIC
#------------------------------------------------------------------------------
~OTHER INFORMATION SECTION
#------------------------------------------------------------------------------
 1365
~CURVE INFORMATION
#MNEMO.UNIT         API CODE              CURVE DESCRIPTION
#------------------------------------------------------------------------------
 DEPTH.M                                 :   0     Depth
 TEMP.DegC                               :   1     Temperature
 CN25.uS/cm                              :   2     Conductivity@25DegC
 DELT.DegC                               :   3     Delta T
 DELC.uS/cm                              :   4     Delta C
#------------------------------------------------------------------------------
~A  DEPTH          TEMP          CN25          DELT          DELC
    25.01          0.00         15.89          0.00          0.00
    25.02          0.00         15.89          0.00          0.00
    25.03          0.00         15.89          0.00          0.00
    25.04          0.00         15.89          0.00          0.00
    25.05          0.00         15.89          0.00          0.00
    25.06          0.00         15.89          0.00          0.00
    25.07          0.00         15.89          0.00          0.00
    25.08          0.00         15.89          0.00          0.00
    25.09          0.00         15.89          0.00          0.00
    25.10          0.00         15.89          0.00          0.00
    25.11          0.00         15.89          0.00          0.00
    25.12          0.00         15.89          0.00          0.00
    25.13          0.00         15.89          0.00          0.00
    25.14          0.00         15.89          0.00          0.00
    25.15          0.00         15.89          0.00          0.00
    25.16          0.00         15.89          0.00          0.00
    25.17          0.00         15.89          0.00          0.00
    25.18          0.00         15.89          0.00          0.00
    25.19          0.00         15.89          0.00          0.00
    25.20          0.00         15.89          0.00          0.00
    25.21          0.00         15.89          0.00          0.00
    25.22          0.00         15.89          0.00          0.00
    25.23          0.00         15.89          0.00          0.00
    25.24          0.00         15.89          0.00          0.00
    25.25          0.00         15.89          0.00          0.00
    25.26          0.00         15.89          0.00          0.00
    25.27          0.00         15.89          0.00          0.00
    25.28          0.00         15.89          0.00          0.00
    25.29          0.00         15.89          0.00          0.00
    25.30          0.00         15.89          0.00          0.00
    25.31          0.00         15.89          0.00          0.00
    25.32          0.00         15.89          0.00          0.00
    25.33          0.00         15.89          0.00          0.00
    25.34          0.00         15.89          0.00          0.00
    25.35          0.00         15.89          0.00          0.00
    25.36          0.00         15.89          0.00          0.00
    25.37          0.00         15.89          0.00          0.00
    25.38          0.00         15.89          0.00          0.00
    25.39          0.00         15.89          0.00          0.00
    25.40          0.00         15.89          0.00          0.00
    25.41          0.00         15.89          0.00          0.00
    25.42          0.00         15.89          0.00          0.00
    25.43          0.00         15.89          0.00          0.00
    25.44          0.00         15.89          0.00          0.00
    25.45          0.00         15.89          0.00          0.00
    25.46          0.00         15.89          0.00          0.00
    25.47          0.00         15.89          0.00          0.00
    25.48          0.00         15.89          0.00          0.00
    25.49          0.00         15.89          0.00          0.00
    25.50          0.00         15.89          0.00          0.00
    25.51          0.00         15.89          0.00          0.00
    25.52          0.00         15.89          0.00          0.00
    25.53          0.00         15.89          0.00          0.00
    25.54          0.00         15.89          0.00          0.00
    25.55          0.00         15.89          0.00          0.00
    25.56          0.00         15.89          0.00          0.00
    25.57          0.00         15.89          0.00          0.00
    25.58          0.00         15.89          0.00          0.00
    25.59          0.00         15.89          0.00          0.00
    25.60          0.00         15.89          0.00          0.00
    25.61          0.00         15.89          0.00          0.00
    25.62          0.00         15.89          0.00          0.00
    25.63          0.00         15.89          0.00          0.00
    25.64          0.00         15.89          0.00          0.00
    25.65          0.00         15.89          0.00          0.00
    25.66          0.00         15.89          0.00          0.00
    25.67          0.00         15.89          0.00          0.00
    25.68          0.00         15.89          0.00          0.00
    25.69          0.00         15.89          0.00          0.00
    25.70          0.00         15.89          0.00          0.00
    25.71          0.00         15.89          0.00          0.00
    25.72          0.00         15.89          0.00          0.00
    25.73          0.00         15.89          0.00          0.00
    25.74          0.00         15.89          0.00          0.00
    25.75          0.00         15.89          0.00          0.00
    25.76          0.00         15.89          0.00          0.00
    25.77          0.00         15.89          0.00          0.00
    25.78          0.00         15.89          0.00          0.00
    25.79          0.00         15.89          0.00          0.00
    25.80          0.00         15.89          0.00          0.00
    25.81          0.00         15.89          0.00          0.00
    25.82          0.00         15.89          0.00          0.00
    25.83          0.00         15.89          0.00          0.00
    25.84          0.00         15.89          0.00          0.00
    25.85          0.00         15.89          0.00          0.00
    25.86          0.00         15.89          0.00          0.00
    25.87          0.00         15.89          0.00          0.00
    25.88          0.00         15.89          0.00          0.00
    25.89          0.00         15.89          0.00          0.00
    25.90          0.00         15.89          0.00          0.00
    25.91          0.00         15.89          0.00          0.00
    25.92          0.00         15.89          0.00          0.00
    25.93          0.00         15.89          0.00          0.00
    25.94          0.00         15.89          0.00          0.00
    25.95          0.00         15.89          0.00          0.00
    25.96          0.00         15.89          0.00          0.00
    25.97          0.00         15.89          0.00          0.00
    25.98          0.00         15.89          0.00          0.00
    25.99          0.00         15.89          0.00          0.00
    26.00          0.00         15.89          0.00          0.00
    26.01          0.00         15.89          0.00          0.00
    26.02          0.00         15.89          0.00          0.00
    26.03          0.00         15.89          0.00          0.00
    26.04          0.00         15.89          0.00          0.00
    26.05          0.00         15.89          0.00          0.00
    26.06          0.00         15.89          0.00          0.00
    26.07          0.00         15.89          0.00          0.00
    26.08          0.00         15.89          0.00          0.00
    26.09          0.00         15.89          0.00          0.00
    26.10          0.00         15.89          0.00          0.00
    26.11          0.00         15.89          0.00          0.00
    26.12          0.00         15.89          0.00          0.00
    26.13          0.00         15.89          0.00          0.00
    26.14          0.00         15.89          0.00          0.00
    26.15          0.00         15.89          0.00          0.00
    26.16          0.00         15.89          0.00          0.00
    26.17          0.00         15.89          0.00          0.00
    26.18          0.00         15.89          0.00          0.00
    26.19          0.00         15.89          0.00          0.00
    26.20          0.00         15.89          0.00          0.00
    26.21          0.00         15.89          0.00          0.00
    26.22          0.00         15.89          0.00          0.00
