#Written by Robertson Geologging WinLogger V1.5/410
~VERSION INFORMATION
#------------------------------------------------------------------------------
 VERS. 2.0 : CWLS LOG ASCII STANDARD - VERSION 2.0
 WRAP. NO  : ONE LINE PER DEPTH STEP
~WELL INFORMATION
#MNEM.UNIT         DATA                                DESCRIPTION OF MNEMONIC
#------------------------------------------------------------------------------
 STRT.M         25.0100                            :   START DEPTH
 STOP.M        192.0000                            :   STOP DEPTH
 STEP.M          0.0100                            :   STEP VALUE
 NULL.        -999.2500                            :   NULL VALUE
 COMP.    IWS                                      :   COMPANY NAME
 WELL.    Thristlington                            :   WELL NAME
 FLD.     N/A                                      :   FIELD NAME
 LOC.     N/A                                      :   LOCATION
 PROV.    N/A                                      :   PROVINCE
 SRVC.    N/A                                      :   SERVICE COMPANY NAME
 DATE.    01 Feb 11                                :   DATE
 UWI.     N/A                                      :   UNIQUE WELL IDENTIFIER
~PARAMETER INFORMATION
#MNEMO.UNIT         VALUE                 DESCRIPTION OF MNEMONIC
#------------------------------------------------------------------------------
~OTHER INFORMATION SECTION
#------------------------------------------------------------------------------
 1365
~CURVE INFORMATION
#MNEMO.UNIT         API CODE              CURVE DESCRIPTION
#------------------------------------------------------------------------------
 DEPTH.M                                 :   0     Depth
 TEMP.DegC                               :   1     Temperature
 CN25.uS/cm                              :   2     Conductivity@25DegC
 DELT.DegC                               :   3     Delta T
 DELC.uS/cm                              :   4     Delta C
#------------------------------------------------------------------------------
~A  DEPTH          TEMP          CN25          DELT          DELC
# ...
   168.97         12.18       1181.22         -0.00         -0.46
   168.98         12.18       1179.02         -0.01         -2.60
   168.99         12.18       1179.02         -0.01          1.37
   169.00         12.18       1177.35         -0.01         -3.67
   169.01         12.18       1178.40         -0.00          1.28
   169.02         12.18       1178.33         -0.00          1.20
   169.03         12.18       1176.60         -0.00         -0.53
   169.04         12.19       1179.95          0.00         -0.56
   169.05         12.19       1177.67          0.00          1.07
   169.06         12.19       1175.94          0.00         -0.70
   169.07         12.19       1177.63          0.01          0.93
   169.08         12.19       1176.46          0.01         -0.38
   169.09         12.19       1176.49          0.01         -0.43
   169.10         12.19       1178.78          0.01          0.17
   169.11         12.19       1180.49          0.01          2.97
   169.12         12.18       1175.50          0.01         -3.66
   169.13         12.18       1178.93          0.01         -0.18
   169.14         12.18       1180.67          0.00         -0.68
   169.15         12.18       1175.63          0.00         -2.32
   169.16         12.18       1175.63          0.00         -3.99
   169.17         12.18       1179.57          0.00         -2.27
   169.18         12.18       1179.55         -0.00          0.03
   169.19         12.18       1179.53         -0.00          0.11
   169.20         12.18       1179.47         -0.00          0.11
   169.21         12.18       1175.50         -0.00         -7.28
   169.22         12.18       1175.49          0.00         -3.39
   169.23         12.19       1180.52          0.00          1.63
   169.24         12.19       1175.46          0.00         -3.46
   169.25         12.18       1175.48          0.00         -3.44
   169.26         12.18       1179.45          0.00          0.53
   169.27         12.18       1179.49          0.00         -1.73
   169.28         12.18       1179.52          0.00          0.51
   169.29         12.18       1179.49          0.01          0.39
   169.30         12.18       1177.22          0.01         -4.20
   169.31         12.18       1175.56          0.01         -5.89
   169.32         12.18       1180.61          0.01          4.25
   169.33         12.18       1178.94          0.01          0.90
   169.34         12.18       1175.56          0.01         -5.89
   169.35         12.18       1180.59          0.01          0.81
   169.36         12.19       1178.84          0.01          1.29
   169.37         12.19       1176.53          0.01         -3.27
   169.38         12.19       1176.49          0.01         -1.00
   169.39         12.19       1176.49          0.01         -3.23
   169.40         12.19       1176.53          0.01         -1.44
   169.41         12.19       1178.83          0.01          3.12
   169.42         12.19       1180.52          0.01          2.53
   169.43         12.19       1177.15          0.01         -2.51
   169.44         12.18       1177.18          0.01         -4.70
   169.45         12.18       1180.54          0.00          2.10
   169.46         12.19       1177.15          0.00         -2.94
   169.47         12.19       1177.11          0.01         -1.30
   169.48         12.19       1180.42          0.01          0.86
   169.49         12.19       1178.70          0.01          0.79
   169.50         12.19       1176.39          0.01          0.73
   169.51         12.19       1178.63          0.01         -0.98
   169.52         12.19       1176.36          0.01         -3.20
   169.53         12.19       1174.66          0.01         -4.82
   169.54         12.19       1178.05          0.01         -1.40
   169.55         12.19       1179.71          0.01          2.56
   169.56         12.19       1174.64          0.01         -0.82
   169.57         12.19       1175.80          0.01         -3.04
   169.58         12.19       1177.56          0.00         -2.94
   169.59         12.19       1177.64          0.00          2.22
   169.60         12.19       1177.71         -0.00          0.63
   169.61         12.18       1177.78         -0.00         -2.66
   169.62         12.18       1175.55         -0.01         -2.62
   169.63         12.18       1177.81         -0.01          1.32
   169.64         12.18       1179.56         -0.01          1.87
   169.65         12.18       1178.46         -0.01          0.76
   169.66         12.18       1178.49         -0.01          2.45
   169.67         12.18       1178.53         -0.01          0.80
   169.68         12.18       1180.77         -0.01          3.09
   169.69         12.18       1179.08         -0.01          3.09
   169.70         12.18       1175.72         -0.01         -1.94
   169.71         12.18       1177.38         -0.01         -0.27
   169.72         12.18       1179.60         -0.01          1.96
   169.73         12.18       1179.56         -0.01          3.61
   169.74         12.18       1177.22         -0.00         -0.42
   169.75         12.19       1179.36         -0.00          1.76
   169.76         12.19       1177.01          0.00          1.11
   169.77         12.19       1176.92          0.00         -0.66
   169.78         12.19       1178.57          0.00          1.00
   169.79         12.19       1177.46          0.00         -0.13
   169.80         12.19       1179.16          0.00          1.59
   169.81         12.19       1179.20          0.00          1.63
   169.82         12.19       1179.23          0.00          1.67
   169.83         12.19       1179.25         -0.00          2.83
   169.84         12.19       1179.26          0.00          1.13
   169.85         12.19       1179.29         -0.00          1.20
   169.86         12.19       1179.30         -0.00          2.35
   169.87         12.19       1179.32         -0.00          0.66
   169.88         12.19       1179.33         -0.00          0.71
   169.89         12.19       1179.27         -0.00         -1.65
   169.90         12.19       1179.25          0.00          1.65
   169.91         12.19       1179.20          0.00         -0.10
   169.92         12.19       1179.15          0.01         -0.17
   169.93         12.19       1181.40          0.01         -0.20
   169.94         12.19       1179.13          0.01         -0.26
   169.95         12.19       1179.13          0.01          1.41
   169.96         12.19       1179.13          0.01         -2.09
   169.97         12.19       1179.16          0.01          0.14
   169.98         12.19       1179.22          0.01          0.19
   169.99         12.19       1179.27          0.01          1.93
   170.00         12.19       1181.63          0.00          3.22
   170.01         12.18       1179.42          0.00          1.08
   170.02         12.18       1179.43         -0.00          2.83
   170.03         12.18       1179.46         -0.00         -0.49
   170.04         12.18       1179.47         -0.00          1.80
   170.05         12.18       1179.47         -0.00          3.53
   170.06         12.18       1179.47         -0.00          1.85
   170.07         12.18       1181.73         -0.01          5.27
   170.08         12.18       1179.46         -0.00          2.97
   170.09         12.18       1177.76         -0.00         -1.03
   170.10         12.18       1177.77         -0.00         -2.72
   170.11         12.18       1178.93         -0.00          3.42
   170.12         12.18       1178.95         -0.00          0.03
   170.13         12.18       1177.29          0.00         -3.38
   170.14         12.18       1177.31          0.00          1.68
   170.15         12.18       1178.40          0.00          2.77
   170.16         12.18       1178.43          0.00         -1.14
   170.17         12.18       1176.81         -0.00         -2.73
   170.18         12.18       1177.97         -0.00         -1.56
