#Written by Robertson Geologging WinLogger V1.0/370
~VERSION INFORMATION
#------------------------------------------------------------------------------
 VERS. 2.0 : CWLS LOG ASCII STANDARD - VERSION 2.0
 WRAP. NO  : ONE LINE PER DEPTH STEP
~WELL INFORMATION
#MNEM.UNIT         DATA                                DESCRIPTION OF MNEMONIC
#------------------------------------------------------------------------------
 STRT.M         44.0600                            :   START DEPTH
 STOP.M        195.1500                            :   STOP DEPTH
 STEP.M          0.0100                            :   STEP VALUE
 NULL.        -999.2500                            :   NULL VALUE
 COMP.    WHITE YOUN GREEN                         :   COMPANY NAME
 WELL.    THRISINGTON SHAFT                        :   WELL NAME
 FLD.     THRISINGTON                              :   FIELD NAME
 LOC.     N/A                                      :   LOCATION
 PROV.    N/A                                      :   PROVINCE
 SRVC.    N/A                                      :   SERVICE COMPANY NAME
 DATE.    15 Dec 06                                :   DATE
 UWI.     N/A                                      :   UNIQUE WELL IDENTIFIER
~PARAMETER INFORMATION
#MNEMO.UNIT         VALUE                 DESCRIPTION OF MNEMONIC
#------------------------------------------------------------------------------
~OTHER INFORMATION SECTION
#------------------------------------------------------------------------------
 lLOGGING DOWN
~CURVE INFORMATION
#MNEMO.UNIT         API CODE              CURVE DESCRIPTION
#------------------------------------------------------------------------------
 DEPTH.M                                 :   0     Depth
 TEMP.DegC                               :   1     Temperature
 CN25.mS/cm                              :   2     Conductivity@25DegC
 COND.mS/cm                              :   3     Conductivity
 DELT.DegC                               :   4     Delta T
 DELC.mS/cm                              :   5     Delta C
 NGAM.CPS                                :   6     Natural Gamma
#------------------------------------------------------------------------------
~A  DEPTH     TEMP      CN25      COND      DELT      DELC      NGAM      
# ...
   144.63     12.64      7.81      1.61      0.00     -0.00      0.00 
   144.64     12.64      7.81      1.61      0.00     -0.01      0.00 
   144.65     12.64      7.81      1.61      0.00      0.00      0.00 
   144.66     12.64      7.80      1.61      0.01     -0.01      0.00 
   144.67     12.64      7.81      1.61      0.01     -0.00      0.00 
   144.68     12.65      7.81      1.61      0.01     -0.01      0.00 
   144.69     12.65      7.80      1.61      0.00     -0.00      0.00 
   144.70     12.64      7.81      1.61      0.00     -0.00      0.00 
   144.71     12.64      7.81      1.61      0.00     -0.00      0.00 
   144.72     12.64      7.81      1.61     -0.00     -0.00      0.00 
   144.73     12.64      7.81      1.61      0.00     -0.00      0.00 
   144.74     12.64      7.81      1.61      0.00     -0.01      0.00 
   144.75     12.64      7.81      1.61      0.00      0.00      0.47 
   144.76     12.64      7.81      1.60      0.00     -0.01      0.47 
   144.77     12.64      7.81      1.61      0.00      0.00      0.47 
   144.78     12.64      7.81      1.61      0.00     -0.01      0.47 
   144.79     12.64      7.81      1.61      0.00      0.00      0.47 
   144.80     12.64      7.81      1.61      0.00     -0.01      0.47 
   144.81     12.64      7.81      1.61      0.00     -0.00      0.47 
   144.82     12.64      7.81      1.61      0.00      0.00      0.47 
   144.83     12.64      7.81      1.61     -0.00     -0.00      0.47 
   144.84     12.64      7.81      1.61     -0.00      0.00      0.47 
   144.85     12.64      7.81      1.61     -0.01      0.00      0.47 
   144.86     12.64      7.81      1.60     -0.01      0.00      0.47 
   144.87     12.64      7.81      1.61     -0.01      0.01      0.47 
   144.88     12.64      7.81      1.60     -0.01      0.00      0.47 
   144.89     12.64      7.81      1.61     -0.01      0.01      0.47 
   144.90     12.64      7.81      1.61     -0.01      0.01      0.47 
   144.91     12.64      7.81      1.61     -0.01      0.01      0.47 
   144.92     12.64      7.81      1.61     -0.01      0.01      0.00 
   144.93     12.64      7.81      1.60     -0.00      0.00      0.00 
   144.94     12.64      7.81      1.61     -0.00      0.00      0.00 
   144.95     12.64      7.81      1.60      0.00     -0.00      0.00 
   144.96     12.64      7.81      1.60      0.00     -0.00      0.00 
   144.97     12.63      7.81      1.61      0.00     -0.00      0.00 
   144.98     12.63      7.81      1.60      0.00     -0.00      0.00 
   144.99     12.63      7.82      1.61     -0.00      0.00      0.00 
   145.00     12.63      7.82      1.61     -0.00      0.01      0.00 
   145.01     12.63      7.82      1.60     -0.01      0.01      0.00 
   145.02     12.63      7.82      1.61     -0.01      0.01      0.00 
   145.03     12.63      7.82      1.60     -0.01      0.01      0.00 
   145.04     12.63      7.82      1.61     -0.01      0.01      0.00 
   145.05     12.63      7.81      1.60     -0.01      0.01      0.00 
   145.06     12.63      7.81      1.60     -0.02      0.01      0.00 
   145.07     12.63      7.82      1.61     -0.02      0.02      0.00 
   145.08     12.64      7.81      1.61     -0.02      0.02      0.00 
   145.09     12.63      7.82      1.61     -0.02      0.02      0.00 
   145.10     12.64      7.81      1.61     -0.01      0.02      0.00 
   145.11     12.64      7.81      1.61     -0.01      0.02      0.00 
   145.12     12.64      7.81      1.61     -0.01      0.02      0.00 
   145.13     12.64      7.81      1.61     -0.01      0.02      0.00 
   145.14     12.64      7.81      1.61     -0.01      0.02      0.00 
   145.15     12.63      7.81      1.61     -0.01      0.02      0.00 
   145.16     12.63      7.82      1.61     -0.01      0.02      0.00 
   145.17     12.63      7.82      1.61     -0.01      0.02      0.00 
   145.18     12.63      7.81      1.61     -0.01      0.01      0.00 
   145.19     12.63      7.82      1.61     -0.01      0.01      0.00 
   145.20     12.63      7.81      1.60     -0.01      0.01      0.00 
   145.21     12.63      7.82      1.61     -0.01      0.01      0.00 
   145.22     12.63      7.81      1.60     -0.01      0.01      0.00 
   145.23     12.63      7.81      1.60     -0.01      0.01      0.00 
   145.24     12.63      7.81      1.60     -0.01      0.01      0.00 
   145.25     12.63      7.81      1.60     -0.01      0.01      0.00 
   145.26     12.63      7.82      1.61     -0.01      0.01      0.00 
   145.27     12.63      7.81      1.60     -0.01      0.00      0.00 
   145.28     12.63      7.82      1.61     -0.01      0.01      0.00 
   145.29     12.63      7.82      1.61     -0.01      0.01      0.00 
   145.30     12.63      7.82      1.61     -0.01      0.01      0.00 
   145.31     12.63      7.81      1.60     -0.01      0.00      0.00 
   145.32     12.63      7.82      1.61     -0.01      0.01      0.00 
   145.33     12.63      7.82      1.61     -0.01      0.00      0.00 
   145.34     12.63      7.82      1.61     -0.01      0.01      0.00 
   145.35     12.63      7.82      1.61     -0.01      0.00      0.00 
   145.36     12.63      7.82      1.61     -0.00      0.00      0.00 
   145.37     12.63      7.82      1.61     -0.00      0.00      0.00 
   145.38     12.63      7.82      1.61     -0.01      0.01      0.41 
   145.39     12.63      7.82      1.61     -0.01      0.00      0.82 
   145.40     12.63      7.81      1.61     -0.01      0.01      0.82 
   145.41     12.63      7.81      1.61     -0.01      0.01      0.82 
   145.42     12.63      7.82      1.61     -0.01      0.01      0.82 
   145.43     12.63      7.81      1.60     -0.01      0.01      0.82 
   145.44     12.63      7.82      1.61     -0.01      0.02      0.82 
   145.45     12.63      7.81      1.61     -0.01      0.01      0.82 
   145.46     12.63      7.82      1.61     -0.01      0.02      0.82 
   145.47     12.63      7.82      1.60     -0.01      0.01      0.82 
   145.48     12.63      7.82      1.61     -0.01      0.02      0.82 
   145.49     12.63      7.82      1.61     -0.01      0.01      1.24 
   145.50     12.63      7.82      1.61     -0.01      0.01      1.24 
   145.51     12.63      7.82      1.61     -0.01      0.01      1.24 
   145.52     12.63      7.82      1.61     -0.01      0.01      1.24 
   145.53     12.63      7.82      1.61     -0.01      0.00      1.24 
   145.54     12.63      7.82      1.61     -0.00      0.00      1.24 
   145.55     12.63      7.82      1.61     -0.00     -0.00      0.82 
   145.56     12.63      7.82      1.61      0.00      0.00      0.41 
   145.57     12.63      7.81      1.61      0.00     -0.01      0.41 
   145.58     12.64      7.82      1.61      0.00     -0.00      0.41 
   145.59     12.64      7.81      1.60      0.00     -0.01      0.41 
   145.60     12.64      7.81      1.61     -0.00     -0.00      0.41 
   145.61     12.64      7.81      1.61     -0.00     -0.00      0.41 
   145.62     12.63      7.81      1.61     -0.00     -0.00      0.41 
   145.63     12.64      7.81      1.61     -0.01      0.01      0.41 
   145.64     12.64      7.81      1.61     -0.01      0.00      0.41 
   145.65     12.64      7.81      1.61     -0.01      0.01      0.41 
   145.66     12.64      7.81      1.61     -0.01      0.01      0.00 
   145.67     12.64      7.81      1.61     -0.01      0.01      0.00 
   145.68     12.63      7.82      1.61     -0.01      0.01      0.00 
   145.69     12.63      7.81      1.60     -0.01      0.01      0.00 
   145.70     12.63      7.82      1.61     -0.01      0.01      0.00 
   145.71     12.63      7.81      1.60     -0.01      0.00      0.00 
   145.72     12.63      7.81      1.61     -0.01      0.01      0.00 
   145.73     12.64      7.81      1.61     -0.00      0.01      0.00 
   145.74     12.64      7.81      1.61     -0.00     -0.00      0.00 
   145.75     12.64      7.81      1.61     -0.00      0.00      0.00 
