#Written by Robertson Geologging WinLogger V1.0/370
~VERSION INFORMATION
#------------------------------------------------------------------------------
 VERS. 2.0 : CWLS LOG ASCII STANDARD - VERSION 2.0
 WRAP. NO  : ONE LINE PER DEPTH STEP
~WELL INFORMATION
#MNEM.UNIT         DATA                                DESCRIPTION OF MNEMONIC
#------------------------------------------------------------------------------
 STRT.M         44.0600                            :   START DEPTH
 STOP.M        195.1500                            :   STOP DEPTH
 STEP.M          0.0100                            :   STEP VALUE
 NULL.        -999.2500                            :   NULL VALUE
 COMP.    WHITE YOUN GREEN                         :   COMPANY NAME
 WELL.    THRISINGTON SHAFT                        :   WELL NAME
 FLD.     THRISINGTON                              :   FIELD NAME
 LOC.     N/A                                      :   LOCATION
 PROV.    N/A                                      :   PROVINCE
 SRVC.    N/A                                      :   SERVICE COMPANY NAME
 DATE.    15 Dec 06                                :   DATE
 UWI.     N/A                                      :   UNIQUE WELL IDENTIFIER
~PARAMETER INFORMATION
#MNEMO.UNIT         VALUE                 DESCRIPTION OF MNEMONIC
#------------------------------------------------------------------------------
~OTHER INFORMATION SECTION
#------------------------------------------------------------------------------
 lLOGGING DOWN
~CURVE INFORMATION
#MNEMO.UNIT         API CODE              CURVE DESCRIPTION
#------------------------------------------------------------------------------
 DEPTH.M                                 :   0     Depth
 TEMP.DegC                               :   1     Temperature
 CN25.mS/cm                              :   2     Conductivity@25DegC
 COND.mS/cm                              :   3     Conductivity
 DELT.DegC                               :   4     Delta T
 DELC.mS/cm                              :   5     Delta C
 NGAM.CPS                                :   6     Natural Gamma
#------------------------------------------------------------------------------
~A  DEPTH     TEMP      CN25      COND      DELT      DELC      NGAM      
# ...
    54.23     11.97      7.95      1.20     -0.02      0.02      0.00 
    54.24     11.98      7.95      1.20     -0.02      0.02      0.00 
    54.25     11.98      7.95      1.20     -0.01      0.01      0.00 
    54.26     11.98      7.94      1.20     -0.01      0.00      0.00 
    54.27     11.98      7.94      1.20     -0.00      0.00      0.00 
    54.28     11.98      7.94      1.20      0.01     -0.00      0.00 
    54.29     11.98      7.94      1.20      0.01     -0.01      0.00 
    54.30     11.99      7.94      1.20      0.01     -0.02      0.00 
    54.31     11.99      7.93      1.20      0.02     -0.02      0.00 
    54.32     11.99      7.94      1.20      0.02     -0.02      0.00 
    54.33     11.99      7.94      1.20      0.02     -0.02      0.41 
    54.34     11.99      7.93      1.20      0.02     -0.02      0.41 
    54.35     11.99      7.94      1.20      0.02     -0.02      0.41 
    54.36     11.99      7.94      1.20      0.01     -0.01      0.41 
    54.37     11.98      7.94      1.20      0.01     -0.01      0.41 
    54.38     11.98      7.94      1.20      0.01     -0.01      0.41 
    54.39     11.98      7.94      1.20      0.00     -0.01      0.41 
    54.40     11.98      7.94      1.20      0.00      0.00      0.41 
    54.41     11.98      7.95      1.20     -0.00      0.01      0.41 
    54.42     11.98      7.95      1.20     -0.00      0.01      0.41 
    54.43     11.98      7.95      1.20     -0.01      0.01      0.41 
    54.44     11.97      7.95      1.20     -0.01      0.01      0.41 
    54.45     11.97      7.95      1.20     -0.01      0.01      0.41 
    54.46     11.97      7.95      1.20     -0.01      0.01      0.41 
    54.47     11.97      7.95      1.20     -0.01      0.01      0.41 
    54.48     11.97      7.95      1.20     -0.01      0.02      0.41 
    54.49     11.97      7.95      1.20     -0.01      0.02      0.41 
    54.50     11.97      7.95      1.20     -0.01      0.02      0.00 
    54.51     11.97      7.95      1.20     -0.01      0.01      0.00 
    54.52     11.97      7.96      1.20     -0.01      0.02      0.00 
    54.53     11.97      7.95      1.20     -0.01      0.01      0.00 
    54.54     11.97      7.95      1.20     -0.01      0.01      0.00 
    54.55     11.97      7.95      1.20     -0.01      0.00      0.00 
    54.56     11.97      7.95      1.20     -0.00      0.01      0.00 
    54.57     11.98      7.95      1.20     -0.00      0.01      0.41 
    54.58     11.98      7.95      1.20     -0.00     -0.00      0.41 
    54.59     11.98      7.94      1.20      0.00     -0.00      0.41 
    54.60     11.98      7.95      1.20      0.00      0.00      0.41 
    54.61     11.98      7.95      1.20      0.00      0.00      0.41 
    54.62     11.98      7.95      1.20     -0.00      0.00      0.41 
    54.63     11.98      7.94      1.20     -0.00      0.00      0.41 
    54.64     11.98      7.94      1.20     -0.00      0.00      0.41 
    54.65     11.98      7.94      1.20     -0.00      0.00      0.41 
    54.66     11.98      7.94      1.20     -0.00      0.01      0.41 
    54.67     11.98      7.94      1.20     -0.00      0.00      0.41 
    54.68     11.98      7.94      1.20     -0.00      0.00      0.41 
    54.69     11.98      7.94      1.20     -0.00      0.01      0.41 
    54.70     11.98      7.94      1.20     -0.01      0.01      0.41 
    54.71     11.98      7.94      1.20     -0.01      0.00      0.41 
    54.72     11.98      7.94      1.20     -0.01      0.01      0.41 
    54.73     11.98      7.94      1.20     -0.01      0.01      0.41 
    54.74     11.98      7.94      1.20     -0.01      0.00      0.00 
    54.75     11.98      7.94      1.20     -0.01      0.00      0.00 
    54.76     11.98      7.94      1.20     -0.01      0.00      0.00 
    54.77     11.98      7.94      1.20     -0.01      0.01      0.00 
    54.78     11.98      7.94      1.20     -0.01      0.01      0.00 
    54.79     11.98      7.94      1.20     -0.01      0.01      0.00 
    54.80     11.98      7.94      1.20     -0.01      0.01      0.00 
    54.81     11.98      7.94      1.20     -0.01      0.00      0.00 
    54.82     11.98      7.94      1.20     -0.00      0.00      0.00 
    54.83     11.98      7.94      1.20     -0.00      0.00      0.00 
    54.84     11.98      7.94      1.20     -0.00      0.00      0.00 
    54.85     11.98      7.95      1.20     -0.00     -0.00      0.00 
    54.86     11.97      7.95      1.20     -0.00     -0.00      0.00 
    54.87     11.97      7.95      1.20     -0.00      0.00      0.00 
    54.88     11.97      7.95      1.20     -0.00      0.00      0.00 
    54.89     11.97      7.95      1.20     -0.00      0.00      0.00 
    54.90     11.98      7.95      1.20     -0.00     -0.00      0.00 
    54.91     11.98      7.94      1.20     -0.00     -0.00      0.00 
    54.92     11.98      7.95      1.20     -0.00      0.01      0.00 
    54.93     11.98      7.94      1.20     -0.00      0.01      0.00 
    54.94     11.98      7.94      1.20     -0.00     -0.00      0.00 
    54.95     11.98      7.94      1.20      0.00      0.00      0.00 
    54.96     11.98      7.94      1.20      0.00      0.00      0.00 
    54.97     11.98      7.94      1.20      0.00      0.00      0.00 
    54.98     11.98      7.94      1.20      0.00     -0.00      0.00 
    54.99     11.98      7.94      1.20      0.00     -0.00      0.00 
    55.00     11.98      7.94      1.20      0.00     -0.00      0.00 
    55.01     11.98      7.94      1.20      0.00      0.00      0.00 
    55.02     11.98      7.94      1.20      0.00      0.00      0.00 
    55.03     11.98      7.94      1.20     -0.00      0.00      0.00 
    55.04     11.98      7.94      1.20     -0.00      0.00      0.00 
    55.05     11.98      7.94      1.20     -0.00      0.00      0.00 
    55.06     11.98      7.94      1.20     -0.00      0.00      0.00 
    55.07     11.98      7.94      1.20     -0.00      0.00      0.00 
    55.08     11.98      7.95      1.20     -0.00      0.01      0.00 
    55.09     11.98      7.95      1.20     -0.00      0.01      0.00 
    55.10     11.98      7.95      1.20     -0.01      0.01      0.00 
    55.11     11.98      7.95      1.20     -0.00      0.01      0.00 
    55.12     11.98      7.95      1.20     -0.01      0.01      0.00 
    55.13     11.98      7.95      1.20     -0.00      0.01      0.00 
    55.14     11.98      7.95      1.20     -0.00      0.00      0.00 
    55.15     11.98      7.95      1.20      0.00     -0.00      0.00 
    55.16     11.98      7.95      1.20      0.00      0.00      0.00 
    55.17     11.98      7.95      1.20      0.00     -0.00      0.00 
    55.18     11.98      7.95      1.20      0.00     -0.00      0.00 
    55.19     11.98      7.95      1.20      0.01     -0.01      0.00 
    55.20     11.98      7.94      1.20      0.01     -0.01      0.00 
    55.21     11.98      7.94      1.20      0.01     -0.01      0.00 
    55.22     11.98      7.94      1.20      0.01     -0.01      0.00 
    55.23     11.98      7.94      1.20      0.01     -0.01      0.00 
    55.24     11.99      7.94      1.20      0.01     -0.01      0.00 
    55.25     11.99      7.93      1.20      0.01     -0.01      0.00 
    55.26     11.98      7.94      1.20      0.00     -0.00      0.00 
    55.27     11.99      7.94      1.20      0.00     -0.00      0.00 
    55.28     11.99      7.93      1.20      0.00     -0.01      0.00 
    55.29     11.99      7.93      1.20      0.00     -0.00      0.00 
    55.30     11.99      7.93      1.20      0.00     -0.00      0.00 
    55.31     11.99      7.93      1.20      0.00     -0.00      0.00 
    55.32     11.99      7.94      1.20     -0.00      0.00      0.00 
    55.33     11.99      7.94      1.20     -0.00      0.00      0.00 
    55.34     11.99      7.94      1.20     -0.00      0.00      0.00 
    55.35     11.98      7.94      1.20     -0.00     -0.00      0.00 
