#Written by Robertson Geologging WinLogger V1.5/410
~VERSION INFORMATION
#------------------------------------------------------------------------------
 VERS. 2.0 : CWLS LOG ASCII STANDARD - VERSION 2.0
 WRAP. NO  : ONE LINE PER DEPTH STEP
~WELL INFORMATION
#MNEM.UNIT         DATA                                DESCRIPTION OF MNEMONIC
#------------------------------------------------------------------------------
 STRT.M         40.0200                            :   START DEPTH
 STOP.M        195.6300                            :   STOP DEPTH
 STEP.M          0.0100                            :   STEP VALUE
 NULL.        -999.2500                            :   NULL VALUE
 COMP.    IWS                                      :   COMPANY NAME
 WELL.    THRISLINGTON                             :   WELL NAME
 FLD.     DURHAM                                   :   FIELD NAME
 LOC.     N/A                                      :   LOCATION
 PROV.    N/A                                      :   PROVINCE
 SRVC.    N/A                                      :   SERVICE COMPANY NAME
 DATE.    16 Dec 09                                :   DATE
 UWI.     N/A                                      :   UNIQUE WELL IDENTIFIER
~PARAMETER INFORMATION
#MNEMO.UNIT         VALUE                 DESCRIPTION OF MNEMONIC
#------------------------------------------------------------------------------
~OTHER INFORMATION SECTION
#------------------------------------------------------------------------------
 TCDS 1365
~CURVE INFORMATION
#MNEMO.UNIT         API CODE              CURVE DESCRIPTION
#------------------------------------------------------------------------------
 DEPTH.M                                 :   0     Depth
 TEMP.DegC                               :   1     Temperature
 COND.uS/cm                              :   2     Conductivity@25DegC
 COND.uS/cm                              :   3     Absolute Conductivity
 DELT.DegC                               :   4     Delta T
 DELC.uS/cm                              :   5     Delta C
#------------------------------------------------------------------------------
~A  DEPTH          TEMP          COND          COND          DELT          DELC
# ...
   123.02         12.40       1297.65        970.58          0.01          0.32
   123.03         12.40       1293.73        967.65          0.01          0.29
   123.04         12.40       1297.64        970.58          0.01          0.27
   123.05         12.40       1293.72        967.65          0.01          0.33
   123.06         12.40       1293.72        967.65          0.00         -3.53
   123.07         12.40       1297.64        970.58          0.00          0.42
   123.08         12.40       1293.72        967.65          0.00          0.47
   123.09         12.40       1297.68        970.58          0.00          0.50
   123.10         12.39       1293.29        967.23         -0.00          0.61
   123.11         12.39       1293.39        967.23         -0.00         -3.21
   123.12         12.39       1297.41        970.16         -0.01          4.72
   123.13         12.39       1293.02        966.81         -0.01          0.36
   123.14         12.39       1296.94        969.74         -0.01          0.33
   123.15         12.39       1293.01        966.81         -0.01          0.32
   123.16         12.39       1292.98        966.81         -0.01         -4.21
   123.17         12.39       1296.84        969.74         -0.01          3.56
   123.18         12.39       1292.89        966.81         -0.01         -4.25
   123.19         12.39       1296.81        969.74         -0.01         -0.29
   123.20         12.39       1292.87        966.81         -0.01         -0.30
   123.21         12.39       1292.89        966.81         -0.01         -4.19
   123.22         12.39       1296.82        969.74         -0.01          3.63
   123.23         12.39       1292.89        966.81         -0.01         -4.24
   123.24         12.39       1297.31        970.16         -0.01          0.21
   123.25         12.39       1293.34        967.23         -0.01          0.20
   123.26         12.39       1293.31        967.23         -0.01         -3.72
   123.27         12.39       1297.78        970.58         -0.01          5.25
   123.28         12.39       1293.88        967.65         -0.01         -3.09
   123.29         12.39       1297.79        970.58         -0.01          4.75
   123.30         12.40       1293.81        967.65         -0.01         -3.13
   123.31         12.40       1293.76        967.65         -0.01         -3.13
   123.32         12.40       1297.59        970.58         -0.00          4.59
   123.33         12.40       1293.61        967.65         -0.00         -3.31
   123.34         12.40       1298.09        971.00         -0.00          5.05
   123.35         12.40       1293.64        967.65         -0.00         -3.34
   123.36         12.40       1298.18        971.00         -0.00          1.20
   123.37         12.40       1298.21        971.00         -0.00          5.13
   123.38         12.40       1293.72        967.65         -0.00         -3.28
   123.39         12.40       1298.14        971.00         -0.00          5.60
   123.40         12.40       1294.20        968.07          0.00         -2.86
   123.41         12.40       1298.14        971.00          0.00          4.96
   123.42         12.40       1298.18        971.00          0.00          4.96
   123.43         12.40       1294.35        968.07         -0.00         -2.79
   123.44         12.40       1298.29        971.00         -0.00          5.07
   123.45         12.40       1293.79        967.65         -0.00         -3.87
   123.46         12.40       1297.67        970.58         -0.00          3.95
   123.47         12.40       1293.11        967.23          0.00         -5.07
   123.48         12.40       1293.10        967.23          0.00         -5.09
   123.49         12.40       1297.02        970.16          0.00          2.72
   123.50         12.40       1292.57        966.81          0.00         -6.24
   123.51         12.40       1296.50        969.74          0.00          2.18
   123.52         12.40       1292.60        966.81          0.00         -5.63
   123.53         12.40       1292.61        966.81         -0.00         -5.57
   123.54         12.40       1296.50        969.74         -0.00          2.29
   123.55         12.40       1292.57        966.81         -0.00         -5.54
   123.56         12.40       1297.03        970.16         -0.00          3.45
   123.57         12.40       1293.10        967.23         -0.00         -4.95
   123.58         12.40       1293.08        967.23         -0.00         -0.48
   123.59         12.40       1297.53        970.58         -0.00          0.06
   123.60         12.40       1293.60        967.65         -0.00         -3.89
   123.61         12.40       1297.49        970.58          0.00          4.45
   123.62         12.40       1293.51        967.65          0.00         -3.44
   123.63         12.41       1293.46        967.65          0.00          0.42
   123.64         12.41       1297.34        970.58          0.00          0.41
   123.65         12.41       1293.39        967.65          0.00         -3.50
   123.66         12.41       1297.91        971.00          0.00          4.96
   123.67         12.40       1293.48        967.65          0.00         -3.40
   123.68         12.40       1297.43        970.58          0.00          4.98
   123.69         12.40       1297.49        970.58          0.00          0.53
   123.70         12.40       1293.04        967.23          0.00          0.00
   123.71         12.40       1296.97        970.16         -0.00         -0.51
   123.72         12.40       1293.10        967.23         -0.00         -4.31
   123.73         12.40       1297.06        970.16         -0.01          3.60
   123.74         12.40       1297.08        970.16         -0.01         -0.88
   123.75         12.40       1293.14        967.23         -0.01         -0.94
   123.76         12.40       1297.03        970.16         -0.00         -1.06
   123.77         12.40       1292.52        966.81          0.00         -5.65
   123.78         12.40       1296.40        969.74          0.00          2.09
   123.79         12.40       1292.49        966.81          0.01         -6.34
   123.80         12.40       1292.49        966.81          0.01         -1.92
   123.81         12.40       1296.40        969.74          0.01         -1.98
   123.82         12.40       1292.51        966.81          0.01         -1.44
   123.83         12.40       1296.43        969.74          0.01          2.44
   123.84         12.40       1292.52        966.81          0.01         -5.39
   123.85         12.40       1292.54        966.81          0.01         -0.88
   123.86         12.40       1296.44        969.74          0.01         -1.47
   123.87         12.40       1292.51        966.81          0.01         -1.50
   123.88         12.40       1296.41        969.74          0.01          2.41
   123.89         12.40       1292.48        966.81          0.01         -5.48
   123.90         12.40       1292.43        966.81          0.01         -1.01
   123.91         12.40       1296.32        969.74          0.01         -1.00
   123.92         12.40       1292.39        966.81          0.01         -1.03
   123.93         12.40       1296.31        969.74          0.01         -1.05
   123.94         12.40       1292.45        966.81          0.01         -4.93
   123.95         12.40       1292.51        966.81          0.01         -1.03
   123.96         12.40       1296.46        969.74          0.01         -1.05
   123.97         12.40       1292.58        966.81          0.01         -0.42
   123.98         12.40       1296.53        969.74          0.01         -0.88
   123.99         12.40       1292.61        966.81          0.01         -4.69
   124.00         12.40       1292.64        966.81          0.00         -0.59
   124.01         12.40       1296.61        969.74         -0.00         -1.04
