#Written by Robertson Geologging WinLogger V1.5/410
~VERSION INFORMATION
#------------------------------------------------------------------------------
 VERS. 2.0 : CWLS LOG ASCII STANDARD - VERSION 2.0
 WRAP. NO  : ONE LINE PER DEPTH STEP
~WELL INFORMATION
#MNEM.UNIT         DATA                                DESCRIPTION OF MNEMONIC
#------------------------------------------------------------------------------
 STRT.M        191.7300                            :   START DEPTH
 STOP.M         42.4500                            :   STOP DEPTH
 STEP.M         -0.0100                            :   STEP VALUE
 NULL.        -999.2500                            :   NULL VALUE
 COMP.    I.W.S.                                   :   COMPANY NAME
 WELL.    THRISLINGTON                             :   WELL NAME
 FLD.     N/A                                      :   FIELD NAME
 LOC.     N/A                                      :   LOCATION
 PROV.    N/A                                      :   PROVINCE
 SRVC.    N/A                                      :   SERVICE COMPANY NAME
 DATE.    14 Nov 11                                :   DATE
 UWI.     N/A                                      :   UNIQUE WELL IDENTIFIER
~PARAMETER INFORMATION
#MNEMO.UNIT         VALUE                 DESCRIPTION OF MNEMONIC
#------------------------------------------------------------------------------
~OTHER INFORMATION SECTION
#------------------------------------------------------------------------------
 1365 LOW
~CURVE INFORMATION
#MNEMO.UNIT         API CODE              CURVE DESCRIPTION
#------------------------------------------------------------------------------
 DEPTH.M                                 :   0     Depth
 TEMP.DegC                               :   1     Temperature
 COND.uS/cm                              :   2     Conductivity
 DELT.DegC                               :   3     Delta T
 DELC.uS/cm                              :   4     Delta C
 NGAM.CPS                                :   5     Natural Gamma
#------------------------------------------------------------------------------
~A  DEPTH          TEMP          COND          DELT          DELC          NGAM
# ...
   112.73         12.38        918.22         -0.00         -2.09          0.00
   112.72         12.38        920.74         -0.00          2.93          0.00
   112.71         12.38        920.74          0.00          0.00          0.00
   112.70         12.38        921.15          0.00          0.42          0.00
   112.69         12.38        921.15          0.00          0.42          0.00
   112.68         12.38        921.15          0.00          0.42          0.00
   112.67         12.38        918.64          0.00         -2.09          0.00
   112.66         12.38        918.64          0.00         -2.09          0.00
   112.65         12.38        918.22          0.00         -2.51          0.00
   112.64         12.38        921.15          0.00          2.93          0.00
   112.63         12.38        921.15         -0.00          2.93          0.00
   112.62         12.38        921.15         -0.00          2.93          0.00
   112.61         12.38        921.15         -0.00          0.42          0.00
   112.60         12.38        921.15         -0.01          0.84          0.00
   112.59         12.38        918.22         -0.01         -2.09          0.00
   112.58         12.38        918.22         -0.01         -2.09          0.00
   112.57         12.38        918.22         -0.01         -2.51          0.00
   112.56         12.38        920.74         -0.01          2.51          0.00
   112.55         12.38        921.15         -0.01          2.93          0.00
   112.54         12.38        921.15         -0.00          2.93          0.00
   112.53         12.39        920.74         -0.00          0.00          0.00
   112.52         12.39        920.74          0.00         -0.00          0.00
   112.51         12.39        918.22         -0.00         -2.51          0.00
   112.50         12.39        918.22         -0.00         -2.51          0.00
   112.49         12.39        918.22         -0.00         -2.51          0.00
   112.48         12.39        920.74         -0.00          0.00          0.00
   112.47         12.38        920.74         -0.00          2.51          0.00
   112.46         12.38        920.74         -0.00          2.93          0.00
   112.45         12.38        920.74         -0.00          0.42          0.00
   112.44         12.38        920.32         -0.00          0.00          0.00
   112.43         12.38        920.32         -0.00         -0.42          0.00
   112.42         12.38        917.80         -0.00         -2.93          0.00
   112.41         12.38        918.22         -0.00         -2.51          0.50
   112.40         12.37        920.74         -0.00          0.00          0.50
   112.39         12.37        920.74         -0.00          2.51          0.50
   112.38         12.37        920.74          0.00          2.51          0.50
   112.37         12.37        920.74          0.00          2.51          0.50
   112.36         12.38        920.74          0.01         -0.00          0.50
   112.35         12.38        920.74          0.01         -0.00          0.50
   112.34         12.38        918.22          0.01         -2.51          0.50
   112.33         12.38        918.22          0.01         -2.51          0.50
   112.32         12.38        918.22          0.01         -2.09          0.50
   112.31         12.38        920.74          0.01          0.42          0.50
   112.30         12.39        920.32          0.01          0.00          0.50
   112.29         12.39        920.32          0.01          2.51          0.50
   112.28         12.39        920.32          0.01          0.00          0.50
   112.27         12.39        920.32          0.01          0.00          0.50
   112.26         12.39        920.32          0.01         -0.42          0.50
   112.25         12.39        917.80          0.01         -2.51          0.50
   112.24         12.38        917.80          0.01         -2.51          0.00
   112.23         12.38        920.32          0.00         -0.42          0.00
   112.22         12.38        920.32          0.00          2.09          0.00
   112.21         12.38        920.32         -0.00          2.09          0.00
   112.20         12.38        920.74         -0.01          2.51          0.00
   112.19         12.38        920.74         -0.01          2.51          0.00
   112.18         12.38        920.74         -0.01         -0.00          0.00
   112.17         12.38        918.22         -0.01         -2.51          0.00
   112.16         12.38        918.22         -0.02         -2.51          0.00
   112.15         12.38        918.22         -0.02         -2.09          0.00
   112.14         12.38        920.74         -0.02          0.00          0.00
   112.13         12.38        920.74         -0.01          0.00          0.00
   112.12         12.38        920.74         -0.01          2.93          0.00
   112.11         12.38        920.74         -0.01          0.42          0.00
   112.10         12.38        920.74         -0.01          0.42          0.00
   112.09         12.39        920.32         -0.00          0.00          0.00
   112.08         12.39        917.80         -0.00         -2.51          0.00
   112.07         12.39        917.80          0.00         -2.51          0.00
   112.06         12.38        920.32          0.00          0.00          0.00
   112.05         12.38        920.32          0.00          0.00          0.00
   112.04         12.38        920.32          0.00          0.00          0.50
   112.03         12.38        920.32          0.00          2.51          0.50
   112.02         12.38        920.74          0.00          2.93          0.50
   112.01         12.38        920.74          0.00          0.42          0.50
   112.00         12.38        918.22          0.00         -2.09          0.50
   111.99         12.38        918.22          0.00         -2.09          0.50
   111.98         12.38        918.22          0.01         -2.51          0.50
   111.97         12.38        920.74          0.01          0.00          0.50
   111.96         12.38        920.74          0.01          0.00          0.50
   111.95         12.38        920.74          0.01          2.51          0.50
   111.94         12.38        920.74          0.00          2.51          0.50
   111.93         12.38        920.74          0.00          2.51          0.50
   111.92         12.38        920.74         -0.00          0.00          0.50
   111.91         12.38        917.80         -0.00         -2.93          0.50
   111.90         12.38        917.80         -0.01         -2.93          0.50
   111.89         12.38        920.74         -0.01         -0.00          0.50
   111.88         12.37        920.74         -0.01         -0.00          0.50
   111.87         12.37        920.74         -0.02          0.42          0.00
   111.86         12.37        920.74         -0.02          0.42          0.00
   111.85         12.37        920.74         -0.02          2.93          0.00
   111.84         12.37        920.74         -0.01          0.00          0.00
   111.83         12.37        918.22         -0.01         -2.51          0.00
   111.82         12.38        918.22         -0.01         -2.51          0.00
   111.81         12.38        918.22         -0.01         -2.51          0.00
   111.80         12.38        920.74         -0.00          0.00          0.00
   111.79         12.38        920.74         -0.00          0.00          0.00
   111.78         12.38        920.32         -0.00         -0.42          0.42
   111.77         12.38        920.32         -0.00          2.09          0.42
   111.76         12.38        920.32         -0.00          2.09          0.42
   111.75         12.38        920.32         -0.01          2.09          0.42
   111.74         12.38        920.32         -0.01         -0.42          0.42
