#Written by Robertson Geologging WinLogger V1.5/410
~VERSION INFORMATION
#------------------------------------------------------------------------------
 VERS. 2.0 : CWLS LOG ASCII STANDARD - VERSION 2.0
 WRAP. NO  : ONE LINE PER DEPTH STEP
~WELL INFORMATION
#MNEM.UNIT         DATA                                DESCRIPTION OF MNEMONIC
#------------------------------------------------------------------------------
 STRT.M         40.0200                            :   START DEPTH
 STOP.M        195.6300                            :   STOP DEPTH
 STEP.M          0.0100                            :   STEP VALUE
 NULL.        -999.2500                            :   NULL VALUE
 COMP.    IWS                                      :   COMPANY NAME
 WELL.    THRISLINGTON                             :   WELL NAME
 FLD.     DURHAM                                   :   FIELD NAME
 LOC.     N/A                                      :   LOCATION
 PROV.    N/A                                      :   PROVINCE
 SRVC.    N/A                                      :   SERVICE COMPANY NAME
 DATE.    16 Dec 09                                :   DATE
 UWI.     N/A                                      :   UNIQUE WELL IDENTIFIER
~PARAMETER INFORMATION
#MNEMO.UNIT         VALUE                 DESCRIPTION OF MNEMONIC
#------------------------------------------------------------------------------
~OTHER INFORMATION SECTION
#------------------------------------------------------------------------------
 TCDS 1365
~CURVE INFORMATION
#MNEMO.UNIT         API CODE              CURVE DESCRIPTION
#------------------------------------------------------------------------------
 DEPTH.M                                 :   0     Depth
 TEMP.DegC                               :   1     Temperature
 COND.uS/cm                              :   2     Conductivity@25DegC
 COND.uS/cm                              :   3     Absolute Conductivity
 DELT.DegC                               :   4     Delta T
 DELC.uS/cm                              :   5     Delta C
#------------------------------------------------------------------------------
~A  DEPTH          TEMP          COND          COND          DELT          DELC
# ...
    92.02         12.39       1293.51        967.23         -0.01         -4.18
    92.03         12.39       1297.41        970.16         -0.01          3.68
    92.04         12.39       1297.38        970.16         -0.01          3.63
    92.05         12.39       1293.48        967.23         -0.01         -4.77
    92.06         12.39       1297.40        970.16         -0.01          3.10
    92.07         12.39       1292.90        966.81         -0.01         -5.84
    92.08         12.39       1296.81        969.74         -0.01          2.57
    92.09         12.39       1292.84        966.81         -0.01         -5.28
    92.10         12.39       1292.83        966.81         -0.01         -5.30
    92.11         12.39       1296.72        969.74         -0.01          2.48
    92.12         12.39       1292.75        966.81         -0.00         -5.45
    92.13         12.39       1297.20        970.16         -0.00          3.47
    92.14         12.39       1293.26        967.23         -0.00         -4.39
    92.15         12.39       1297.18        970.16         -0.00         -0.48
    92.16         12.39       1297.22        970.16         -0.00          4.01
    92.17         12.39       1293.32        967.23         -0.00         -3.91
    92.18         12.39       1297.28        970.16          0.00          4.48
    92.19         12.39       1293.40        967.23         -0.00         -3.89
    92.20         12.39       1297.37        970.16         -0.00          4.00
    92.21         12.39       1297.40        970.16         -0.00          4.09
    92.22         12.39       1293.52        967.23         -0.01         -4.24
    92.23         12.39       1297.49        970.16         -0.01          3.68
    92.24         12.39       1293.04        966.81         -0.01         -4.69
    92.25         12.38       1297.58        970.16         -0.01          3.75
    92.26         12.38       1293.67        967.23         -0.01         -0.14
    92.27         12.38       1293.64        967.23         -0.01         -4.65
    92.28         12.38       1298.14        970.58         -0.01          3.79
    92.29         12.38       1294.20        967.65         -0.01         -4.09
    92.30         12.38       1298.11        970.58         -0.01          4.25
    92.31         12.38       1294.23        967.65         -0.01         -3.60
    92.32         12.38       1298.17        970.58         -0.01          0.26
    92.33         12.38       1298.18        970.58         -0.01          4.69
    92.34         12.38       1294.28        967.65         -0.01         -3.18
    92.35         12.38       1298.20        970.58         -0.00          4.62
    92.36         12.38       1293.72        967.23         -0.00         -3.80
    92.37         12.38       1297.64        970.16         -0.00          0.09
    92.38         12.38       1297.62        970.16         -0.00          4.53
    92.39         12.38       1293.11        966.81         -0.00         -3.88
    92.40         12.38       1297.00        969.74         -0.00          3.97
    92.41         12.38       1293.07        966.81         -0.00         -4.36
    92.42         12.39       1296.94        969.74         -0.00          3.50
    92.43         12.39       1292.99        966.81         -0.00         -0.42
    92.44         12.39       1292.99        966.81         -0.01         -4.86
    92.45         12.39       1296.93        969.74         -0.01          2.98
    92.46         12.38       1293.05        966.81         -0.01         -4.77
    92.47         12.38       1297.00        969.74         -0.01          3.16
    92.48         12.38       1293.10        966.81         -0.01         -0.71
    92.49         12.38       1293.10        966.81         -0.01         -4.60
    92.50         12.38       1297.00        969.74         -0.01          3.24
    92.51         12.38       1293.05        966.81         -0.01         -4.63
    92.52         12.39       1297.49        970.16         -0.01          4.28
    92.53         12.39       1293.54        967.23         -0.01         -4.09
    92.54         12.39       1297.43        970.16         -0.01         -0.18
    92.55         12.39       1297.38        970.16         -0.01          4.27
    92.56         12.39       1293.42        967.23         -0.01         -3.63
    92.57         12.39       1297.25        970.16         -0.00          4.04
    92.58         12.40       1293.25        967.23          0.00         -3.94
    92.59         12.40       1297.12        970.16          0.00         -0.11
    92.60         12.40       1297.12        970.16          0.00          3.84
    92.61         12.40       1293.23        967.23          0.00         -3.95
    92.62         12.39       1297.20        970.16          0.00          3.92
    92.63         12.39       1292.76        966.81          0.00         -4.51
    92.64         12.39       1297.31        970.16          0.00          4.38
    92.65         12.39       1293.43        967.23          0.00          0.44
    92.66         12.39       1293.49        967.23          0.00         -3.48
    92.67         12.39       1298.03        970.58          0.00          4.97
    92.68         12.39       1294.14        967.65          0.00         -2.83
    92.69         12.38       1298.67        971.00          0.00          5.56
    92.70         12.38       1294.76        968.07          0.00          1.61
    92.71         12.39       1294.72        968.07          0.01         -2.42
    92.72         12.39       1299.14        971.42          0.01          5.86
    92.73         12.39       1295.11        968.49          0.01         -2.07
    92.74         12.39       1298.93        971.42          0.01          5.69
    92.75         12.39       1294.38        968.07          0.01          1.18
    92.76         12.40       1298.29        971.00          0.01          1.20
    92.77         12.40       1298.27        971.00          0.01          5.12
    92.78         12.40       1293.79        967.65          0.01         -3.29
    92.79         12.39       1297.74        970.58          0.01          4.62
    92.80         12.40       1293.25        967.23          0.01         -4.31
    92.81         12.39       1297.18        970.16          0.01         -0.32
    92.82         12.39       1297.23        970.16          0.01          3.72
    92.83         12.39       1292.81        966.81          0.00         -5.12
    92.84         12.39       1296.84        969.74         -0.00          2.85
    92.85         12.39       1292.99        966.81         -0.00         -4.89
    92.86         12.39       1297.47        970.16         -0.01         -0.36
    92.87         12.39       1293.54        967.23         -0.00         -0.39
    92.88         12.39       1293.52        967.23         -0.01         -4.28
    92.89         12.39       1297.99        970.58         -0.01          4.12
    92.90         12.39       1294.08        967.65         -0.00         -3.75
    92.91         12.39       1297.99        970.58         -0.01          4.66
    92.92         12.39       1294.02        967.65         -0.00          0.67
    92.93         12.39       1293.99        967.65         -0.00         -3.35
    92.94         12.39       1297.85        970.58          0.00          4.97
    92.95         12.39       1293.88        967.65          0.01         -3.54
    92.96         12.39       1297.84        970.58          0.01          4.28
    92.97         12.39       1293.37        967.23          0.01         -4.13
    92.98         12.39       1297.31        970.16          0.01         -0.18
    92.99         12.39       1297.32        970.16          0.01          3.74
    93.00         12.39       1292.81        966.81          0.01         -4.66
    93.01         12.39       1296.67        969.74          0.01          3.16
