#Written by Robertson Geologging WinLogger V1.0/406
~VERSION INFORMATION
#------------------------------------------------------------------------------
 VERS. 2.0 : CWLS LOG ASCII STANDARD - VERSION 2.0
 WRAP. NO  : ONE LINE PER DEPTH STEP
~WELL INFORMATION
#MNEM.UNIT         DATA                                DESCRIPTION OF MNEMONIC
#------------------------------------------------------------------------------
 STRT.M         44.9500                            :   START DEPTH
 STOP.M        194.0200                            :   STOP DEPTH
 STEP.M          0.0100                            :   STEP VALUE
 NULL.        -999.2500                            :   NULL VALUE
 COMP.    Coal Authority                           :   COMPANY NAME
 WELL.    Thrislington Shaft                       :   WELL NAME
 FLD.     Banks Yard                               :   FIELD NAME
 LOC.     N/A                                      :   LOCATION
 PROV.    N/A                                      :   PROVINCE
 SRVC.    N/A                                      :   SERVICE COMPANY NAME
 DATE.    19 May 08                                :   DATE
 UWI.     N/A                                      :   UNIQUE WELL IDENTIFIER
~PARAMETER INFORMATION
#MNEMO.UNIT         VALUE                 DESCRIPTION OF MNEMONIC
#------------------------------------------------------------------------------
~OTHER INFORMATION SECTION
#------------------------------------------------------------------------------
 TCDS 1365
~CURVE INFORMATION
#MNEMO.UNIT         API CODE              CURVE DESCRIPTION
#------------------------------------------------------------------------------
 DEPTH.M                                 :   0     Depth
 TEMP.DegC                               :   1     Temperature
 COND.uS/cm                              :   2     Absolute Conductivity
 COND.uS/cm                              :   3     Conductivity@25DegC
 DELT.DegC                               :   4     Delta T
 DELC.uS/cm                              :   5     Delta C
#------------------------------------------------------------------------------
~A  DEPTH     TEMP      COND      COND      DELT      DELC      
# ...
   192.79     13.70   3783.04   4887.88      0.14    438.83 
   192.80     13.68   3791.32   4900.42      0.12    452.49 
   192.81     13.68   3805.13   4918.28      0.13    448.99 
   192.82     13.68   3814.34   4930.18      0.12    461.45 
   192.83     13.69   3837.37   4958.70      0.14    489.41 
   192.84     13.71   3837.37   4956.23      0.16    476.85 
   192.85     13.72   3844.74   4964.51      0.16    476.17 
   192.86     13.71   3852.11   4975.26      0.14    477.34 
   192.87     13.71   3852.11   4975.88      0.14    488.67 
   192.88     13.70   3860.40   4987.84      0.11    482.64 
   192.89     13.70   3860.40   4987.84      0.10    483.77 
   192.90     13.71   3860.40   4986.59      0.11    473.01 
   192.91     13.70   3867.77   4996.74      0.09    484.84 
   192.92     13.69   3867.77   4997.98      0.08    475.39 
   192.93     13.70   3875.14   5006.26      0.09    474.15 
   192.94     13.71   3875.14   5005.01      0.10    463.95 
   192.95     13.71   3878.82   5009.77      0.09    459.14 
   192.96     13.72   3875.14   5003.76      0.10    443.62 
   192.97     13.73   3875.14   5003.14      0.11    432.91 
   192.98     13.73   3875.14   5002.52      0.10    414.41 
   192.99     13.74   3879.74   5007.21      0.11    439.32 
   193.00     13.74   3869.61   4994.13      0.10    455.91 
   193.01     13.73   3886.19   5016.79      0.08    479.70 
   193.02     13.72   3890.80   5023.99      0.08    455.43 
   193.03     13.72   3890.80   5023.99      0.07    410.83 
   193.04     13.72   3890.80   5023.99      0.08    367.44 
   193.05     13.73   3890.80   5023.36      0.07    338.83 
   193.06     13.73   3890.80   5023.36      0.07    348.35 
   193.07     13.73   3890.80   5023.36      0.08    337.66 
   193.08     13.73   3898.17   5032.88      0.07    337.65 
   193.09     13.74   3890.80   5022.11      0.08    307.26 
   193.10     13.75   3898.17   5030.37      0.10    314.94 
   193.11     13.75   3892.64   5023.24      0.08    289.35 
   193.12     13.74   3898.17   5031.00      0.07    297.70 
   193.13     13.73   3890.80   5023.36      0.06    280.55 
   193.14     13.72   3898.17   5033.51      0.05    280.59 
   193.15     13.73   3898.17   5032.88      0.06    269.85 
   193.16     13.73   3898.17   5032.25      0.07    259.11 
   193.17     13.73   3898.17   5032.25      0.06    249.00 
   193.18     13.74   3898.17   5031.63      0.06    249.57 
   193.19     13.73   3898.17   5032.88      0.05    240.71 
   193.20     13.73   3906.47   5043.59      0.05    251.42 
   193.21     13.74   3913.84   5051.85      0.07    258.48 
   193.22     13.72   3936.88   5083.49      0.06    289.53 
   193.23     13.73   3944.26   5092.38      0.06    289.49 
   193.24     13.71   3952.56   5105.00      0.05    311.04 
   193.25     13.71   3967.31   5124.06      0.05    340.21 
   193.26     13.71   3967.31   5124.06      0.04    381.24 
   193.27     13.70   3975.61   5136.05      0.03    442.58 
   193.28     13.71   3982.98   5144.30      0.03    531.61 
   193.29     13.72   3975.61   5133.49      0.04    599.80 
   193.30     13.73   3982.98   5142.38      0.04    638.93 
   193.31     13.74   3989.44   5149.43      0.05    646.54 
   193.32     13.74   3975.61   5130.94      0.06    636.98 
   193.33     13.75   3982.98   5139.82      0.05    667.16 
   193.34     13.74   3990.36   5149.98      0.04    737.18 
   193.35     13.73   3982.98   5141.74      0.04    823.89 
   193.36     13.72   3990.36   5152.55      0.04    905.28 
   193.37     13.72   3998.66   5163.91      0.03    917.17 
   193.38     13.72   4006.04   5173.44      0.03    907.21 
   193.39     13.72   4006.04   5172.79      0.04    876.40 
   193.40     13.73   4006.04   5171.50      0.05    855.49 
   193.41     13.73   4013.42   5181.67      0.04    856.72 
   193.42     13.73   4006.04   5171.50      0.05    816.36 
   193.43     13.73   4013.42   5181.03      0.06    824.80 
   193.44     13.73   4021.72   5191.75      0.06    805.31 
   193.45     13.74   4013.42   5179.74      0.07    773.13 
   193.46     13.76   4013.42   5177.80      0.07    743.74 
   193.47     13.76   4024.49   5192.08      0.06    749.64 
   193.48     13.75   4013.42   5179.09      0.04    727.08 
   193.49     13.75   4021.72   5189.81      0.04    718.82 
   193.50     13.73   4029.10   5201.27      0.03    729.17 
   193.51     13.73   4021.72   5192.39      0.03    706.05 
   193.52     13.73   4029.10   5201.92      0.02    713.77 
   193.53     13.72   4029.10   5203.22      0.01    683.03 
   193.54     13.73   4029.10   5201.27      0.02    630.62 
   193.55     13.74   4029.10   5199.98      0.03    590.73 
   193.56     13.75   4029.10   5198.68      0.04    549.68 
   193.57     13.76   4036.48   5207.56      0.06    527.12 
   193.58     13.76   4030.95   5199.77      0.07    468.83 
   193.59     13.75   4036.48   5208.21      0.07    436.85 
   193.60     13.73   4036.48   5211.45      0.05    409.76 
   193.61     13.73   4044.79   5222.17      0.05    420.48 
   193.62     13.72   4044.79   5223.47      0.04    411.08 
   193.63     13.71   4059.55   5243.19      0.04    421.28 
   193.64     13.72   4059.55   5241.89      0.05    429.49 
   193.65     13.71   4067.86   5253.92      0.03    433.21 
   193.66     13.70   4082.62   5274.96      0.01    464.37 
   193.67     13.71   4090.93   5284.38      0.01    465.47 
   193.68     13.70   4098.31   5295.24      0.00    476.33 
   193.69     13.71   4105.70   5303.46      0.00    485.15 
   193.70     13.70   4114.01   5314.85      0.00    487.04 
   193.71     13.70   4121.39   5325.06      0.00    476.42 
   193.72     13.70   4121.39   5325.06      0.00    468.10 
   193.73     13.70   4121.39   5325.06      0.00    466.30 
   193.74     13.70   4121.39   5325.06      0.01    465.70 
   193.75     13.70   4121.39   5325.06      0.00    466.30 
   193.76     13.70   4121.39   5325.06      0.00    446.69 
   193.77     13.70   4121.39   5325.06     -0.00    437.78 
   193.78     13.70   4121.39   5325.06      0.00    437.17 
   193.79     13.70   4121.39   5325.06      0.01    424.63 
   193.80     13.70   4121.39   5325.06      0.01    406.78 
   193.81     13.70   4121.39   5325.06      0.01    394.88 
   193.82     13.70   4121.39   5325.06      0.00    366.36 
   193.83     13.70   4121.39   5325.06     -0.01    368.83 
   193.84     13.70   4121.39   5325.06     -0.02    360.55 
   193.85     13.70   4121.39   5325.06     -0.01    349.79 
   193.86     13.70   4121.39   5325.06     -0.01    349.17 
   193.87     13.70   4121.39   5325.06      0.00    337.22 
   193.88     13.70   4121.39   5325.06      0.00    337.22 
   193.89     13.70   4121.39   5325.06     -0.01    338.46 
   193.90     13.70   4121.39   5325.06     -0.00    328.32 
   193.91     13.70   4121.39   5325.06      0.00    327.07 
   193.92     13.70   4121.39   5325.06     -0.00    318.80 
   193.93     13.70   4121.39   5325.06     -0.01    320.05 
   193.94     13.70   4121.39   5325.06     -0.01    315.29 
   193.95     13.70   4121.39   5325.06     -0.02    321.29 
   193.96     13.70   4121.39   5325.06     -0.03    321.92 
   193.97     13.70   4121.39   5325.06     -0.03    322.54 
   193.98     13.70   4121.39   5325.06     -0.04    317.84 
   193.99     13.70   4121.39   5325.06     -0.04    330.92 
   194.00     13.70   4121.39   5325.06     -0.03    308.27 
   194.01     13.70   4121.39   5325.06     -0.02    301.07 
   194.02     13.70   4121.39   5325.06     -0.02    301.07 
