#Written by Robertson Geologging WinLogger V1.0/406
~VERSION INFORMATION
#------------------------------------------------------------------------------
 VERS. 2.0 : CWLS LOG ASCII STANDARD - VERSION 2.0
 WRAP. NO  : ONE LINE PER DEPTH STEP
~WELL INFORMATION
#MNEM.UNIT         DATA                                DESCRIPTION OF MNEMONIC
#------------------------------------------------------------------------------
 STRT.M         44.9500                            :   START DEPTH
 STOP.M        194.0200                            :   STOP DEPTH
 STEP.M          0.0100                            :   STEP VALUE
 NULL.        -999.2500                            :   NULL VALUE
 COMP.    Coal Authority                           :   COMPANY NAME
 WELL.    Thrislington Shaft                       :   WELL NAME
 FLD.     Banks Yard                               :   FIELD NAME
 LOC.     N/A                                      :   LOCATION
 PROV.    N/A                                      :   PROVINCE
 SRVC.    N/A                                      :   SERVICE COMPANY NAME
 DATE.    19 May 08                                :   DATE
 UWI.     N/A                                      :   UNIQUE WELL IDENTIFIER
~PARAMETER INFORMATION
#MNEMO.UNIT         VALUE                 DESCRIPTION OF MNEMONIC
#------------------------------------------------------------------------------
~OTHER INFORMATION SECTION
#------------------------------------------------------------------------------
 TCDS 1365
~CURVE INFORMATION
#MNEMO.UNIT         API CODE              CURVE DESCRIPTION
#------------------------------------------------------------------------------
 DEPTH.M                                 :   0     Depth
 TEMP.DegC                               :   1     Temperature
 COND.uS/cm                              :   2     Absolute Conductivity
 COND.uS/cm                              :   3     Conductivity@25DegC
 DELT.DegC                               :   4     Delta T
 DELC.uS/cm                              :   5     Delta C
#------------------------------------------------------------------------------
~A  DEPTH     TEMP      COND      COND      DELT      DELC      
# ...
   124.15     12.64    933.19   1239.75      0.01     -0.32 
   124.16     12.63    940.38   1249.46      0.00     -0.16 
   124.17     12.64    940.38   1249.14      0.01     -0.32 
   124.18     12.64    940.38   1249.14      0.01      0.87 
   124.19     12.65    940.38   1248.82      0.02     -0.64 
   124.20     12.65    939.48   1247.79      0.01     -1.51 
   124.21     12.64    940.38   1249.14      0.00     -0.16 
   124.22     12.64    940.38   1249.30     -0.00      0.16 
   124.23     12.64    940.38   1249.30      0.00     -0.16 
   124.24     12.64    940.38   1249.30      0.01      9.07 
   124.25     12.63    933.19   1239.91      0.01     -9.87 
   124.26     12.63    940.38   1249.63      0.00      1.19 
   124.27     12.63    940.38   1249.63     -0.01      0.32 
   124.28     12.63    940.38   1249.63     -0.02      0.64 
   124.29     12.64    939.48   1248.11     -0.01     -0.87 
   124.30     12.64    940.38   1249.14      0.00      0.00 
   124.31     12.64    940.38   1249.14      0.00     -0.16 
   124.32     12.64    940.38   1249.30      0.01     -0.32 
   124.33     12.63    940.38   1249.46     -0.00      1.35 
   124.34     12.63    940.38   1249.63     -0.01      0.32 
   124.35     12.63    933.19   1239.91     -0.00     -9.39 
   124.36     12.64    940.38   1249.14      0.00      9.39 
   124.37     12.64    940.38   1249.30      0.01     -0.48 
   124.38     12.64    940.38   1249.30      0.02     -0.64 
   124.39     12.64    940.38   1249.30      0.01      0.87 
   124.40     12.64    939.48   1248.11      0.01     -1.51 
   124.41     12.65    940.38   1248.82      0.02     -0.80 
   124.42     12.65    940.38   1248.98      0.01     -0.32 
   124.43     12.65    940.38   1248.82      0.02      0.55 
   124.44     12.64    940.38   1249.14      0.00     -0.16 
   124.45     12.63    940.38   1249.46     -0.00      0.16 
   124.46     12.64    933.19   1239.60      0.01     -9.87 
   124.47     12.64    940.38   1249.30      0.01     -0.32 
   124.48     12.63    939.48   1248.27      0.00      0.00 
   124.49     12.64    940.38   1249.14      0.00      9.55 
   124.50     12.64    940.38   1249.30     -0.00      0.16 
   124.51     12.64    940.38   1249.14      0.00      0.00 
   124.52     12.64    940.38   1249.14      0.01     -0.32 
   124.53     12.64    940.38   1249.14      0.00      1.03 
   124.54     12.64    940.38   1249.14      0.00      0.00 
   124.55     12.64    940.38   1249.30     -0.00      0.16 
   124.56     12.64    939.48   1247.95      0.00     -1.19 
   124.57     12.64    940.38   1249.30      0.00     -0.16 
   124.58     12.63    940.38   1249.63      0.00      1.19 
   124.59     12.63    933.19   1239.91      0.00     -9.71 
   124.60     12.64    940.38   1249.30      0.00      0.00 
   124.61     12.65    939.48   1247.63      0.02      7.72 
   124.62     12.65    940.38   1248.82      0.02      0.55 
   124.63     12.66    940.38   1248.66      0.02     -0.80 
   124.64     12.65    940.38   1248.82      0.02     -0.80 
   124.65     12.64    939.48   1248.11      0.01     -1.51 
   124.66     12.63    940.38   1249.46      0.00      1.19 
   124.67     12.63    940.38   1249.63     -0.00      0.16 
   124.68     12.62    940.38   1249.79     -0.01      0.48 
   124.69     12.62    939.48   1248.75     -0.02     -0.39 
   124.70     12.63    940.38   1249.46     -0.01      0.32 
   124.71     12.63    940.38   1249.46     -0.01      0.48 
   124.72     12.63    940.38   1249.46     -0.01      1.67 
   124.73     12.64    939.48   1247.95     -0.00     -1.03 
   124.74     12.64    940.38   1249.30     -0.01      9.87 
   124.75     12.63    933.19   1240.07     -0.01     -9.23 
   124.76     12.62    940.38   1249.79     -0.01      0.48 
   124.77     12.62    939.48   1248.59     -0.03     -0.23 
   124.78     12.62    940.38   1249.79     -0.03      2.15 
   124.79     12.63    940.38   1249.46     -0.01      0.48 
   124.80     12.63    940.38   1249.46     -0.01      0.48 
   124.81     12.62    939.48   1248.59     -0.01      0.48 
   124.82     12.62    940.38   1249.79     -0.01      0.32 
   124.83     12.62    940.38   1249.95     -0.01      0.48 
   124.84     12.63    940.38   1249.63     -0.01      0.32 
   124.85     12.64    939.48   1248.11      0.00      0.00 
   124.86     12.65    940.38   1248.98      0.01     -0.48 
   124.87     12.66    940.38   1248.66      0.02      8.91 
   124.88     12.65    933.19   1239.28      0.01    -10.03 
   124.89     12.64    940.38   1249.14      0.00      1.19 
   124.90     12.63    939.48   1248.27     -0.01     -0.87 
   124.91     12.63    940.38   1249.63     -0.01      0.48 
   124.92     12.63    940.38   1249.46     -0.00      0.16 
   124.93     12.64    940.38   1249.30      0.00      1.19 
   124.94     12.64    940.38   1249.14      0.02     -0.64 
   124.95     12.64    940.38   1249.14      0.01     -0.32 
   124.96     12.64    940.38   1249.14      0.00     -0.16 
   124.97     12.65    940.38   1248.82      0.01      0.71 
   124.98     12.65    939.48   1247.63      0.00     -1.19 
   124.99     12.66    933.19   1239.12      0.01    -10.03 
   125.00     12.65    940.38   1248.98      0.01     -0.32 
   125.01     12.63    940.38   1249.46     -0.00      1.35 
   125.02     12.63    940.38   1249.46     -0.00      0.16 
   125.03     12.63    940.38   1249.63     -0.02     10.19 
   125.04     12.64    939.48   1248.11     -0.01     -0.71 
   125.05     12.65    940.38   1248.98      0.00      0.00 
   125.06     12.65    940.38   1248.98      0.00     -0.16 
   125.07     12.66    940.38   1248.66      0.02     -0.80 
   125.08     12.65    940.38   1248.98      0.02     -0.64 
   125.09     12.64    939.48   1248.11      0.01     -0.48 
   125.10     12.63    940.38   1249.63      0.00     -0.16 
   125.11     12.63    933.19   1239.91      0.00     -9.71 
   125.12     12.64    940.38   1249.30      0.00     -0.16 
   125.13     12.65    939.48   1247.79      0.00     -1.35 
   125.14     12.65    940.38   1248.98      0.01      9.23 
   125.15     12.65    940.38   1248.98      0.01     -0.48 
   125.16     12.64    940.38   1249.30     -0.00      0.16 
   125.17     12.64    939.48   1248.11     -0.00     -1.03 
   125.18     12.65    940.38   1248.98     -0.00      0.16 
   125.19     12.64    940.38   1249.14     -0.00      1.35 
   125.20     12.64    940.38   1249.14      0.00      0.00 
   125.21     12.65    940.38   1248.98      0.01     -0.32 
   125.22     12.65    939.48   1247.63      0.01     -1.67 
   125.23     12.65    940.38   1248.98      0.01     -0.32 
   125.24     12.65    940.38   1248.98      0.01      9.07 
   125.25     12.64    933.19   1239.60      0.01    -10.03 
   125.26     12.63    940.38   1249.46      0.00     -0.16 
   125.27     12.64    939.48   1248.11      0.01     -1.51 
   125.28     12.64    940.38   1249.14      0.00      1.03 
   125.29     12.63    940.38   1249.46     -0.01      0.32 
   125.30     12.64    940.38   1249.30     -0.00      0.16 
   125.31     12.63    940.38   1249.63     -0.01      0.32 
   125.32     12.62    940.38   1249.95     -0.01      0.48 
   125.33     12.62    940.38   1249.79     -0.00      0.16 
   125.34     12.62    939.48   1248.59     -0.01      8.68 
   125.35     12.64    940.38   1249.30     -0.00      0.16 
   125.36     12.66    940.38   1248.66      0.02     -0.64 
   125.37     12.66    933.19   1239.12      0.02    -10.19 
   125.38     12.65    940.38   1248.82      0.01     -0.48 
   125.39     12.64    940.38   1249.14      0.00      1.03 
   125.40     12.63    940.38   1249.46     -0.02      0.64 
   125.41     12.63    940.38   1249.46     -0.01      0.48 
   125.42     12.64    940.38   1249.30     -0.01      0.48 
   125.43     12.64    940.38   1249.30     -0.00      0.16 
   125.44     12.64    939.48   1247.95      0.01     -1.51 
   125.45     12.65    940.38   1248.82      0.01      9.23 
   125.46     12.66    933.19   1239.12      0.02    -10.19 
