#Written by Robertson Geologging WinLogger V1.5/410
~VERSION INFORMATION
#------------------------------------------------------------------------------
 VERS. 2.0 : CWLS LOG ASCII STANDARD - VERSION 2.0
 WRAP. NO  : ONE LINE PER DEPTH STEP
~WELL INFORMATION
#MNEM.UNIT         DATA                                DESCRIPTION OF MNEMONIC
#------------------------------------------------------------------------------
 STRT.M        191.7300                            :   START DEPTH
 STOP.M         42.4500                            :   STOP DEPTH
 STEP.M         -0.0100                            :   STEP VALUE
 NULL.        -999.2500                            :   NULL VALUE
 COMP.    I.W.S.                                   :   COMPANY NAME
 WELL.    THRISLINGTON                             :   WELL NAME
 FLD.     N/A                                      :   FIELD NAME
 LOC.     N/A                                      :   LOCATION
 PROV.    N/A                                      :   PROVINCE
 SRVC.    N/A                                      :   SERVICE COMPANY NAME
 DATE.    14 Nov 11                                :   DATE
 UWI.     N/A                                      :   UNIQUE WELL IDENTIFIER
~PARAMETER INFORMATION
#MNEMO.UNIT         VALUE                 DESCRIPTION OF MNEMONIC
#------------------------------------------------------------------------------
~OTHER INFORMATION SECTION
#------------------------------------------------------------------------------
 1365 LOW
~CURVE INFORMATION
#MNEMO.UNIT         API CODE              CURVE DESCRIPTION
#------------------------------------------------------------------------------
 DEPTH.M                                 :   0     Depth
 TEMP.DegC                               :   1     Temperature
 COND.uS/cm                              :   2     Conductivity
 DELT.DegC                               :   3     Delta T
 DELC.uS/cm                              :   4     Delta C
 NGAM.CPS                                :   5     Natural Gamma
#------------------------------------------------------------------------------
~A  DEPTH          TEMP          COND          DELT          DELC          NGAM
# ...
    53.73         12.36        915.29         -0.00          2.51          0.42
    53.72         12.37        915.29          0.00          0.00          0.42
    53.71         12.37        912.78          0.00          0.42          0.42
    53.70         12.37        915.29          0.00          0.00          0.00
    53.69         12.36        912.78          0.00         -2.09          0.00
    53.68         12.36        914.87          0.00          2.09          0.00
    53.67         12.36        915.29          0.00          0.42          0.00
    53.66         12.36        912.78          0.00          0.00          0.00
    53.65         12.36        915.29          0.01          0.42          0.00
    53.64         12.36        912.78          0.01          0.00          0.00
    53.63         12.36        915.29          0.00          0.42          0.00
    53.62         12.36        912.78          0.00         -2.51          0.00
    53.61         12.36        912.78          0.00          0.42          0.00
    53.60         12.36        915.29          0.00         -0.00          0.00
    53.59         12.36        912.78          0.00         -2.09          0.00
    53.58         12.36        915.29          0.00          2.51          0.00
    53.57         12.37        913.20          0.00         -2.09          0.00
    53.56         12.36        912.78         -0.00         -0.00          0.00
    53.55         12.36        915.29         -0.00         -0.00          0.00
    53.54         12.36        912.78         -0.00         -2.51          0.00
    53.53         12.36        915.29          0.00          0.42          0.42
    53.52         12.36        912.78          0.00         -2.51          0.42
    53.51         12.36        915.29         -0.00          2.51          0.42
    53.50         12.36        915.29         -0.00          0.00          0.42
    53.49         12.36        912.78         -0.00          0.00          0.42
    53.48         12.35        915.29         -0.00          2.51          0.42
    53.47         12.35        912.78         -0.00         -2.51          0.42
    53.46         12.35        915.29         -0.00          2.93          0.42
    53.45         12.35        915.29         -0.00          0.00          0.83
    53.44         12.36        912.36         -0.00         -2.51          0.83
    53.43         12.36        915.29         -0.01          2.51          0.83
    53.42         12.36        912.78         -0.01         -2.51          0.83
    53.41         12.36        915.29         -0.01          2.51          0.83
    53.40         12.36        914.87         -0.01          0.00          0.83
    53.39         12.36        912.78         -0.01          0.00          1.33
    53.38         12.37        914.87         -0.01          0.00          1.33
    53.37         12.37        912.78         -0.00         -2.51          1.33
    53.36         12.37        914.87         -0.00          2.51          0.92
    53.35         12.37        912.36         -0.00         -2.51          0.92
    53.34         12.37        912.36          0.00         -2.51          0.92
    53.33         12.37        915.29          0.00          2.93          0.92
    53.32         12.37        912.36          0.00         -2.51          0.92
    53.31         12.37        914.87          0.00          2.51          0.92
    53.30         12.37        912.78          0.01         -2.09          0.92
    53.29         12.37        912.78          0.01         -2.09          0.92
    53.28         12.37        914.87          0.01         -0.00          0.50
    53.27         12.37        912.78          0.01         -2.09          0.50
    53.26         12.37        914.87          0.01          2.51          0.50
    53.25         12.37        912.78          0.00         -2.09          0.50
    53.24         12.37        914.87          0.00         -0.42          0.50
    53.23         12.37        912.78         -0.00          0.42          0.50
    53.22         12.37        912.36         -0.00         -2.93          0.00
    53.21         12.37        915.29         -0.00          0.42          0.00
    53.20         12.37        912.36         -0.01         -2.93          0.00
    53.19         12.37        914.87         -0.01          0.00          0.00
    53.18         12.37        914.87         -0.01          2.51          0.00
    53.17         12.37        912.78         -0.01         -2.09          0.00
    53.16         12.37        914.87         -0.01         -0.00          0.00
    53.15         12.37        912.78         -0.01         -2.09          0.00
    53.14         12.37        914.87         -0.01         -0.00          0.00
    53.13         12.37        912.78         -0.00          0.42          0.00
    53.12         12.37        914.87         -0.00          0.00          0.00
    53.11         12.37        915.29         -0.00          0.42          0.00
    53.10         12.37        912.36          0.00          0.00          0.00
    53.09         12.38        915.29          0.00          0.42          0.00
    53.08         12.38        914.87          0.00          2.51          0.00
    53.07         12.38        912.78          0.00         -2.51          0.92
    53.06         12.37        914.87         -0.00         -0.00          0.92
    53.05         12.37        912.78         -0.00         -0.00          0.92
    53.04         12.37        914.87         -0.01         -0.00          0.92
    53.03         12.37        915.29         -0.01          2.51          0.92
    53.02         12.37        914.87         -0.01          0.00          0.92
    53.01         12.37        915.29         -0.01          0.00          0.92
    53.00         12.37        912.36         -0.01          0.00          0.92
    52.99         12.37        915.29         -0.01          0.00          0.92
    52.98         12.36        914.87         -0.01          2.51          1.42
    52.97         12.36        912.78         -0.01         -2.51          1.42
    52.96         12.36        914.87         -0.01          0.00          1.42
    52.95         12.36        912.78         -0.01          0.00          1.42
    52.94         12.36        914.87         -0.01          0.00          1.42
    52.93         12.37        915.29         -0.00          0.42          1.42
    52.92         12.37        912.36          0.00         -2.51          1.42
    52.91         12.37        914.87          0.01          0.00          1.42
    52.90         12.37        912.36          0.01          0.00          0.50
    52.89         12.37        914.87          0.01         -0.00          0.50
    52.88         12.37        914.87          0.01         -0.00          0.50
    52.87         12.37        912.78          0.01         -2.09          0.50
    52.86         12.37        914.87          0.01          0.00          0.50
    52.85         12.37        914.87          0.01          2.51          0.50
    52.84         12.37        914.87          0.01         -0.00          0.50
    52.83         12.37        915.29          0.01          2.51          0.50
    52.82         12.37        912.36          0.01         -0.42          0.50
    52.81         12.37        915.29          0.00         -0.00          0.00
    52.80         12.37        915.29          0.00          2.51          0.00
    52.79         12.37        915.29         -0.00         -0.00          0.00
    52.78         12.37        915.29         -0.00         -0.00          0.00
    52.77         12.37        912.78          0.00         -0.00          0.00
    52.76         12.37        914.87          0.00         -0.42          0.00
    52.75         12.37        912.78          0.00         -0.00          0.00
    52.74         12.37        912.78          0.00         -2.93          0.00
