#Written by Robertson Geologging WinLogger V1.0/370
~VERSION INFORMATION
#------------------------------------------------------------------------------
 VERS. 2.0 : CWLS LOG ASCII STANDARD - VERSION 2.0
 WRAP. NO  : ONE LINE PER DEPTH STEP
~WELL INFORMATION
#MNEM.UNIT         DATA                                DESCRIPTION OF MNEMONIC
#------------------------------------------------------------------------------
 STRT.M         44.0600                            :   START DEPTH
 STOP.M        195.1500                            :   STOP DEPTH
 STEP.M          0.0100                            :   STEP VALUE
 NULL.        -999.2500                            :   NULL VALUE
 COMP.    WHITE YOUN GREEN                         :   COMPANY NAME
 WELL.    THRISINGTON SHAFT                        :   WELL NAME
 FLD.     THRISINGTON                              :   FIELD NAME
 LOC.     N/A                                      :   LOCATION
 PROV.    N/A                                      :   PROVINCE
 SRVC.    N/A                                      :   SERVICE COMPANY NAME
 DATE.    15 Dec 06                                :   DATE
 UWI.     N/A                                      :   UNIQUE WELL IDENTIFIER
~PARAMETER INFORMATION
#MNEMO.UNIT         VALUE                 DESCRIPTION OF MNEMONIC
#------------------------------------------------------------------------------
~OTHER INFORMATION SECTION
#------------------------------------------------------------------------------
 lLOGGING DOWN
~CURVE INFORMATION
#MNEMO.UNIT         API CODE              CURVE DESCRIPTION
#------------------------------------------------------------------------------
 DEPTH.M                                 :   0     Depth
 TEMP.DegC                               :   1     Temperature
 CN25.mS/cm                              :   2     Conductivity@25DegC
 COND.mS/cm                              :   3     Conductivity
 DELT.DegC                               :   4     Delta T
 DELC.mS/cm                              :   5     Delta C
 NGAM.CPS                                :   6     Natural Gamma
#------------------------------------------------------------------------------
~A  DEPTH     TEMP      CN25      COND      DELT      DELC      NGAM      
# ...
   124.29     12.63      7.81      1.61      0.01     -0.01      0.00 
   124.30     12.63      7.81      1.60      0.00     -0.01      0.00 
   124.31     12.63      7.82      1.60      0.00     -0.00      0.00 
   124.32     12.63      7.82      1.61      0.00      0.00      0.00 
   124.33     12.63      7.82      1.60     -0.00      0.00      0.00 
   124.34     12.63      7.82      1.61     -0.00      0.00      0.00 
   124.35     12.63      7.82      1.60     -0.00      0.01      0.00 
   124.36     12.63      7.82      1.61     -0.00      0.01      0.00 
   124.37     12.63      7.81      1.60     -0.00      0.00      0.00 
   124.38     12.63      7.81      1.60     -0.00      0.00      0.00 
   124.39     12.63      7.82      1.61     -0.00      0.00      0.00 
   124.40     12.63      7.81      1.60     -0.00      0.00      0.00 
   124.41     12.64      7.81      1.60      0.00     -0.01      0.00 
   124.42     12.64      7.81      1.61      0.00     -0.00      0.00 
   124.43     12.64      7.81      1.61      0.01     -0.01      0.00 
   124.44     12.64      7.81      1.61      0.01     -0.01      0.00 
   124.45     12.64      7.81      1.61      0.01     -0.01      0.00 
   124.46     12.64      7.81      1.61      0.01     -0.01      0.00 
   124.47     12.64      7.81      1.61      0.01     -0.01      0.00 
   124.48     12.64      7.81      1.61      0.01     -0.01      0.00 
   124.49     12.64      7.81      1.61      0.01     -0.01      0.00 
   124.50     12.64      7.81      1.61      0.01     -0.01      0.00 
   124.51     12.64      7.81      1.61      0.01     -0.01      0.00 
   124.52     12.64      7.81      1.61      0.01     -0.00      0.00 
   124.53     12.64      7.81      1.61      0.01     -0.01      0.00 
   124.54     12.64      7.81      1.61      0.01     -0.01      0.00 
   124.55     12.64      7.81      1.61      0.01     -0.01      0.00 
   124.56     12.64      7.81      1.61      0.01     -0.01      0.00 
   124.57     12.64      7.81      1.60      0.01     -0.01      0.00 
   124.58     12.64      7.81      1.60      0.01     -0.01      0.00 
   124.59     12.64      7.81      1.61      0.01     -0.00      0.00 
   124.60     12.64      7.81      1.61      0.01     -0.01      0.00 
   124.61     12.64      7.81      1.61      0.01     -0.01      0.41 
   124.62     12.64      7.81      1.61      0.01     -0.01      0.41 
   124.63     12.64      7.81      1.60      0.00     -0.00      0.88 
   124.64     12.64      7.81      1.61      0.00     -0.00      0.88 
   124.65     12.64      7.81      1.60     -0.00     -0.00      0.88 
   124.66     12.64      7.81      1.61      0.00     -0.00      0.88 
   124.67     12.64      7.81      1.60      0.00     -0.00      0.88 
   124.68     12.64      7.81      1.60      0.00     -0.01      0.88 
   124.69     12.64      7.81      1.61      0.00     -0.00      1.29 
   124.70     12.64      7.81      1.60      0.00     -0.01      1.29 
   124.71     12.64      7.81      1.61      0.00     -0.00      1.29 
   124.72     12.64      7.81      1.61      0.00     -0.01      1.29 
   124.73     12.64      7.81      1.61      0.00     -0.00      1.29 
   124.74     12.64      7.81      1.60      0.00     -0.01      1.29 
   124.75     12.64      7.81      1.61      0.00     -0.00      1.29 
   124.76     12.64      7.81      1.61      0.00     -0.01      1.29 
   124.77     12.64      7.81      1.61      0.00     -0.00      1.29 
   124.78     12.64      7.81      1.61     -0.00     -0.00      0.88 
   124.79     12.64      7.81      1.61     -0.00      0.01      0.88 
   124.80     12.64      7.81      1.61     -0.00      0.00      0.41 
   124.81     12.64      7.81      1.61     -0.00      0.01      0.82 
   124.82     12.63      7.81      1.60     -0.01      0.00      0.82 
   124.83     12.63      7.81      1.61     -0.01      0.01      0.82 
   124.84     12.63      7.82      1.61     -0.01      0.01      0.82 
   124.85     12.63      7.82      1.61     -0.01      0.02      1.29 
   124.86     12.63      7.82      1.61     -0.01      0.01      0.88 
   124.87     12.63      7.82      1.61     -0.01      0.02      0.88 
   124.88     12.63      7.82      1.61     -0.01      0.01      0.88 
   124.89     12.63      7.82      1.61     -0.01      0.01      0.88 
   124.90     12.63      7.82      1.61     -0.01      0.01      0.88 
   124.91     12.63      7.82      1.61     -0.01      0.01      0.88 
   124.92     12.63      7.82      1.61     -0.01      0.01      0.88 
   124.93     12.63      7.82      1.61     -0.01      0.02      0.88 
   124.94     12.63      7.81      1.61     -0.00      0.00      0.88 
   124.95     12.64      7.82      1.61     -0.00      0.01      0.88 
   124.96     12.64      7.81      1.61      0.00     -0.00      0.88 
   124.97     12.64      7.81      1.61      0.01     -0.00      0.88 
   124.98     12.64      7.81      1.61      0.01     -0.01      0.47 
   124.99     12.64      7.81      1.61      0.01     -0.01      0.47 
   125.00     12.64      7.80      1.61      0.01     -0.01      0.47 
   125.01     12.65      7.80      1.61      0.01     -0.01      0.47 
   125.02     12.65      7.80      1.61      0.01     -0.01      0.00 
   125.03     12.65      7.80      1.61      0.01     -0.01      0.00 
   125.04     12.65      7.80      1.61      0.02     -0.02      0.00 
   125.05     12.65      7.80      1.61      0.02     -0.01      0.00 
   125.06     12.65      7.80      1.61      0.02     -0.02      0.00 
   125.07     12.64      7.81      1.61      0.01     -0.01      0.00 
   125.08     12.64      7.81      1.61      0.01     -0.01      0.00 
   125.09     12.64      7.81      1.61      0.01     -0.01      0.00 
   125.10     12.64      7.81      1.61      0.01     -0.01      0.00 
   125.11     12.64      7.81      1.61      0.01     -0.00      0.00 
   125.12     12.64      7.81      1.61      0.01     -0.01      0.00 
   125.13     12.64      7.82      1.61      0.00      0.00      0.00 
   125.14     12.63      7.81      1.61      0.00     -0.00      0.00 
   125.15     12.63      7.82      1.61     -0.00      0.01      0.00 
   125.16     12.63      7.81      1.61     -0.00      0.00      0.00 
   125.17     12.63      7.81      1.61     -0.01      0.01      0.00 
   125.18     12.64      7.81      1.61     -0.01      0.01      0.00 
   125.19     12.64      7.81      1.61     -0.01      0.01      0.00 
   125.20     12.64      7.81      1.61     -0.01      0.01      0.00 
   125.21     12.64      7.81      1.61     -0.01      0.01      0.00 
   125.22     12.64      7.81      1.61     -0.00      0.01      0.00 
   125.23     12.64      7.81      1.61     -0.00      0.00      0.00 
   125.24     12.64      7.80      1.61      0.00     -0.00      0.00 
   125.25     12.64      7.80      1.61      0.00     -0.00      0.00 
   125.26     12.64      7.80      1.60      0.01     -0.01      0.00 
   125.27     12.64      7.80      1.61      0.01     -0.01      0.00 
   125.28     12.64      7.81      1.61      0.01     -0.01      0.00 
   125.29     12.64      7.80      1.61      0.01     -0.01      0.00 
   125.30     12.64      7.80      1.61      0.01     -0.01      0.00 
   125.31     12.64      7.80      1.61      0.01     -0.01      0.00 
   125.32     12.64      7.80      1.61      0.01     -0.01      0.00 
   125.33     12.64      7.81      1.61      0.01     -0.01      0.94 
   125.34     12.64      7.81      1.61      0.01     -0.01      0.94 
   125.35     12.64      7.81      1.60      0.01     -0.01      0.94 
   125.36     12.64      7.81      1.61      0.01     -0.01      0.94 
   125.37     12.64      7.81      1.60      0.00     -0.01      0.94 
   125.38     12.64      7.81      1.61      0.00     -0.01      0.94 
   125.39     12.64      7.81      1.60      0.00     -0.01      0.94 
   125.40     12.64      7.81      1.60      0.00     -0.00      0.94 
   125.41     12.64      7.81      1.61      0.00     -0.00      0.94 
