#Written by Robertson Geologging WinLogger V1.5/410
~VERSION INFORMATION
#------------------------------------------------------------------------------
 VERS. 2.0 : CWLS LOG ASCII STANDARD - VERSION 2.0
 WRAP. NO  : ONE LINE PER DEPTH STEP
~WELL INFORMATION
#MNEM.UNIT         DATA                                DESCRIPTION OF MNEMONIC
#------------------------------------------------------------------------------
 STRT.M         40.0200                            :   START DEPTH
 STOP.M        195.6300                            :   STOP DEPTH
 STEP.M          0.0100                            :   STEP VALUE
 NULL.        -999.2500                            :   NULL VALUE
 COMP.    IWS                                      :   COMPANY NAME
 WELL.    THRISLINGTON                             :   WELL NAME
 FLD.     DURHAM                                   :   FIELD NAME
 LOC.     N/A                                      :   LOCATION
 PROV.    N/A                                      :   PROVINCE
 SRVC.    N/A                                      :   SERVICE COMPANY NAME
 DATE.    16 Dec 09                                :   DATE
 UWI.     N/A                                      :   UNIQUE WELL IDENTIFIER
~PARAMETER INFORMATION
#MNEMO.UNIT         VALUE                 DESCRIPTION OF MNEMONIC
#------------------------------------------------------------------------------
~OTHER INFORMATION SECTION
#------------------------------------------------------------------------------
 TCDS 1365
~CURVE INFORMATION
#MNEMO.UNIT         API CODE              CURVE DESCRIPTION
#------------------------------------------------------------------------------
 DEPTH.M                                 :   0     Depth
 TEMP.DegC                               :   1     Temperature
 COND.uS/cm                              :   2     Conductivity@25DegC
 COND.uS/cm                              :   3     Absolute Conductivity
 DELT.DegC                               :   4     Delta T
 DELC.uS/cm                              :   5     Delta C
#------------------------------------------------------------------------------
~A  DEPTH          TEMP          COND          COND          DELT          DELC
# ...
   143.02         12.41       1291.77        966.39         -0.01         -1.47
   143.03         12.41       1292.33        966.81         -0.00         -4.89
   143.04         12.41       1292.87        967.23         -0.00         -4.40
   143.05         12.41       1292.86        967.23         -0.00          0.05
   143.06         12.41       1291.72        966.39         -0.00         -5.01
   143.07         12.41       1292.24        966.81         -0.00         -0.55
   143.08         12.41       1292.75        967.23          0.00         -3.95
   143.09         12.41       1293.30        967.65          0.00         -3.47
   143.10         12.41       1291.59        966.39          0.01         -1.32
   143.11         12.41       1294.35        968.49          0.01         -2.53
   143.12         12.41       1292.64        967.23          0.01          0.18
   143.13         12.41       1293.14        967.65          0.01         -3.28
   143.14         12.42       1293.64        968.07          0.02          1.12
   143.15         12.42       1291.95        966.81          0.02         -4.52
   143.16         12.42       1292.51        967.23          0.02         -4.01
   143.17         12.42       1294.79        968.90          0.02          2.18
   143.18         12.41       1292.63        967.23          0.02         -3.92
   143.19         12.41       1292.69        967.23          0.01          0.09
   143.20         12.41       1293.28        967.65          0.01         -3.15
   143.21         12.41       1293.31        967.65          0.01         -3.04
   143.22         12.41       1292.78        967.23          0.00         -3.50
   143.23         12.41       1295.07        968.90          0.00         -1.15
   143.24         12.41       1292.90        967.23         -0.00          0.68
   143.25         12.40       1292.93        967.23         -0.01         -3.71
   143.26         12.40       1292.95        967.23         -0.01          0.26
   143.27         12.40       1292.92        967.23         -0.01         -3.69
   143.28         12.41       1292.87        967.23         -0.00         -3.77
   143.29         12.41       1292.84        967.23         -0.00          0.11
   143.30         12.41       1292.84        967.23         -0.00         -3.84
   143.31         12.41       1292.86        967.23         -0.00          0.01
   143.32         12.41       1292.87        967.23          0.00         -3.96
   143.33         12.41       1292.89        967.23          0.00         -0.12
   143.34         12.41       1293.43        967.65          0.01          0.35
   143.35         12.41       1293.39        967.65          0.01         -3.66
   143.36         12.41       1293.36        967.65          0.01          0.79
   143.37         12.41       1295.53        969.32          0.01         -0.92
   143.38         12.41       1293.28        967.65          0.01          0.80
   143.39         12.41       1293.31        967.65          0.01          0.89
   143.40         12.41       1293.33        967.65          0.01         -3.00
   143.41         12.41       1293.89        968.07          0.01          1.47
   143.42         12.41       1293.34        967.65          0.00         -2.97
   143.43         12.41       1293.33        967.65          0.00          0.97
   143.44         12.41       1293.30        967.65          0.00          0.95
   143.45         12.41       1292.75        967.23          0.00         -3.48
   143.46         12.41       1292.77        967.23          0.00          0.47
   143.47         12.41       1292.78        967.23          0.00         -3.45
   143.48         12.41       1292.81        967.23          0.00          0.48
   143.49         12.41       1292.81        967.23          0.00         -3.47
   143.50         12.41       1292.78        967.23          0.01         -3.54
   143.51         12.41       1295.02        968.90          0.01          2.57
   143.52         12.41       1292.24        966.81          0.01         -4.13
   143.53         12.41       1292.21        966.81          0.01         -0.29
   143.54         12.41       1294.46        968.49          0.01         -2.01
   143.55         12.41       1292.24        966.81          0.01         -4.24
   143.56         12.41       1292.24        966.81          0.01         -4.21
   143.57         12.41       1292.25        966.81          0.01         -4.19
   143.58         12.41       1292.25        966.81          0.01         -0.24
   143.59         12.41       1292.25        966.81          0.01         -4.16
   143.60         12.41       1292.27        966.81          0.01         -0.24
   143.61         12.41       1292.28        966.81          0.01         -4.10
   143.62         12.41       1292.31        966.81          0.00         -4.01
   143.63         12.41       1292.31        966.81          0.00         -0.06
   143.64         12.41       1292.34        966.81          0.00         -3.97
   143.65         12.40       1292.36        966.81          0.00         -0.05
   143.66         12.40       1292.40        966.81          0.00         -3.95
   143.67         12.40       1292.99        967.23          0.00          0.50
   143.68         12.40       1295.25        968.90          0.00          2.75
   143.69         12.40       1293.04        967.23          0.00          0.56
   143.70         12.40       1293.05        967.23         -0.00          1.76
   143.71         12.40       1295.32        968.90         -0.01          3.00
   143.72         12.40       1293.13        967.23         -0.01          4.78
   143.73         12.40       1293.11        967.23         -0.01          2.54
   143.74         12.40       1293.11        967.23         -0.01          1.41
   143.75         12.40       1293.11        967.23         -0.01          4.28
   143.76         12.40       1293.10        967.23         -0.01          2.12
   143.77         12.40       1293.10        967.23         -0.01          4.98
   143.78         12.40       1293.10        967.23         -0.02          3.95
   143.79         12.40       1290.89        965.55         -0.02         -0.46
   143.80         12.40       1294.29        968.07         -0.02          1.81
   143.81         12.40       1292.11        966.39         -0.02          1.31
   143.82         12.40       1293.81        967.65         -0.02          2.96
   143.83         12.40       1293.73        967.65         -0.02          0.03
   143.84         12.40       1295.34        968.90         -0.01          2.75
   143.85         12.40       1295.25        968.90         -0.01          2.71
   143.86         12.40       1292.96        967.23         -0.01          0.44
   143.87         12.40       1294.64        968.49         -0.01          3.22
   143.88         12.40       1294.61        968.49         -0.01          3.18
   143.89         12.40       1295.72        969.32         -0.01          4.21
   143.90         12.41       1295.66        969.32         -0.00          5.21
   143.91         12.41       1292.22        966.81         -0.00          1.76
   143.92         12.41       1296.06        969.74          0.00          5.55
   143.93         12.41       1292.10        966.81          0.00          1.00
   143.94         12.41       1296.05        969.74          0.00          6.63
   143.95         12.41       1292.16        966.81          0.00          2.13
   143.96         12.41       1292.21        966.81          0.00          1.56
   143.97         12.41       1296.12        969.74          0.00          4.87
   143.98         12.41       1292.18        966.81          0.01          0.33
   143.99         12.41       1296.06        969.74          0.01          5.34
   144.00         12.41       1292.16        966.81          0.01          0.92
   144.01         12.41       1292.19        966.81          0.00          0.42
