#Written by Robertson Geologging WinLogger V1.5/410
~VERSION INFORMATION
#------------------------------------------------------------------------------
 VERS. 2.0 : CWLS LOG ASCII STANDARD - VERSION 2.0
 WRAP. NO  : ONE LINE PER DEPTH STEP
~WELL INFORMATION
#MNEM.UNIT         DATA                                DESCRIPTION OF MNEMONIC
#------------------------------------------------------------------------------
 STRT.M         40.0200                            :   START DEPTH
 STOP.M        195.6300                            :   STOP DEPTH
 STEP.M          0.0100                            :   STEP VALUE
 NULL.        -999.2500                            :   NULL VALUE
 COMP.    IWS                                      :   COMPANY NAME
 WELL.    THRISLINGTON                             :   WELL NAME
 FLD.     DURHAM                                   :   FIELD NAME
 LOC.     N/A                                      :   LOCATION
 PROV.    N/A                                      :   PROVINCE
 SRVC.    N/A                                      :   SERVICE COMPANY NAME
 DATE.    16 Dec 09                                :   DATE
 UWI.     N/A                                      :   UNIQUE WELL IDENTIFIER
~PARAMETER INFORMATION
#MNEMO.UNIT         VALUE                 DESCRIPTION OF MNEMONIC
#------------------------------------------------------------------------------
~OTHER INFORMATION SECTION
#------------------------------------------------------------------------------
 TCDS 1365
~CURVE INFORMATION
#MNEMO.UNIT         API CODE              CURVE DESCRIPTION
#------------------------------------------------------------------------------
 DEPTH.M                                 :   0     Depth
 TEMP.DegC                               :   1     Temperature
 COND.uS/cm                              :   2     Conductivity@25DegC
 COND.uS/cm                              :   3     Absolute Conductivity
 DELT.DegC                               :   4     Delta T
 DELC.uS/cm                              :   5     Delta C
#------------------------------------------------------------------------------
~A  DEPTH          TEMP          COND          COND          DELT          DELC
# ...
   164.02         12.41       1297.23        970.58          0.01          3.51
   164.03         12.41       1292.80        967.23          0.01         -0.92
   164.04         12.41       1296.76        970.16          0.01         -0.86
   164.05         12.41       1292.87        967.23          0.01         -0.27
   164.06         12.41       1292.89        967.23          0.01         -0.23
   164.07         12.41       1296.78        970.16          0.01          3.72
   164.08         12.41       1292.84        967.23          0.01         -0.21
   164.09         12.41       1292.84        967.23          0.01         -4.15
   164.10         12.41       1292.28        966.81          0.01         -0.82
   164.11         12.41       1292.31        966.81          0.01         -0.85
   164.12         12.41       1296.25        969.74          0.01          3.66
   164.13         12.40       1292.36        966.81          0.01         -0.21
   164.14         12.40       1296.32        969.74          0.00         -0.70
   164.15         12.40       1292.45        966.81          0.00         -0.62
   164.16         12.40       1292.49        966.81          0.00         -0.58
   164.17         12.40       1296.41        969.74          0.00         -0.56
   164.18         12.40       1292.49        966.81          0.00         -0.59
   164.19         12.40       1292.46        966.81          0.00         -4.53
   164.20         12.40       1296.34        969.74          0.00          3.28
   164.21         12.40       1292.40        966.81          0.00         -0.61
   164.22         12.40       1296.29        969.74          0.00         -1.14
   164.23         12.41       1292.31        966.81          0.00         -1.18
   164.24         12.41       1292.25        966.81          0.00         -5.13
   164.25         12.41       1292.16        966.81          0.01         -0.74
   164.26         12.41       1292.07        966.81          0.01         -0.85
   164.27         12.42       1295.91        969.74          0.01         -0.92
   164.28         12.42       1291.96        966.81          0.01         -0.97
   164.29         12.41       1292.01        966.81          0.01         -5.34
   164.30         12.41       1295.94        969.74          0.01          2.56
   164.31         12.41       1292.07        966.81          0.00         -1.26
   164.32         12.41       1296.02        969.74          0.00         -1.18
   164.33         12.41       1292.10        966.81          0.00         -0.62
   164.34         12.41       1292.21        966.81         -0.00         -0.50
   164.35         12.41       1296.23        969.74         -0.00          3.50
   164.36         12.40       1292.40        966.81         -0.01         -0.36
   164.37         12.40       1292.48        966.81         -0.01         -4.21
   164.38         12.40       1292.51        966.81         -0.01         -0.23
   164.39         12.40       1292.54        966.81         -0.01         -0.20
   164.40         12.40       1297.02        970.16         -0.01          4.83
   164.41         12.40       1293.13        967.23         -0.01          0.89
   164.42         12.40       1293.13        967.23         -0.01         -3.68
   164.43         12.40       1293.14        967.23         -0.01          0.24
   164.44         12.40       1293.17        967.23         -0.01          0.29
   164.45         12.40       1297.11        970.16         -0.01          0.32
   164.46         12.40       1293.20        967.23         -0.01          0.38
   164.47         12.40       1293.22        967.23         -0.01         -3.54
   164.48         12.40       1297.17        970.16         -0.01          4.30
   164.49         12.39       1293.26        967.23         -0.01          0.35
   164.50         12.40       1297.73        970.58         -0.01          0.86
   164.51         12.40       1293.23        967.23         -0.01          0.24
   164.52         12.40       1293.22        967.23         -0.01         -4.28
   164.53         12.40       1297.73        970.58         -0.01          4.71
   164.54         12.39       1293.82        967.65         -0.01          0.76
   164.55         12.39       1293.84        967.65         -0.01         -3.18
   164.56         12.40       1293.79        967.65         -0.00          0.67
   164.57         12.40       1293.73        967.65         -0.00         -3.31
   164.58         12.40       1297.61        970.58         -0.00          4.50
   164.59         12.40       1293.64        967.65          0.00          0.54
   164.60         12.40       1293.64        967.65         -0.00         -3.90
   164.61         12.40       1293.64        967.65         -0.00          0.06
   164.62         12.40       1293.64        967.65         -0.00         -3.81
   164.63         12.40       1297.56        970.58         -0.00          4.65
   164.64         12.40       1293.05        967.23         -0.01          0.18
   164.65         12.40       1293.04        967.23         -0.00         -3.77
   164.66         12.40       1296.91        970.16         -0.00          4.03
   164.67         12.40       1292.96        967.23         -0.00          0.06
   164.68         12.40       1296.87        970.16          0.00          3.92
   164.69         12.40       1292.95        967.23          0.00          0.00
   164.70         12.40       1292.95        967.23          0.00         -4.49
   164.71         12.40       1296.85        970.16          0.00          3.83
   164.72         12.40       1292.37        966.81          0.00         -0.71
   164.73         12.40       1296.29        969.74          0.01          3.13
   164.74         12.40       1292.39        966.81          0.01         -0.83
   164.75         12.40       1292.40        966.81          0.01         -4.80
   164.76         12.40       1296.32        969.74          0.01          3.04
   164.77         12.40       1292.43        966.81          0.01         -0.85
   164.78         12.40       1292.43        966.81          0.01         -4.77
   164.79         12.40       1292.43        966.81          0.01         -0.85
   164.80         12.40       1292.39        966.81          0.01         -5.36
   164.81         12.40       1296.29        969.74          0.01          3.04
   164.82         12.40       1292.40        966.81          0.01         -0.77
   164.83         12.40       1292.43        966.81          0.00         -4.59
   164.84         12.40       1293.05        967.23          0.00          0.00
   164.85         12.40       1293.08        967.23         -0.00          0.03
   164.86         12.40       1297.06        970.16         -0.00          4.01
   164.87         12.40       1293.17        967.23         -0.00          0.12
   164.88         12.40       1293.20        967.23         -0.00         -4.33
   164.89         12.40       1297.15        970.16         -0.01          3.56
   164.90         12.40       1293.25        967.23         -0.01         -0.29
   164.91         12.39       1297.79        970.58         -0.01          4.30
   164.92         12.39       1293.88        967.65         -0.01          0.44
   164.93         12.39       1293.88        967.65         -0.01         -3.48
   164.94         12.39       1297.74        970.58         -0.01          4.27
   164.95         12.40       1293.19        967.23         -0.01         -0.29
   164.96         12.40       1297.03        970.16         -0.01         -0.35
   164.97         12.40       1293.02        967.23         -0.01         -0.38
   164.98         12.40       1293.01        967.23         -0.01         -4.81
   164.99         12.40       1297.46        970.58         -0.01          4.16
   165.00         12.40       1293.54        967.65         -0.01          0.26
   165.01         12.40       1297.43        970.58         -0.01          0.20
