#Written by Robertson Geologging WinLogger V1.0/406
~VERSION INFORMATION
#------------------------------------------------------------------------------
 VERS. 2.0 : CWLS LOG ASCII STANDARD - VERSION 2.0
 WRAP. NO  : ONE LINE PER DEPTH STEP
~WELL INFORMATION
#MNEM.UNIT         DATA                                DESCRIPTION OF MNEMONIC
#------------------------------------------------------------------------------
 STRT.M         44.9500                            :   START DEPTH
 STOP.M        194.0200                            :   STOP DEPTH
 STEP.M          0.0100                            :   STEP VALUE
 NULL.        -999.2500                            :   NULL VALUE
 COMP.    Coal Authority                           :   COMPANY NAME
 WELL.    Thrislington Shaft                       :   WELL NAME
 FLD.     Banks Yard                               :   FIELD NAME
 LOC.     N/A                                      :   LOCATION
 PROV.    N/A                                      :   PROVINCE
 SRVC.    N/A                                      :   SERVICE COMPANY NAME
 DATE.    19 May 08                                :   DATE
 UWI.     N/A                                      :   UNIQUE WELL IDENTIFIER
~PARAMETER INFORMATION
#MNEMO.UNIT         VALUE                 DESCRIPTION OF MNEMONIC
#------------------------------------------------------------------------------
~OTHER INFORMATION SECTION
#------------------------------------------------------------------------------
 TCDS 1365
~CURVE INFORMATION
#MNEMO.UNIT         API CODE              CURVE DESCRIPTION
#------------------------------------------------------------------------------
 DEPTH.M                                 :   0     Depth
 TEMP.DegC                               :   1     Temperature
 COND.uS/cm                              :   2     Absolute Conductivity
 COND.uS/cm                              :   3     Conductivity@25DegC
 DELT.DegC                               :   4     Delta T
 DELC.uS/cm                              :   5     Delta C
#------------------------------------------------------------------------------
~A  DEPTH     TEMP      COND      COND      DELT      DELC      
# ...
   172.99     12.63    940.38   1249.46     -0.02      1.83 
   173.00     12.64    939.48   1248.11     -0.01      8.67 
   173.01     12.65    940.38   1248.98     -0.01      0.32 
   173.02     12.64    940.38   1249.14     -0.01      0.32 
   173.03     12.64    933.19   1239.60     -0.00     -9.39 
   173.04     12.63    940.38   1249.46     -0.01      0.32 
   173.05     12.63    940.38   1249.63     -0.01     10.03 
   173.06     12.64    939.48   1248.11     -0.01      0.48 
   173.07     12.64    940.38   1249.14     -0.01      0.32 
   173.08     12.65    933.19   1239.44     -0.00     -9.39 
   173.09     12.65    940.38   1248.82      0.01     -0.32 
   173.10     12.64    940.38   1249.30      0.00      1.03 
   173.11     12.63    940.38   1249.46     -0.00      0.16 
   173.12     12.63    940.38   1249.63     -0.01      9.87 
   173.13     12.64    933.19   1239.75     -0.01     -9.23 
   173.14     12.64    939.48   1247.95      0.00      0.00 
   173.15     12.65    940.38   1248.98      0.02     -0.64 
   173.16     12.65    940.38   1248.98      0.01     -0.48 
   173.17     12.64    940.38   1249.30      0.01      0.71 
   173.18     12.64    940.38   1249.30      0.01      9.07 
   173.19     12.64    933.19   1239.75      0.00     -9.55 
   173.20     12.64    940.38   1249.14      0.00     -0.16 
   173.21     12.65    940.38   1248.82      0.01      0.87 
   173.22     12.66    939.48   1247.31      0.01     -1.51 
   173.23     12.66    940.38   1248.66      0.01      9.23 
   173.24     12.65    940.38   1248.82      0.01     -0.32 
   173.25     12.64    933.19   1239.60     -0.00     -9.39 
   173.26     12.64    940.38   1249.30     -0.01      1.51 
   173.27     12.64    939.48   1247.95     -0.01     -0.87 
   173.28     12.65    940.38   1248.82      0.00     -0.16 
   173.29     12.65    940.38   1248.98      0.00      9.55 
   173.30     12.64    940.38   1249.14      0.00      0.00 
   173.31     12.64    939.48   1248.11      0.00     -1.19 
   173.32     12.63    933.19   1239.91     -0.00     -9.39 
   173.33     12.64    940.38   1249.30      0.00     -0.16 
   173.34     12.64    940.38   1249.14      0.01      9.07 
   173.35     12.65    939.48   1247.79      0.01     -0.48 
   173.36     12.65    940.38   1248.98      0.01     -0.48 
   173.37     12.64    940.38   1249.14      0.00     -0.16 
   173.38     12.64    939.48   1247.95      0.00     -1.19 
   173.39     12.64    933.19   1239.60      0.00     -9.55 
   173.40     12.64    940.38   1249.14     -0.01     10.03 
   173.41     12.64    939.48   1247.95      0.00     -1.19 
   173.42     12.65    940.38   1248.98      0.00     -0.16 
   173.43     12.65    940.38   1248.98     -0.00      1.35 
   173.44     12.64    940.38   1249.14      0.00     -0.16 
   173.45     12.63    933.19   1239.91     -0.02     -8.75 
   173.46     12.63    939.48   1248.43     -0.02      9.15 
   173.47     12.63    940.38   1249.46     -0.01      0.32 
   173.48     12.64    940.38   1249.30     -0.01      0.48 
   173.49     12.64    940.38   1249.14      0.00      0.00 
   173.50     12.65    940.38   1248.82      0.00      9.39 
   173.51     12.65    933.19   1239.44     -0.00     -9.39 
   173.52     12.65    940.38   1248.82      0.00      0.00 
   173.53     12.65    940.38   1248.98     -0.01      1.67 
   173.54     12.63    939.48   1248.27     -0.02     -0.39 
   173.55     12.63    940.38   1249.46     -0.01      0.48 
   173.56     12.63    940.38   1249.46     -0.00      9.71 
   173.57     12.63    933.19   1239.91      0.00     -9.71 
   173.58     12.64    940.38   1249.30      0.00     -0.16 
   173.59     12.64    940.38   1249.30      0.00      0.00 
   173.60     12.63    940.38   1249.63     -0.01      1.67 
   173.61     12.63    940.38   1249.63     -0.02     10.35 
   173.62     12.63    939.48   1248.43     -0.02     -0.39 
   173.63     12.63    933.19   1240.07     -0.03     -8.43 
   173.64     12.64    940.38   1249.30     -0.02      0.64 
   173.65     12.64    940.38   1249.14     -0.00      0.16 
   173.66     12.63    940.38   1249.46     -0.01      1.51 
   173.67     12.62    933.19   1240.23     -0.02      0.64 
   173.68     12.63    940.38   1249.63     -0.01      0.32 
   173.69     12.62    939.48   1248.59     -0.02     -0.55 
   173.70     12.64    940.38   1249.30      0.00      0.00 
   173.71     12.66    940.38   1248.66      0.02      8.75 
   173.72     12.65    933.19   1239.44      0.01     -9.87 
   173.73     12.65    940.38   1248.98      0.00      1.03 
   173.74     12.63    940.38   1249.63     -0.03      0.96 
   173.75     12.62    940.38   1249.79     -0.03      1.12 
   173.76     12.63    939.48   1248.43     -0.02     -0.55 
   173.77     12.64    933.19   1239.75      0.00      0.00 
   173.78     12.65    940.38   1248.82      0.02     -0.64 
   173.79     12.65    940.38   1248.82      0.02      0.39 
   173.80     12.65    940.38   1248.82      0.02     -0.64 
   173.81     12.64    940.38   1249.14      0.01     -0.32 
   173.82     12.64    933.19   1239.75      0.00     -9.71 
   173.83     12.64    939.48   1248.11      0.00      0.00 
   173.84     12.64    940.38   1249.30      0.00      9.55 
   173.85     12.64    940.38   1249.14     -0.01      0.32 
   173.86     12.65    940.38   1248.98     -0.00      1.35 
   173.87     12.64    933.19   1239.75     -0.01     -9.23 
   173.88     12.63    940.38   1249.63     -0.02      0.64 
   173.89     12.63    940.38   1249.46      0.00      1.19 
   173.90     12.64    939.48   1248.11      0.00     -1.19 
   173.91     12.65    940.38   1248.82      0.01      9.07 
   173.92     12.66    933.19   1238.96      0.02    -10.18 
   173.93     12.67    940.38   1248.34      0.03     -0.96 
   173.94     12.65    940.38   1248.82      0.01     -0.48 
   173.95     12.65    940.38   1248.98      0.00      1.03 
   173.96     12.64    933.19   1239.60      0.00     -0.16 
   173.97     12.64    939.48   1247.95      0.00     -1.19 
   173.98     12.65    940.38   1248.82      0.02     -0.64 
   173.99     12.65    940.38   1248.82      0.01      0.71 
   174.00     12.65    933.19   1239.28      0.00     -9.71 
   174.01     12.64    940.38   1249.14      0.00      0.00 
   174.02     12.64    940.38   1249.30     -0.00      9.71 
   174.03     12.63    940.38   1249.46      0.00      0.00 
   174.04     12.64    939.48   1248.11      0.01     -1.51 
   174.05     12.64    933.19   1239.75      0.00     -8.36 
   174.06     12.64    940.38   1249.30     -0.00      0.16 
   174.07     12.64    940.38   1249.14     -0.00      9.71 
   174.08     12.64    940.38   1249.30     -0.01      0.48 
   174.09     12.64    939.48   1247.95      0.00     -1.35 
   174.10     12.65    933.19   1239.44      0.01    -10.03 
   174.11     12.65    940.38   1248.98      0.02     -0.64 
   174.12     12.65    940.38   1248.82      0.01      9.07 
   174.13     12.64    940.38   1249.30     -0.00      1.35 
   174.14     12.63    933.19   1239.91     -0.01     -9.07 
   174.15     12.64    939.48   1248.11     -0.01     -0.87 
   174.16     12.63    940.38   1249.63     -0.01      0.32 
   174.17     12.63    940.38   1249.63     -0.01      0.32 
   174.18     12.62    940.38   1249.79     -0.01     10.03 
   174.19     12.63    933.19   1240.07     -0.01     -9.07 
   174.20     12.63    939.48   1248.27     -0.02     -0.55 
   174.21     12.63    940.38   1249.46     -0.03      2.15 
   174.22     12.63    940.38   1249.63     -0.03      0.96 
   174.23     12.62    940.38   1249.79     -0.03      0.96 
   174.24     12.62    940.38   1249.95     -0.02     10.35 
   174.25     12.63    939.48   1248.43     -0.01     -0.87 
   174.26     12.63    933.19   1239.91     -0.01     -8.04 
   174.27     12.64    940.38   1249.30     -0.01      0.48 
   174.28     12.63    940.38   1249.46     -0.01      0.48 
   174.29     12.63    940.38   1249.46     -0.01      0.32 
   174.30     12.64    933.19   1239.75      0.00     -8.36 
