#Written by Robertson Geologging WinLogger V1.5/410
~VERSION INFORMATION
#------------------------------------------------------------------------------
 VERS. 2.0 : CWLS LOG ASCII STANDARD - VERSION 2.0
 WRAP. NO  : ONE LINE PER DEPTH STEP
~WELL INFORMATION
#MNEM.UNIT         DATA                                DESCRIPTION OF MNEMONIC
#------------------------------------------------------------------------------
 STRT.M         25.0100                            :   START DEPTH
 STOP.M        192.0000                            :   STOP DEPTH
 STEP.M          0.0100                            :   STEP VALUE
 NULL.        -999.2500                            :   NULL VALUE
 COMP.    IWS                                      :   COMPANY NAME
 WELL.    Thristlington                            :   WELL NAME
 FLD.     N/A                                      :   FIELD NAME
 LOC.     N/A                                      :   LOCATION
 PROV.    N/A                                      :   PROVINCE
 SRVC.    N/A                                      :   SERVICE COMPANY NAME
 DATE.    01 Feb 11                                :   DATE
 UWI.     N/A                                      :   UNIQUE WELL IDENTIFIER
~PARAMETER INFORMATION
#MNEMO.UNIT         VALUE                 DESCRIPTION OF MNEMONIC
#------------------------------------------------------------------------------
~OTHER INFORMATION SECTION
#------------------------------------------------------------------------------
 1365
~CURVE INFORMATION
#MNEMO.UNIT         API CODE              CURVE DESCRIPTION
#------------------------------------------------------------------------------
 DEPTH.M                                 :   0     Depth
 TEMP.DegC                               :   1     Temperature
 CN25.uS/cm                              :   2     Conductivity@25DegC
 DELT.DegC                               :   3     Delta T
 DELC.uS/cm                              :   4     Delta C
#------------------------------------------------------------------------------
~A  DEPTH          TEMP          CN25          DELT          DELC
# ...
    79.91         12.15       1180.40          0.00         -1.21
    79.92         12.16       1182.62          0.00          3.30
    79.93         12.16       1178.68          0.00         -2.90
    79.94         12.15       1178.72          0.00          1.13
    79.95         12.15       1179.91         -0.00          0.09
    79.96         12.15       1178.26         -0.00         -3.27
    79.97         12.15       1179.96         -0.00         -1.59
    79.98         12.15       1176.57          0.00         -3.38
    79.99         12.15       1180.51          0.00          0.48
    80.00         12.15       1180.54          0.00         -1.24
    80.01         12.15       1180.53          0.01          0.39
    80.02         12.15       1180.54          0.00          0.41
    80.03         12.15       1176.62          0.00         -3.52
    80.04         12.15       1181.67          0.01          1.48
    80.05         12.15       1179.98          0.01         -0.26
    80.06         12.15       1176.55          0.01         -3.72
    80.07         12.15       1180.50          0.01          0.22
    80.08         12.15       1180.54          0.01          4.25
    80.09         12.15       1180.58          0.01          0.39
    80.10         12.15       1180.61          0.00          2.69
    80.11         12.15       1180.61          0.00          2.66
    80.12         12.15       1180.64          0.01         -1.30
    80.13         12.15       1180.67          0.01          0.93
    80.14         12.15       1180.68          0.01         -1.33
    80.15         12.14       1180.71          0.00          2.68
    80.16         12.14       1180.73          0.00          1.00
    80.17         12.14       1183.02          0.00          2.17
    80.18         12.14       1180.80          0.00          1.59
    80.19         12.14       1179.11          0.00         -4.10
    80.20         12.14       1181.38          0.00          0.41
    80.21         12.14       1179.12          0.00         -0.14
    80.22         12.14       1181.40          0.00         -1.18
    80.23         12.14       1177.46          0.00         -2.85
    80.24         12.14       1177.43          0.00         -1.14
    80.25         12.14       1181.35          0.00          5.03
    80.26         12.14       1176.26          0.00         -4.02
    80.27         12.14       1180.21          0.00         -0.07
    80.28         12.14       1177.95          0.00         -1.21
    80.29         12.14       1180.21          0.00         -0.61
    80.30         12.14       1180.16          0.00          3.35
    80.31         12.15       1177.85          0.00         -2.28
    80.32         12.15       1180.08          0.00         -0.00
    80.33         12.15       1177.75          0.00          1.06
    80.34         12.15       1181.68          0.00          2.76
    80.35         12.15       1181.67          0.00          1.06
    80.36         12.15       1177.72          0.00         -5.12
    80.37         12.15       1181.70         -0.00          1.16
    80.38         12.15       1179.43          0.00          0.56
    80.39         12.15       1181.68          0.00          1.69
    80.40         12.15       1177.69          0.00         -0.63
    80.41         12.15       1179.39          0.00         -0.72
    80.42         12.15       1181.65          0.01          2.59
    80.43         12.15       1179.41          0.01         -1.40
    80.44         12.15       1181.71          0.01         -1.40
    80.45         12.15       1179.47          0.01         -1.38
    80.46         12.15       1177.78          0.01         -1.36
    80.47         12.15       1182.84          0.01          2.60
    80.48         12.15       1178.85          0.01          0.32
    80.49         12.15       1178.82          0.01         -1.36
    80.50         12.15       1178.79          0.01         -0.21
    80.51         12.15       1180.47          0.01         -0.21
    80.52         12.15       1182.72          0.00         -0.14
    80.53         12.15       1180.46          0.00         -0.09
    80.54         12.15       1178.76          0.00         -1.72
    80.55         12.15       1179.89         -0.00          3.41
    80.56         12.15       1178.23         -0.00         -1.63
    80.57         12.15       1182.22         -0.00          2.34
    80.58         12.15       1178.88         -0.00          2.33
    80.59         12.15       1178.89         -0.00         -1.63
    80.60         12.15       1182.28         -0.00          1.72
    80.61         12.15       1178.34         -0.00         -2.24
    80.62         12.15       1178.39         -0.00         -2.23
    80.63         12.14       1178.46         -0.00          1.78
    80.64         12.14       1178.54         -0.00         -1.53
    80.65         12.14       1182.53         -0.01          4.13
    80.66         12.14       1179.19         -0.01         -0.87
    80.67         12.14       1179.18         -0.01          2.54
    80.68         12.14       1180.28         -0.01         -0.31
    80.69         12.14       1178.61         -0.01         -4.22
    80.70         12.14       1182.59         -0.01          1.96
    80.71         12.14       1179.26         -0.01         -1.39
    80.72         12.14       1180.95         -0.01          0.28
    80.73         12.14       1183.14         -0.01          2.48
    80.74         12.14       1179.11         -0.00         -1.56
    80.75         12.14       1179.02          0.00          1.69
    80.76         12.15       1178.98          0.00         -2.34
    80.77         12.15       1178.96          0.00         -2.38
    80.78         12.15       1182.90          0.01         -0.73
    80.79         12.15       1179.50          0.01         -0.21
    80.80         12.15       1179.46          0.01          2.01
    80.81         12.15       1177.17          0.01         -2.50
    80.82         12.15       1179.41          0.01         -0.17
    80.83         12.15       1181.71          0.00          2.20
    80.84         12.15       1179.53         -0.00          0.09
    80.85         12.14       1179.58         -0.01          0.20
    80.86         12.14       1183.00         -0.01          0.27
    80.87         12.15       1179.01         -0.01          0.27
    80.88         12.15       1181.25         -0.01          2.53
    80.89         12.15       1179.01         -0.01          0.27
    80.90         12.14       1177.36         -0.01         -3.04
    80.91         12.14       1182.46         -0.01         -0.16
    80.92         12.14       1180.78         -0.01          2.10
    80.93         12.14       1180.78         -0.01          2.06
    80.94         12.14       1176.85         -0.01         -3.06
    80.95         12.14       1176.91         -0.01         -1.35
    80.96         12.14       1180.90         -0.01          0.93
    80.97         12.14       1177.54         -0.01          0.98
    80.98         12.14       1181.55         -0.01          1.03
    80.99         12.14       1179.29         -0.01         -1.25
    81.00         12.14       1177.57         -0.01         -2.96
    81.01         12.14       1181.50         -0.01          0.96
    81.02         12.14       1178.09         -0.01          1.47
    81.03         12.14       1182.05         -0.01          0.38
    81.04         12.14       1178.11         -0.01         -1.87
    81.05         12.14       1179.76         -0.01          3.20
    81.06         12.14       1181.95         -0.01          1.46
    81.07         12.14       1179.66         -0.01         -0.89
    81.08         12.14       1181.88         -0.01          1.30
    81.09         12.14       1179.58         -0.00         -1.03
    81.10         12.15       1177.85         -0.00         -2.76
    81.11         12.15       1181.80         -0.00          1.16
    81.12         12.15       1179.54          0.00         -1.13
