#Written by Robertson Geologging WinLogger V1.0/370
~VERSION INFORMATION
#------------------------------------------------------------------------------
 VERS. 2.0 : CWLS LOG ASCII STANDARD - VERSION 2.0
 WRAP. NO  : ONE LINE PER DEPTH STEP
~WELL INFORMATION
#MNEM.UNIT         DATA                                DESCRIPTION OF MNEMONIC
#------------------------------------------------------------------------------
 STRT.M         44.0600                            :   START DEPTH
 STOP.M        195.1500                            :   STOP DEPTH
 STEP.M          0.0100                            :   STEP VALUE
 NULL.        -999.2500                            :   NULL VALUE
 COMP.    WHITE YOUN GREEN                         :   COMPANY NAME
 WELL.    THRISINGTON SHAFT                        :   WELL NAME
 FLD.     THRISINGTON                              :   FIELD NAME
 LOC.     N/A                                      :   LOCATION
 PROV.    N/A                                      :   PROVINCE
 SRVC.    N/A                                      :   SERVICE COMPANY NAME
 DATE.    15 Dec 06                                :   DATE
 UWI.     N/A                                      :   UNIQUE WELL IDENTIFIER
~PARAMETER INFORMATION
#MNEMO.UNIT         VALUE                 DESCRIPTION OF MNEMONIC
#------------------------------------------------------------------------------
~OTHER INFORMATION SECTION
#------------------------------------------------------------------------------
 lLOGGING DOWN
~CURVE INFORMATION
#MNEMO.UNIT         API CODE              CURVE DESCRIPTION
#------------------------------------------------------------------------------
 DEPTH.M                                 :   0     Depth
 TEMP.DegC                               :   1     Temperature
 CN25.mS/cm                              :   2     Conductivity@25DegC
 COND.mS/cm                              :   3     Conductivity
 DELT.DegC                               :   4     Delta T
 DELC.mS/cm                              :   5     Delta C
 NGAM.CPS                                :   6     Natural Gamma
#------------------------------------------------------------------------------
~A  DEPTH     TEMP      CN25      COND      DELT      DELC      NGAM      
# ...
   103.95     12.58      7.81      1.56      0.54     -0.07      0.41 
   103.96     12.58      7.81      1.56      0.54     -0.08      0.41 
   103.97     12.58      7.81      1.56      0.54     -0.08      0.41 
   103.98     12.58      7.81      1.56      0.54     -0.08      0.41 
   103.99     12.58      7.81      1.56      0.55     -0.08      0.41 
   104.00     12.58      7.81      1.56      0.55     -0.08      0.41 
   104.01     12.58      7.81      1.56      0.55     -0.08      0.41 
   104.02     12.59      7.81      1.56      0.55     -0.08      0.41 
   104.03     12.59      7.81      1.56      0.56     -0.09      0.41 
   104.04     12.59      7.80      1.56      0.56     -0.09      0.41 
   104.05     12.59      7.80      1.56      0.56     -0.09      0.00 
   104.06     12.60      7.80      1.56      0.57     -0.10      0.00 
   104.07     12.60      7.79      1.56      0.57     -0.10      0.00 
   104.08     12.61      7.79      1.57      0.58     -0.10      0.00 
   104.09     12.61      7.79      1.57      0.58     -0.10      0.00 
   104.10     12.61      7.79      1.57      0.58     -0.11      0.00 
   104.11     12.61      7.78      1.57      0.58     -0.11      0.00 
   104.12     12.61      7.79      1.57      0.58     -0.11      0.00 
   104.13     12.61      7.78      1.57      0.58     -0.11      0.00 
   104.14     12.61      7.78      1.57      0.58     -0.11      0.00 
   104.15     12.62      7.78      1.57      0.58     -0.11      0.00 
   104.16     12.62      7.79      1.57      0.58     -0.10      0.00 
   104.17     12.61      7.79      1.57      0.58     -0.10      0.00 
   104.18     12.61      7.79      1.57      0.57     -0.10      0.00 
   104.19     12.61      7.79      1.57      0.57     -0.10      0.00 
   104.20     12.61      7.79      1.57      0.57     -0.10      0.41 
   104.21     12.61      7.79      1.57      0.57     -0.10      0.41 
   104.22     12.61      7.79      1.57      0.57     -0.09      0.41 
   104.23     12.61      7.79      1.57      0.57     -0.09      0.41 
   104.24     12.62      7.79      1.57      0.57     -0.10      0.41 
   104.25     12.62      7.79      1.57      0.58     -0.10      0.41 
   104.26     12.62      7.79      1.57      0.58     -0.10      0.41 
   104.27     12.62      7.78      1.57      0.58     -0.12      0.41 
   104.28     12.62      7.79      1.57      0.58     -0.13      0.41 
   104.29     12.62      7.79      1.58      0.58     -0.14      0.41 
   104.30     12.62      7.79      1.58      0.58     -0.16      0.41 
   104.31     12.62      7.78      1.57      0.58     -0.19      0.41 
   104.32     12.62      7.79      1.58      0.58     -0.21      0.41 
   104.33     12.62      7.78      1.57      0.58     -0.24      0.41 
   104.34     12.62      7.79      1.58      0.58     -0.27      0.41 
   104.35     12.62      7.79      1.58      0.57     -0.29      0.41 
   104.36     12.62      7.79      1.58      0.57     -0.32      0.41 
   104.37     12.62      7.79      1.58      0.56     -0.33      0.00 
   104.38     12.62      7.79      1.58      0.56     -0.35      0.00 
   104.39     12.62      7.79      1.58      0.55     -0.36      0.00 
   104.40     12.62      7.79      1.58      0.54     -0.37      0.00 
   104.41     12.62      7.79      1.58      0.53     -0.37      0.00 
   104.42     12.61      7.80      1.58      0.51     -0.37      0.00 
   104.43     12.61      7.80      1.58      0.49     -0.36      0.00 
   104.44     12.61      7.80      1.58      0.48     -0.35      0.00 
   104.45     12.61      7.80      1.58      0.46     -0.34      0.00 
   104.46     12.62      7.79      1.58      0.45     -0.33      0.00 
   104.47     12.62      7.79      1.58      0.43     -0.33      0.00 
   104.48     12.62      7.79      1.58      0.42     -0.31      0.00 
   104.49     12.62      7.79      1.58      0.40     -0.30      0.00 
   104.50     12.62      7.79      1.58      0.38     -0.29      0.00 
   104.51     12.62      7.79      1.58      0.36     -0.27      0.00 
   104.52     12.62      7.79      1.58      0.35     -0.26      0.00 
   104.53     12.63      7.79      1.58      0.33     -0.25      0.00 
   104.54     12.63      7.79      1.58      0.32     -0.24      0.00 
   104.55     12.63      7.79      1.58      0.30     -0.23      0.00 
   104.56     12.63      7.79      1.58      0.29     -0.21      0.41 
   104.57     12.63      7.79      1.58      0.28     -0.20      0.41 
   104.58     12.62      7.79      1.58      0.26     -0.19      0.41 
   104.59     12.62      7.79      1.58      0.25     -0.18      0.41 
   104.60     12.62      7.79      1.58      0.24     -0.17      0.41 
   104.61     12.62      7.79      1.58      0.22     -0.16      0.41 
   104.62     12.63      7.79      1.58      0.21     -0.15      0.88 
   104.63     12.63      7.79      1.58      0.20     -0.14      0.88 
   104.64     12.63      7.79      1.58      0.20     -0.14      0.88 
   104.65     12.63      7.79      1.58      0.19     -0.13      0.88 
   104.66     12.63      7.79      1.58      0.18     -0.12      0.88 
   104.67     12.63      7.79      1.58      0.17     -0.11      0.88 
   104.68     12.63      7.79      1.58      0.16     -0.11      1.29 
   104.69     12.63      7.79      1.58      0.15     -0.10      1.29 
   104.70     12.63      7.79      1.58      0.14     -0.09      1.29 
   104.71     12.62      7.79      1.58      0.13     -0.08      1.29 
   104.72     12.62      7.80      1.59      0.12     -0.07      1.29 
   104.73     12.62      7.80      1.59      0.11     -0.06      0.88 
   104.74     12.62      7.80      1.58      0.10     -0.06      0.88 
   104.75     12.62      7.80      1.58      0.09     -0.05      0.88 
   104.76     12.62      7.81      1.59      0.09     -0.04      0.88 
   104.77     12.61      7.81      1.59      0.08     -0.03      0.88 
   104.78     12.61      7.81      1.58      0.07     -0.03      0.88 
   104.79     12.61      7.81      1.58      0.07     -0.02      0.41 
   104.80     12.61      7.81      1.59      0.07     -0.02      0.41 
   104.81     12.61      7.81      1.59      0.06     -0.02      0.41 
   104.82     12.62      7.81      1.59      0.06     -0.02      0.41 
   104.83     12.62      7.80      1.58      0.06     -0.02      0.41 
   104.84     12.62      7.80      1.58      0.06     -0.02      0.41 
   104.85     12.62      7.81      1.59      0.05     -0.01      0.00 
   104.86     12.62      7.80      1.59      0.05     -0.01      0.00 
   104.87     12.62      7.80      1.59      0.05     -0.01      0.00 
   104.88     12.62      7.80      1.58      0.05     -0.01      0.00 
   104.89     12.62      7.81      1.59      0.04     -0.00      0.00 
   104.90     12.62      7.81      1.59      0.04     -0.00      0.00 
   104.91     12.62      7.81      1.59      0.04      0.00      0.00 
   104.92     12.62      7.81      1.59      0.04      0.00      0.00 
   104.93     12.62      7.81      1.59      0.04     -0.00      0.00 
   104.94     12.62      7.81      1.59      0.04      0.00      0.00 
   104.95     12.62      7.81      1.59      0.04      0.00      0.00 
   104.96     12.62      7.81      1.59      0.04     -0.00      0.00 
   104.97     12.62      7.80      1.59      0.04     -0.01      0.41 
   104.98     12.62      7.80      1.59      0.04     -0.01      0.41 
   104.99     12.62      7.80      1.59      0.04     -0.01      0.41 
   105.00     12.62      7.81      1.59      0.04     -0.00      0.41 
   105.01     12.62      7.80      1.59      0.04     -0.01      0.41 
   105.02     12.63      7.80      1.59      0.04     -0.01      0.41 
   105.03     12.63      7.80      1.59      0.04     -0.01      0.41 
   105.04     12.63      7.80      1.59      0.03     -0.00      0.41 
   105.05     12.63      7.80      1.59      0.03     -0.00      0.41 
   105.06     12.63      7.80      1.59      0.03      0.00      0.41 
   105.07     12.63      7.79      1.59      0.02      0.00      0.41 
