#Written by Robertson Geologging WinLogger V1.5/410
~VERSION INFORMATION
#------------------------------------------------------------------------------
 VERS. 2.0 : CWLS LOG ASCII STANDARD - VERSION 2.0
 WRAP. NO  : ONE LINE PER DEPTH STEP
~WELL INFORMATION
#MNEM.UNIT         DATA                                DESCRIPTION OF MNEMONIC
#------------------------------------------------------------------------------
 STRT.M         40.0200                            :   START DEPTH
 STOP.M        195.6300                            :   STOP DEPTH
 STEP.M          0.0100                            :   STEP VALUE
 NULL.        -999.2500                            :   NULL VALUE
 COMP.    IWS                                      :   COMPANY NAME
 WELL.    THRISLINGTON                             :   WELL NAME
 FLD.     DURHAM                                   :   FIELD NAME
 LOC.     N/A                                      :   LOCATION
 PROV.    N/A                                      :   PROVINCE
 SRVC.    N/A                                      :   SERVICE COMPANY NAME
 DATE.    16 Dec 09                                :   DATE
 UWI.     N/A                                      :   UNIQUE WELL IDENTIFIER
~PARAMETER INFORMATION
#MNEMO.UNIT         VALUE                 DESCRIPTION OF MNEMONIC
#------------------------------------------------------------------------------
~OTHER INFORMATION SECTION
#------------------------------------------------------------------------------
 TCDS 1365
~CURVE INFORMATION
#MNEMO.UNIT         API CODE              CURVE DESCRIPTION
#------------------------------------------------------------------------------
 DEPTH.M                                 :   0     Depth
 TEMP.DegC                               :   1     Temperature
 COND.uS/cm                              :   2     Conductivity@25DegC
 COND.uS/cm                              :   3     Absolute Conductivity
 DELT.DegC                               :   4     Delta T
 DELC.uS/cm                              :   5     Delta C
#------------------------------------------------------------------------------
~A  DEPTH          TEMP          COND          COND          DELT          DELC
# ...
   174.02         12.40       1293.01        967.23          0.01          0.36
   174.03         12.40       1293.02        967.23          0.00          0.41
   174.04         12.40       1293.05        967.23          0.00         -0.12
   174.05         12.40       1293.05        967.23          0.00         -0.14
   174.06         12.40       1296.99        970.16          0.00         -0.11
   174.07         12.40       1293.08        967.23          0.00         -0.08
   174.08         12.40       1293.08        967.23          0.00          0.00
   174.09         12.40       1297.00        970.16         -0.00          4.00
   174.10         12.40       1292.54        966.81         -0.00         -0.44
   174.11         12.40       1292.51        966.81         -0.00         -4.36
   174.12         12.40       1292.49        966.81         -0.00         -0.51
   174.13         12.40       1292.48        966.81          0.00         -0.59
   174.14         12.40       1296.37        969.74          0.00         -0.68
   174.15         12.40       1292.45        966.81          0.00         -0.15
   174.16         12.40       1292.45        966.81          0.00         -0.15
   174.17         12.40       1292.46        966.81          0.00         -0.15
   174.18         12.40       1292.46        966.81          0.00         -0.15
   174.19         12.40       1296.91        970.16          0.01          0.36
   174.20         12.40       1292.96        967.23          0.01          0.32
   174.21         12.40       1292.93        967.23          0.01          0.32
   174.22         12.40       1296.88        970.16          0.01          4.27
   174.23         12.40       1293.04        967.23          0.00          0.48
   174.24         12.40       1293.11        967.23         -0.00         -3.28
   174.25         12.40       1293.17        967.23         -0.00          0.73
   174.26         12.40       1293.17        967.23         -0.01          0.76
   174.27         12.40       1297.08        970.16         -0.01          0.20
   174.28         12.40       1293.11        967.23         -0.00          0.15
   174.29         12.40       1293.07        967.23         -0.00         -3.80
   174.30         12.40       1292.52        966.81         -0.00         -0.44
   174.31         12.40       1292.57        966.81         -0.00         -0.39
   174.32         12.40       1296.52        969.74         -0.00         -0.95
   174.33         12.40       1292.60        966.81         -0.00         -0.97
   174.34         12.40       1292.57        966.81         -0.00         -1.03
   174.35         12.40       1296.43        969.74          0.00          2.78
   174.36         12.40       1292.46        966.81          0.00         -1.20
   174.37         12.40       1296.40        969.74          0.00         -1.21
   174.38         12.40       1292.49        966.81          0.00         -0.64
   174.39         12.40       1292.54        966.81          0.00         -0.59
   174.40         12.40       1297.08        970.16         -0.00          3.38
   174.41         12.40       1293.20        967.23         -0.00         -0.51
   174.42         12.40       1297.14        970.16         -0.00         -0.53
   174.43         12.40       1293.25        967.23         -0.00          0.05
   174.44         12.39       1293.26        967.23         -0.00          0.03
   174.45         12.40       1297.17        970.16         -0.00          0.02
   174.46         12.39       1293.26        967.23         -0.00          0.02
   174.47         12.39       1293.28        967.23         -0.00          0.03
   174.48         12.40       1293.81        967.65         -0.00          0.61
   174.49         12.40       1293.81        967.65         -0.00          0.64
   174.50         12.40       1297.70        970.58         -0.00          0.65
   174.51         12.40       1293.20        967.23         -0.00          0.68
   174.52         12.40       1293.20        967.23         -0.00          0.68
   174.53         12.40       1293.76        967.65         -0.00          1.26
   174.54         12.40       1293.78        967.65         -0.00          1.27
   174.55         12.40       1297.68        970.58         -0.00          1.26
   174.56         12.40       1293.75        967.65         -0.00          1.24
   174.57         12.40       1293.73        967.65         -0.00          1.23
   174.58         12.40       1298.17        971.00         -0.00          1.74
   174.59         12.40       1293.66        967.65         -0.00          1.14
   174.60         12.40       1297.56        970.58         -0.00          5.04
   174.61         12.40       1293.66        967.65          0.00          0.56
   174.62         12.40       1293.64        967.65          0.00          0.53
   174.63         12.40       1297.53        970.58          0.00          0.53
   174.64         12.40       1293.04        967.23          0.00         -0.03
   174.65         12.40       1296.91        970.16          0.00          3.87
   174.66         12.40       1292.98        967.23          0.00         -0.61
   174.67         12.40       1292.99        967.23          0.00         -0.61
   174.68         12.40       1296.91        970.16          0.00          3.30
   174.69         12.40       1292.48        966.81          0.00         -1.15
   174.70         12.40       1292.54        966.81          0.00         -1.14
   174.71         12.40       1292.55        966.81          0.00         -5.12
   174.72         12.40       1292.57        966.81          0.00         -0.67
   174.73         12.40       1297.02        970.16          0.01          3.74
   174.74         12.40       1293.07        967.23          0.01         -0.24
   174.75         12.40       1293.05        967.23          0.01         -0.23
   174.76         12.40       1293.04        967.23          0.01         -0.26
   174.77         12.40       1293.07        967.23          0.01          0.35
   174.78         12.40       1296.99        970.16          0.01          4.28
   174.79         12.40       1293.07        967.23          0.01         -3.54
   174.80         12.40       1293.05        967.23          0.01          0.38
   174.81         12.40       1296.94        970.16          0.01          4.30
   174.82         12.40       1293.01        967.23          0.00          0.42
   174.83         12.40       1292.96        967.23          0.00          0.41
   174.84         12.40       1292.40        966.81          0.00         -0.14
   174.85         12.40       1292.43        966.81          0.00         -0.11
   174.86         12.40       1296.38        969.74          0.00          3.78
   174.87         12.40       1292.49        966.81          0.00         -4.04
   174.88         12.40       1292.49        966.81          0.00         -0.14
   174.89         12.40       1292.48        966.81          0.00         -0.14
   174.90         12.40       1292.48        966.81          0.00         -0.12
   174.91         12.40       1296.97        970.16          0.00          4.37
   174.92         12.40       1293.04        967.23          0.00         -3.47
   174.93         12.40       1293.02        967.23          0.00          0.41
   174.94         12.40       1296.96        970.16          0.00          4.36
   174.95         12.40       1293.04        967.23          0.00         -3.47
   174.96         12.40       1293.02        967.23          0.00          0.45
   174.97         12.40       1292.99        967.23          0.00          0.47
   174.98         12.40       1292.96        967.23          0.00         -0.08
   174.99         12.40       1297.41        970.58          0.00          4.39
   175.00         12.40       1293.51        967.65          0.00         -3.42
   175.01         12.40       1293.52        967.65          0.00          0.51
