#Written by Robertson Geologging WinLogger V1.0/406
~VERSION INFORMATION
#------------------------------------------------------------------------------
 VERS. 2.0 : CWLS LOG ASCII STANDARD - VERSION 2.0
 WRAP. NO  : ONE LINE PER DEPTH STEP
~WELL INFORMATION
#MNEM.UNIT         DATA                                DESCRIPTION OF MNEMONIC
#------------------------------------------------------------------------------
 STRT.M         44.9500                            :   START DEPTH
 STOP.M        194.0200                            :   STOP DEPTH
 STEP.M          0.0100                            :   STEP VALUE
 NULL.        -999.2500                            :   NULL VALUE
 COMP.    Coal Authority                           :   COMPANY NAME
 WELL.    Thrislington Shaft                       :   WELL NAME
 FLD.     Banks Yard                               :   FIELD NAME
 LOC.     N/A                                      :   LOCATION
 PROV.    N/A                                      :   PROVINCE
 SRVC.    N/A                                      :   SERVICE COMPANY NAME
 DATE.    19 May 08                                :   DATE
 UWI.     N/A                                      :   UNIQUE WELL IDENTIFIER
~PARAMETER INFORMATION
#MNEMO.UNIT         VALUE                 DESCRIPTION OF MNEMONIC
#------------------------------------------------------------------------------
~OTHER INFORMATION SECTION
#------------------------------------------------------------------------------
 TCDS 1365
~CURVE INFORMATION
#MNEMO.UNIT         API CODE              CURVE DESCRIPTION
#------------------------------------------------------------------------------
 DEPTH.M                                 :   0     Depth
 TEMP.DegC                               :   1     Temperature
 COND.uS/cm                              :   2     Absolute Conductivity
 COND.uS/cm                              :   3     Conductivity@25DegC
 DELT.DegC                               :   4     Delta T
 DELC.uS/cm                              :   5     Delta C
#------------------------------------------------------------------------------
~A  DEPTH     TEMP      COND      COND      DELT      DELC      
# ...
    64.75     11.80    625.39    849.80      0.01     17.94 
    64.76     11.80    611.95    831.54      0.01    -18.49 
    64.77     11.79    619.12    841.39     -0.00      9.85 
    64.78     11.79    616.43    837.85      0.00     -3.65 
    64.79     11.78    619.12    841.72     -0.01      3.87 
    64.80     11.79    619.12    841.50      0.01     -0.22 
    64.81     11.79    616.43    837.85      0.00     -3.76 
    64.82     11.79    619.12    841.50      0.01      3.43 
    64.83     11.80    619.12    841.28      0.01     -0.33 
    64.84     11.79    616.43    837.74      0.01     -0.22 
    64.85     11.79    619.12    841.50      0.00     -0.11 
    64.86     11.79    616.43    837.74      0.00     -0.11 
    64.87     11.78    619.12    841.61      0.00      0.00 
    64.88     11.78    619.12    841.72     -0.01      3.98 
    64.89     11.78    616.43    837.96     -0.00     -3.54 
    64.90     11.79    619.12    841.50     -0.00      3.76 
    64.91     11.78    611.95    831.86     -0.01     -9.41 
    64.92     11.79    619.12    841.39     -0.01      3.87 
    64.93     11.80    616.43    837.63     -0.00     -3.54 
    64.94     11.80    619.12    841.17     -0.00      3.76 
    64.95     11.80    619.12    841.28     -0.01      0.33 
    64.96     11.79    616.43    837.74     -0.01     -3.32 
    64.97     11.79    619.12    841.39     -0.02      4.09 
    64.98     11.79    619.12    841.39     -0.02      0.44 
    64.99     11.80    616.43    837.52      0.00     -3.65 
    65.00     11.81    619.12    841.06      0.00      3.65 
    65.01     11.80    619.12    841.28     -0.00      0.11 
    65.02     11.80    616.43    837.63     -0.01      0.22 
    65.03     11.80    619.12    841.28     -0.01      0.22 
    65.04     11.79    611.95    831.76     -0.01     -9.41 
    65.05     11.79    625.39    849.91     -0.01     12.40 
    65.06     11.79    611.95    831.76      0.00     -9.74 
    65.07     11.79    625.39    849.91      0.02      8.08 
    65.08     11.80    611.95    831.54      0.01     -0.33 
    65.09     11.79    619.12    841.39      0.01     -8.75 
    65.10     11.80    616.43    837.52      0.01      5.87 
    65.11     11.80    619.12    841.17      0.00      0.00 
    65.12     11.81    616.43    837.41      0.01     -0.22 
    65.13     11.81    619.12    841.06      0.00     -0.11 
    65.14     11.80    616.43    837.52      0.00     -3.76 
    65.15     11.80    619.12    841.17      0.01      3.32 
    65.16     11.80    619.12    841.17      0.01     -0.33 
    65.17     11.80    616.43    837.63      0.01     -0.33 
    65.18     11.79    619.12    841.39      0.01     -0.22 
    65.19     11.80    616.43    837.63      0.00     -3.76 
    65.20     11.79    619.12    841.50      0.00      3.65 
    65.21     11.79    616.43    837.74      0.00     -3.65 
    65.22     11.79    619.12    841.50     -0.01      0.33 
    65.23     11.78    619.12    841.72     -0.02      0.44 
    65.24     11.78    616.43    838.07     -0.02      0.55 
    65.25     11.78    619.12    841.72     -0.02      0.44 
    65.26     11.78    616.43    837.96     -0.01      0.22 
    65.27     11.79    619.12    841.50      0.00      0.00 
    65.28     11.79    611.95    831.65      0.01     -6.31 
    65.29     11.80    625.39    849.69      0.02      8.08 
    65.30     11.80    611.95    831.54      0.01     -6.31 
    65.31     11.80    625.39    849.69      0.00      8.41 
    65.32     11.79    611.95    831.65     -0.00     -5.98 
    65.33     11.78    619.12    841.61     -0.02      0.44 
    65.34     11.79    616.43    837.85     -0.00      6.20 
    65.35     11.78    619.12    841.61     -0.01     -8.30 
    65.36     11.79    619.12    841.39      0.00      9.74 
    65.37     11.81    616.43    837.41      0.01    -12.51 
    65.38     11.80    619.12    841.28      0.00      9.63 
    65.39     11.80    619.12    841.17      0.01     -8.75 
    65.40     11.81    616.43    837.41      0.02      5.54 
    65.41     11.79    619.12    841.39      0.00     -8.53 
    65.42     11.80    619.12    841.28      0.00      9.74 
    65.43     11.80    616.43    837.52      0.01     -3.87 
    65.44     11.80    619.12    841.28      0.00      3.54 
    65.45     11.80    611.95    831.43      0.02    -10.18 
    65.46     11.80    625.39    849.69      0.02     11.63 
    65.47     11.79    611.95    831.65      0.01    -10.07 
    65.48     11.79    616.43    837.85      0.00     -3.76 
    65.49     11.79    619.12    841.39      0.00     -0.11 
    65.50     11.79    619.12    841.50     -0.01      3.87 
    65.51     11.78    616.43    837.96     -0.01     -3.43 
    65.52     11.78    619.12    841.72     -0.01      0.33 
    65.53     11.78    616.43    838.07     -0.01      0.33 
    65.54     11.77    619.12    841.94     -0.02      0.55 
    65.55     11.77    619.12    841.83     -0.02     10.29 
    65.56     11.78    616.43    837.96     -0.02    -11.62 
    65.57     11.78    619.12    841.61     -0.02     10.29 
    65.58     11.80    616.43    837.63     -0.00     -3.54 
    65.59     11.80    619.12    841.17      0.00     -0.11 
    65.60     11.80    616.43    837.52      0.00     -0.11 
    65.61     11.79    619.12    841.39     -0.00      0.11 
    65.62     11.79    616.43    837.74     -0.01      0.33 
    65.63     11.79    619.12    841.50     -0.02      0.44 
    65.64     11.79    616.43    837.85     -0.01     -3.43 
    65.65     11.80    619.12    841.28      0.00      3.54 
    65.66     11.79    616.43    837.74      0.00     -3.76 
    65.67     11.79    619.12    841.39      0.00     -0.11 
    65.68     11.79    616.43    837.74      0.00      0.00 
    65.69     11.79    619.12    841.50     -0.00      0.11 
    65.70     11.79    611.95    831.65      0.00     -9.74 
    65.71     11.79    625.39    850.03      0.00     12.18 
    65.72     11.79    611.95    831.76      0.00     -9.74 
    65.73     11.80    625.39    849.80      0.00     18.16 
    65.74     11.79    611.95    831.76     -0.01    -18.05 
    65.75     11.79    619.12    841.39     -0.00      9.85 
    65.76     11.79    616.43    837.74      0.00     -3.65 
    65.77     11.79    619.12    841.50      0.00      3.65 
    65.78     11.79    619.12    841.39      0.01     -0.33 
    65.79     11.79    616.43    837.74      0.00     -3.76 
    65.80     11.79    619.12    841.50      0.00      3.65 
    65.81     11.79    616.43    837.74      0.00     -3.76 
    65.82     11.80    619.12    841.17      0.00     -0.11 
    65.83     11.80    619.12    841.17      0.01      3.43 
    65.84     11.81    619.12    841.06      0.02     -0.44 
    65.85     11.80    616.43    837.52      0.01     -0.22 
    65.86     11.79    619.12    841.50      0.00     -0.11 
    65.87     11.79    616.43    837.74      0.01     -3.98 
    65.88     11.79    619.12    841.39      0.01      3.43 
    65.89     11.80    611.95    831.54      0.01     -9.96 
    65.90     11.80    619.12    841.17      0.02      9.30 
    65.91     11.80    616.43    837.63      0.00     -3.76 
    65.92     11.79    619.12    841.39     -0.00      3.76 
    65.93     11.79    619.12    841.39     -0.01      0.22 
    65.94     11.80    616.43    837.63      0.00     -3.65 
    65.95     11.79    619.12    841.50     -0.00      3.76 
    65.96     11.78    619.12    841.61     -0.01      0.22 
    65.97     11.78    616.43    837.96     -0.01     -3.43 
    65.98     11.78    619.12    841.61     -0.02      4.09 
    65.99     11.78    611.95    831.86     -0.02     -9.19 
    66.00     11.80    619.12    841.17      0.00     -0.11 
    66.01     11.80    616.43    837.63      0.00      0.00 
    66.02     11.79    619.12    841.39     -0.00      0.11 
    66.03     11.79    619.12    841.50      0.00      9.74 
    66.04     11.78    619.12    841.72     -0.01     -8.19 
    66.05     11.77    616.43    838.18     -0.01      6.42 
    66.06     11.78    619.12    841.72     -0.01     -8.19 
