#Written by Robertson Geologging WinLogger V1.5/410
~VERSION INFORMATION
#------------------------------------------------------------------------------
 VERS. 2.0 : CWLS LOG ASCII STANDARD - VERSION 2.0
 WRAP. NO  : ONE LINE PER DEPTH STEP
~WELL INFORMATION
#MNEM.UNIT         DATA                                DESCRIPTION OF MNEMONIC
#------------------------------------------------------------------------------
 STRT.M         25.0100                            :   START DEPTH
 STOP.M        192.0000                            :   STOP DEPTH
 STEP.M          0.0100                            :   STEP VALUE
 NULL.        -999.2500                            :   NULL VALUE
 COMP.    IWS                                      :   COMPANY NAME
 WELL.    Thristlington                            :   WELL NAME
 FLD.     N/A                                      :   FIELD NAME
 LOC.     N/A                                      :   LOCATION
 PROV.    N/A                                      :   PROVINCE
 SRVC.    N/A                                      :   SERVICE COMPANY NAME
 DATE.    01 Feb 11                                :   DATE
 UWI.     N/A                                      :   UNIQUE WELL IDENTIFIER
~PARAMETER INFORMATION
#MNEMO.UNIT         VALUE                 DESCRIPTION OF MNEMONIC
#------------------------------------------------------------------------------
~OTHER INFORMATION SECTION
#------------------------------------------------------------------------------
 1365
~CURVE INFORMATION
#MNEMO.UNIT         API CODE              CURVE DESCRIPTION
#------------------------------------------------------------------------------
 DEPTH.M                                 :   0     Depth
 TEMP.DegC                               :   1     Temperature
 CN25.uS/cm                              :   2     Conductivity@25DegC
 DELT.DegC                               :   3     Delta T
 DELC.uS/cm                              :   4     Delta C
#------------------------------------------------------------------------------
~A  DEPTH          TEMP          CN25          DELT          DELC
# ...
   136.03         12.17       1178.79         -0.00         -0.48
   136.04         12.17       1178.80         -0.00         -2.18
   136.05         12.17       1182.20         -0.00          4.55
   136.06         12.17       1177.11         -0.00         -2.79
   136.07         12.17       1178.75          0.00         -2.86
   136.08         12.17       1178.65          0.00         -1.24
   136.09         12.18       1177.46          0.00         -2.35
   136.10         12.18       1179.10          0.00         -0.69
   136.11         12.18       1179.08          0.00         -0.66
   136.12         12.18       1181.36          0.00          1.63
   136.13         12.18       1179.10          0.00         -0.66
   136.14         12.18       1181.39          0.00          1.60
   136.15         12.17       1181.45          0.00          1.68
   136.16         12.17       1178.17         -0.00          0.13
   136.17         12.17       1182.20         -0.01          6.47
   136.18         12.17       1182.23         -0.01          4.31
   136.19         12.17       1180.56         -0.01          1.00
   136.20         12.17       1181.66         -0.01          3.24
   136.21         12.17       1179.96         -0.01         -0.15
   136.22         12.17       1179.93         -0.01         -0.19
   136.23         12.17       1179.87         -0.01         -0.24
   136.24         12.17       1179.87         -0.01         -0.24
   136.25         12.17       1179.83         -0.01          3.66
   136.26         12.17       1179.80         -0.01          0.24
   136.27         12.17       1179.80         -0.01          0.21
   136.28         12.17       1175.83         -0.00         -3.82
   136.29         12.17       1178.11         -0.00         -1.58
   136.30         12.17       1179.83         -0.00          0.09
   136.31         12.17       1176.46         -0.00         -3.35
   136.32         12.17       1180.41          0.00          0.53
   136.33         12.17       1180.42          0.00          2.18
   136.34         12.17       1180.44          0.00          4.42
   136.35         12.17       1180.44          0.00          1.04
   136.36         12.17       1176.46          0.00         -2.94
   136.37         12.17       1179.80          0.01          3.77
   136.38         12.18       1178.03          0.01         -3.09
   136.39         12.18       1179.67          0.01          0.26
   136.40         12.18       1179.64          0.01          2.50
   136.41         12.18       1179.62          0.01          0.28
   136.42         12.18       1181.90          0.01          4.88
   136.43         12.18       1179.67          0.00          0.46
   136.44         12.18       1179.72         -0.00         -1.10
   136.45         12.17       1179.76         -0.00          0.63
   136.46         12.17       1179.79         -0.00          4.04
   136.47         12.17       1179.80         -0.00          0.14
   136.48         12.17       1176.44         -0.00         -3.22
   136.49         12.17       1180.42         -0.01          1.90
   136.50         12.17       1180.42         -0.01          0.21
   136.51         12.17       1180.45         -0.01          1.90
   136.52         12.17       1180.49         -0.01          0.75
   136.53         12.17       1178.24         -0.00         -1.58
   136.54         12.17       1180.54         -0.00          4.63
   136.55         12.17       1180.51         -0.00          1.17
   136.56         12.17       1178.24         -0.00         -1.10
   136.57         12.17       1180.44          0.00          1.10
   136.58         12.17       1182.11          0.00          2.75
   136.59         12.17       1180.46          0.00          1.08
   136.60         12.17       1181.59          0.00          2.20
   136.61         12.17       1179.96         -0.00          0.58
   136.62         12.17       1177.72         -0.00         -1.63
   136.63         12.17       1177.72         -0.00         -1.58
   136.64         12.17       1179.97         -0.01          0.73
   136.65         12.17       1177.69         -0.00         -1.56
   136.66         12.17       1179.94         -0.00          4.04
   136.67         12.17       1179.91         -0.00         -1.10
   136.68         12.17       1175.99         -0.00         -3.37
   136.69         12.17       1179.37         -0.00          2.27
   136.70         12.17       1181.03          0.00          0.55
   136.71         12.17       1175.94          0.00         -0.58
   136.72         12.17       1180.97          0.00          4.44
   136.73         12.17       1179.25          0.00          1.03
   136.74         12.17       1179.22          0.00          1.04
   136.75         12.17       1179.22          0.00          2.77
   136.76         12.17       1179.22         -0.00          1.16
   136.77         12.17       1177.00         -0.00         -4.38
   136.78         12.17       1179.29         -0.01          1.33
   136.79         12.17       1181.00         -0.01          3.04
   136.80         12.17       1179.91         -0.01         -1.43
   136.81         12.17       1179.91         -0.01          1.96
   136.82         12.17       1179.93         -0.01          2.02
   136.83         12.17       1176.56         -0.01         -1.32
   136.84         12.17       1181.61         -0.01          0.38
   136.85         12.17       1179.90         -0.01          3.73
   136.86         12.17       1177.60         -0.01         -0.29
   136.87         12.17       1180.93         -0.01         -0.35
   136.88         12.17       1179.18         -0.01          2.99
   136.89         12.18       1176.90         -0.00          0.72
   136.90         12.18       1180.28         -0.01          2.45
   136.91         12.18       1176.34         -0.01         -0.31
   136.92         12.17       1176.36         -0.01         -0.25
   136.93         12.17       1178.07         -0.01         -0.21
   136.94         12.17       1181.46         -0.01         -0.19
   136.95         12.17       1176.46         -0.01         -0.19
   136.96         12.17       1178.21         -0.01         -0.24
   136.97         12.17       1181.65         -0.01         -0.25
   136.98         12.17       1176.65         -0.01         -0.28
   136.99         12.16       1178.41         -0.01         -0.28
   137.00         12.16       1181.79         -0.01          3.09
   137.01         12.16       1176.69         -0.01         -4.32
   137.02         12.17       1178.35         -0.00         -0.44
   137.03         12.17       1178.28         -0.00         -0.52
   137.04         12.17       1181.63          0.00         -0.56
   137.05         12.17       1176.53          0.00         -0.58
   137.06         12.17       1178.14          0.00         -0.61
   137.07         12.17       1180.34          0.00          1.69
   137.08         12.17       1176.93         -0.00         -0.53
   137.09         12.18       1178.59         -0.00         -0.51
   137.10         12.18       1180.81         -0.00          1.73
   137.11         12.18       1177.43         -0.00         -3.93
   137.12         12.18       1179.12         -0.00          0.03
   137.13         12.18       1181.42         -0.00          0.03
   137.14         12.17       1181.48         -0.00          0.03
   137.15         12.17       1178.11          0.00         -0.06
   137.16         12.17       1182.10          0.00         -0.10
   137.17         12.17       1182.13          0.00         -0.10
   137.18         12.17       1182.17          0.00          1.60
   137.19         12.17       1182.18          0.00          0.52
   137.20         12.17       1182.17          0.00          2.21
   137.21         12.17       1178.18          0.00         -1.75
   137.22         12.17       1181.53          0.00          1.66
   137.23         12.17       1181.56          0.00          1.69
   137.24         12.17       1177.63         -0.00         -2.20
