#Written by Robertson Geologging WinLogger V1.5/410
~VERSION INFORMATION
#------------------------------------------------------------------------------
 VERS. 2.0 : CWLS LOG ASCII STANDARD - VERSION 2.0
 WRAP. NO  : ONE LINE PER DEPTH STEP
~WELL INFORMATION
#MNEM.UNIT         DATA                                DESCRIPTION OF MNEMONIC
#------------------------------------------------------------------------------
 STRT.M        191.7300                            :   START DEPTH
 STOP.M         42.4500                            :   STOP DEPTH
 STEP.M         -0.0100                            :   STEP VALUE
 NULL.        -999.2500                            :   NULL VALUE
 COMP.    I.W.S.                                   :   COMPANY NAME
 WELL.    THRISLINGTON                             :   WELL NAME
 FLD.     N/A                                      :   FIELD NAME
 LOC.     N/A                                      :   LOCATION
 PROV.    N/A                                      :   PROVINCE
 SRVC.    N/A                                      :   SERVICE COMPANY NAME
 DATE.    14 Nov 11                                :   DATE
 UWI.     N/A                                      :   UNIQUE WELL IDENTIFIER
~PARAMETER INFORMATION
#MNEMO.UNIT         VALUE                 DESCRIPTION OF MNEMONIC
#------------------------------------------------------------------------------
~OTHER INFORMATION SECTION
#------------------------------------------------------------------------------
 1365 LOW
~CURVE INFORMATION
#MNEMO.UNIT         API CODE              CURVE DESCRIPTION
#------------------------------------------------------------------------------
 DEPTH.M                                 :   0     Depth
 TEMP.DegC                               :   1     Temperature
 COND.uS/cm                              :   2     Conductivity
 DELT.DegC                               :   3     Delta T
 DELC.uS/cm                              :   4     Delta C
 NGAM.CPS                                :   5     Natural Gamma
#------------------------------------------------------------------------------
~A  DEPTH          TEMP          COND          DELT          DELC          NGAM
# ...
   102.73         12.38        919.90         -0.01         -0.42          0.50
   102.72         12.38        917.80         -0.01          0.00          0.50
   102.71         12.38        919.90         -0.01         -0.42          0.50
   102.70         12.38        920.32         -0.01          0.42          0.50
   102.69         12.38        920.32         -0.01          0.00          0.50
   102.68         12.38        920.32         -0.01          0.42          0.50
   102.67         12.37        919.90         -0.01          2.09          0.50
   102.66         12.37        920.32         -0.01          0.42          0.50
   102.65         12.37        919.90         -0.01         -0.42          0.50
   102.64         12.37        920.32         -0.01          0.42          0.50
   102.63         12.37        920.32         -0.01         -0.00          0.50
   102.62         12.38        920.32         -0.00          2.51          0.50
   102.61         12.38        919.90          0.00         -0.42          0.50
   102.60         12.38        920.32          0.00          0.00          0.50
   102.59         12.38        919.90          0.01         -0.42          0.00
   102.58         12.38        919.90          0.01          2.09          0.00
   102.57         12.38        919.90          0.01          2.09          0.00
   102.56         12.39        917.80          0.01         -2.51          0.00
   102.55         12.39        919.90          0.02         -0.42          0.00
   102.54         12.39        920.32          0.02          0.00          0.00
   102.53         12.39        919.90          0.02         -0.42          0.00
   102.52         12.39        919.90          0.02          2.09          0.00
   102.51         12.39        919.90          0.02          0.00          0.00
   102.50         12.39        920.32          0.01          0.00          0.00
   102.49         12.39        919.90          0.01          0.00          0.00
   102.48         12.38        920.32          0.01          2.51          0.00
   102.47         12.38        919.90          0.00          0.00          0.00
   102.46         12.38        920.32          0.00          0.00          0.00
   102.45         12.38        919.90          0.00          0.00          0.00
   102.44         12.38        920.32          0.01          0.00          0.00
   102.43         12.38        919.90          0.01          0.00          0.00
   102.42         12.38        919.90          0.00          2.09          0.00
   102.41         12.38        919.90          0.00          0.00          0.00
   102.40         12.38        917.80          0.00         -2.51          0.00
   102.39         12.38        919.90          0.01          0.00          0.00
   102.38         12.38        920.32          0.01          0.00          0.00
   102.37         12.38        919.90          0.01          0.00          0.00
   102.36         12.38        920.32          0.01          0.00          0.00
   102.35         12.38        917.39          0.01         -2.51          0.00
   102.34         12.38        920.32          0.01          0.00          0.00
   102.33         12.38        919.90          0.00          0.00          0.00
   102.32         12.38        919.90          0.00          2.09          0.00
   102.31         12.38        920.32          0.00          0.42          0.00
   102.30         12.38        919.90          0.00         -0.42          0.00
   102.29         12.38        919.90          0.01          0.00          0.00
   102.28         12.38        919.90          0.01          0.00          0.00
   102.27         12.38        919.90          0.01          2.51          0.00
   102.26         12.38        919.90          0.01          0.00          0.00
   102.25         12.39        919.48          0.01          0.00          0.00
   102.24         12.39        919.90          0.01          0.00          0.00
   102.23         12.39        919.48          0.01          0.00          0.50
   102.22         12.39        919.90          0.01          2.51          0.50
   102.21         12.39        919.90          0.01          0.42          0.50
   102.20         12.39        919.90          0.01          0.00          0.50
   102.19         12.39        919.90          0.01          0.42          0.50
   102.18         12.38        919.90          0.00          0.42          0.50
   102.17         12.38        919.90          0.00          0.00          0.50
   102.16         12.38        919.90         -0.00          0.42          0.50
   102.15         12.38        919.90          0.00         -0.00          0.50
   102.14         12.38        917.80          0.00         -2.09          0.50
   102.13         12.38        919.90          0.00         -0.00          0.50
   102.12         12.38        920.32          0.00          0.42          0.50
   102.11         12.38        919.90          0.01         -0.00          0.50
   102.10         12.38        920.32          0.01          0.42          0.50
   102.09         12.38        919.90          0.01         -0.00          1.00
   102.08         12.38        917.80          0.01         -2.09          1.00
   102.07         12.38        920.32          0.01          0.42          1.00
   102.06         12.38        920.32          0.02          2.93          0.50
   102.05         12.38        920.32          0.02          0.42          0.50
   102.04         12.38        920.32          0.01          0.42          0.50
   102.03         12.38        920.32          0.01          0.42          0.50
   102.02         12.38        920.32          0.01          0.42          0.50
   102.01         12.38        919.90          0.01          2.51          0.50
   102.00         12.38        920.32          0.01          0.84          0.50
   101.99         12.38        919.90          0.01         -0.00          0.50
   101.98         12.38        917.80          0.00         -1.68          0.50
   101.97         12.38        919.90         -0.00         -0.00          0.50
   101.96         12.38        919.90         -0.00         -0.00          0.50
   101.95         12.38        920.32         -0.01          0.42          0.50
   101.94         12.38        919.90         -0.01         -0.00          0.50
   101.93         12.38        917.39         -0.00         -2.51          0.50
   101.92         12.38        919.90         -0.00          0.00          0.00
   101.91         12.38        920.32         -0.00          2.93          0.00
   101.90         12.38        920.32          0.00          0.00          0.00
   101.89         12.38        920.32          0.00          0.00          0.00
   101.88         12.38        917.80          0.00         -2.09          0.00
   101.87         12.38        920.32          0.00          0.00          0.00
   101.86         12.38        920.74          0.00          0.84          0.00
   101.85         12.38        920.32          0.01          2.51          0.00
   101.84         12.38        919.90          0.01          0.00          0.00
   101.83         12.38        917.80          0.01         -2.51          0.00
   101.82         12.38        920.74          0.01          0.84          0.00
   101.81         12.38        920.32          0.00          0.00          0.00
   101.80         12.38        920.32          0.00          0.42          0.00
   101.79         12.38        920.32         -0.00          0.42          0.00
   101.78         12.38        917.80          0.00         -2.09          0.00
   101.77         12.39        920.32          0.00         -0.00          0.00
   101.76         12.39        920.32          0.01          0.42          0.00
   101.75         12.39        919.90          0.01          2.09          0.00
   101.74         12.39        920.32          0.01          0.42          0.00
