#Written by Robertson Geologging WinLogger V1.5/410
~VERSION INFORMATION
#------------------------------------------------------------------------------
 VERS. 2.0 : CWLS LOG ASCII STANDARD - VERSION 2.0
 WRAP. NO  : ONE LINE PER DEPTH STEP
~WELL INFORMATION
#MNEM.UNIT         DATA                                DESCRIPTION OF MNEMONIC
#------------------------------------------------------------------------------
 STRT.M         25.0100                            :   START DEPTH
 STOP.M        192.0000                            :   STOP DEPTH
 STEP.M          0.0100                            :   STEP VALUE
 NULL.        -999.2500                            :   NULL VALUE
 COMP.    IWS                                      :   COMPANY NAME
 WELL.    Thristlington                            :   WELL NAME
 FLD.     N/A                                      :   FIELD NAME
 LOC.     N/A                                      :   LOCATION
 PROV.    N/A                                      :   PROVINCE
 SRVC.    N/A                                      :   SERVICE COMPANY NAME
 DATE.    01 Feb 11                                :   DATE
 UWI.     N/A                                      :   UNIQUE WELL IDENTIFIER
~PARAMETER INFORMATION
#MNEMO.UNIT         VALUE                 DESCRIPTION OF MNEMONIC
#------------------------------------------------------------------------------
~OTHER INFORMATION SECTION
#------------------------------------------------------------------------------
 1365
~CURVE INFORMATION
#MNEMO.UNIT         API CODE              CURVE DESCRIPTION
#------------------------------------------------------------------------------
 DEPTH.M                                 :   0     Depth
 TEMP.DegC                               :   1     Temperature
 CN25.uS/cm                              :   2     Conductivity@25DegC
 DELT.DegC                               :   3     Delta T
 DELC.uS/cm                              :   4     Delta C
#------------------------------------------------------------------------------
~A  DEPTH          TEMP          CN25          DELT          DELC
# ...
   157.99         12.18       1177.35         -0.00         -2.15
   158.00         12.18       1180.74         -0.00          1.18
   158.01         12.18       1176.80         -0.00         -2.80
   158.02         12.18       1176.80          0.00         -2.83
   158.03         12.18       1180.21         -0.00          0.58
   158.04         12.18       1176.25         -0.00         -3.32
   158.05         12.18       1176.28         -0.00         -3.24
   158.06         12.18       1177.98         -0.01         -1.52
   158.07         12.18       1178.00         -0.01         -3.76
   158.08         12.18       1176.32         -0.00         -3.22
   158.09         12.18       1178.01         -0.00         -1.58
   158.10         12.18       1178.03         -0.00         -1.58
   158.11         12.18       1176.90         -0.00         -2.66
   158.12         12.18       1178.56         -0.01         -0.94
   158.13         12.18       1178.52         -0.01         -0.93
   158.14         12.18       1175.10         -0.01         -7.70
   158.15         12.18       1179.04         -0.00          0.11
   158.16         12.18       1179.07         -0.00          0.09
   158.17         12.18       1179.07         -0.00          0.09
   158.18         12.18       1179.05         -0.00          0.10
   158.19         12.18       1179.04         -0.00          0.14
   158.20         12.18       1179.02         -0.01          0.20
   158.21         12.18       1179.01         -0.01         -2.08
   158.22         12.18       1179.01         -0.00          0.13
   158.23         12.18       1179.02         -0.00          0.10
   158.24         12.18       1179.04         -0.00         -2.20
   158.25         12.18       1182.39          0.00          4.51
   158.26         12.18       1178.42          0.00         -1.13
   158.27         12.18       1178.32          0.00         -3.45
   158.28         12.19       1178.26          0.00         -3.52
   158.29         12.19       1177.11          0.01         -0.75
   158.30         12.19       1178.77          0.01         -2.48
   158.31         12.19       1178.77          0.01         -2.54
   158.32         12.19       1178.75          0.01          1.42
   158.33         12.19       1178.77          0.01         -1.90
   158.34         12.19       1178.80          0.01         -0.18
   158.35         12.18       1178.85          0.00          2.18
   158.36         12.18       1177.81          0.00         -2.25
   158.37         12.18       1179.55         -0.00          1.15
   158.38         12.18       1179.57         -0.00          3.45
   158.39         12.18       1179.56         -0.00          1.21
   158.40         12.18       1179.53         -0.00         -0.46
   158.41         12.18       1179.50         -0.00          4.59
   158.42         12.18       1179.49         -0.00          1.21
   158.43         12.18       1181.74         -0.00          3.42
   158.44         12.18       1179.43          0.00          4.46
   158.45         12.19       1179.36          0.00          0.44
   158.46         12.19       1181.51          0.01          2.53
   158.47         12.19       1179.18          0.01          3.56
   158.48         12.19       1177.49          0.01         -2.09
   158.49         12.19       1180.92          0.01          1.29
   158.50         12.19       1180.99          0.01          3.60
   158.51         12.19       1177.12          0.01         -0.28
   158.52         12.19       1180.53          0.01         -0.85
   158.53         12.19       1178.83          0.01          0.84
   158.54         12.19       1176.53          0.01         -3.13
   158.55         12.19       1176.53          0.01         -5.37
   158.56         12.19       1178.80          0.01         -0.82
   158.57         12.19       1176.56          0.01         -3.04
   158.58         12.19       1178.84          0.01         -3.00
   158.59         12.19       1180.52          0.01          0.93
   158.60         12.19       1175.40          0.01         -4.14
   158.61         12.19       1178.80          0.01         -0.76
   158.62         12.19       1180.46          0.01         -1.37
   158.63         12.19       1175.40          0.01         -4.15
   158.64         12.19       1177.09          0.01         -2.49
   158.65         12.19       1180.46          0.01          0.88
   158.66         12.19       1178.71          0.01         -2.02
   158.67         12.19       1176.37          0.01         -4.38
   158.68         12.19       1178.58          0.01         -2.17
   158.69         12.19       1176.32          0.01         -4.42
   158.70         12.19       1176.29          0.01         -4.40
   158.71         12.19       1180.22          0.01         -0.43
   158.72         12.19       1176.84          0.01         -3.76
   158.73         12.19       1176.87          0.01         -3.73
   158.74         12.19       1180.85          0.01          0.26
   158.75         12.19       1180.94          0.01          0.38
   158.76         12.19       1177.63          0.00         -5.14
   158.77         12.19       1177.71         -0.00         -1.62
   158.78         12.18       1181.19         -0.01          3.62
   158.79         12.18       1179.01         -0.01          1.47
   158.80         12.18       1179.04         -0.01          0.37
   158.81         12.18       1181.32         -0.01          4.31
   158.82         12.18       1179.14         -0.01          2.06
   158.83         12.18       1179.15         -0.01         -1.33
   158.84         12.18       1177.45         -0.01          0.88
   158.85         12.18       1178.56         -0.01          1.96
   158.86         12.18       1178.52         -0.01          1.93
   158.87         12.18       1178.52         -0.01          1.89
   158.88         12.18       1178.55         -0.01          1.90
   158.89         12.18       1178.53         -0.00         -2.11
   158.90         12.18       1178.50         -0.00         -2.18
   158.91         12.18       1176.79         -0.00         -0.52
   158.92         12.18       1177.86          0.00         -3.42
   158.93         12.18       1176.11          0.00         -5.14
   158.94         12.18       1176.04          0.00         -0.16
   158.95         12.19       1179.95          0.01         -1.31
   158.96         12.19       1176.53          0.01         -4.73
   158.97         12.19       1176.49          0.01         -3.11
   158.98         12.19       1178.74          0.01          1.39
   158.99         12.19       1180.40          0.01         -0.34
   159.00         12.19       1175.38          0.01         -1.42
   159.01         12.19       1178.78          0.01          1.98
   159.02         12.19       1180.49          0.01          0.28
   159.03         12.18       1175.48          0.01         -0.78
   159.04         12.19       1177.15          0.01          0.87
   159.05         12.18       1180.56          0.01          2.57
   159.06         12.18       1176.62          0.01         -1.38
   159.07         12.18       1176.63          0.01          0.31
   159.08         12.18       1178.93          0.01          0.91
   159.09         12.18       1176.69          0.01         -1.34
   159.10         12.18       1178.95          0.01          2.05
   159.11         12.18       1180.60          0.01          2.04
   159.12         12.18       1175.53          0.01         -2.99
   159.13         12.18       1175.50          0.00          0.41
   159.14         12.18       1179.45          0.00          0.41
   159.15         12.18       1179.46          0.01          0.39
   159.16         12.18       1176.07          0.01         -3.00
   159.17         12.18       1180.07          0.00          1.01
   159.18         12.18       1180.05          0.00          1.01
   159.19         12.18       1176.12          0.00         -2.90
   159.20         12.18       1179.50          0.00          0.49
