#Written by Robertson Geologging WinLogger V1.5/410
~VERSION INFORMATION
#------------------------------------------------------------------------------
 VERS. 2.0 : CWLS LOG ASCII STANDARD - VERSION 2.0
 WRAP. NO  : ONE LINE PER DEPTH STEP
~WELL INFORMATION
#MNEM.UNIT         DATA                                DESCRIPTION OF MNEMONIC
#------------------------------------------------------------------------------
 STRT.M         25.0100                            :   START DEPTH
 STOP.M        192.0000                            :   STOP DEPTH
 STEP.M          0.0100                            :   STEP VALUE
 NULL.        -999.2500                            :   NULL VALUE
 COMP.    IWS                                      :   COMPANY NAME
 WELL.    Thristlington                            :   WELL NAME
 FLD.     N/A                                      :   FIELD NAME
 LOC.     N/A                                      :   LOCATION
 PROV.    N/A                                      :   PROVINCE
 SRVC.    N/A                                      :   SERVICE COMPANY NAME
 DATE.    01 Feb 11                                :   DATE
 UWI.     N/A                                      :   UNIQUE WELL IDENTIFIER
~PARAMETER INFORMATION
#MNEMO.UNIT         VALUE                 DESCRIPTION OF MNEMONIC
#------------------------------------------------------------------------------
~OTHER INFORMATION SECTION
#------------------------------------------------------------------------------
 1365
~CURVE INFORMATION
#MNEMO.UNIT         API CODE              CURVE DESCRIPTION
#------------------------------------------------------------------------------
 DEPTH.M                                 :   0     Depth
 TEMP.DegC                               :   1     Temperature
 CN25.uS/cm                              :   2     Conductivity@25DegC
 DELT.DegC                               :   3     Delta T
 DELC.uS/cm                              :   4     Delta C
#------------------------------------------------------------------------------
~A  DEPTH          TEMP          CN25          DELT          DELC
# ...
   101.87         12.17       1178.87          0.01          1.90
   101.88         12.17       1181.16          0.01          0.25
   101.89         12.16       1178.96          0.01         -1.93
   101.90         12.16       1179.02          0.01         -1.89
   101.91         12.16       1181.31          0.00          0.44
   101.92         12.16       1179.09          0.00          1.61
   101.93         12.16       1181.36          0.00         -0.04
   101.94         12.16       1177.40          0.00         -0.03
   101.95         12.16       1179.68          0.00         -1.16
   101.96         12.16       1181.38          0.00          4.45
   101.97         12.16       1181.38          0.00          4.39
   101.98         12.16       1179.75          0.00         -1.28
   101.99         12.16       1177.54          0.01          0.36
   102.00         12.15       1179.82          0.01         -0.81
   102.01         12.15       1179.86          0.01          3.14
   102.02         12.15       1181.02          0.01          2.60
   102.03         12.15       1179.31          0.01         -1.36
   102.04         12.15       1179.33          0.01          0.89
   102.05         12.15       1181.06          0.01         -1.31
   102.06         12.15       1177.12          0.01         -0.17
   102.07         12.15       1179.41          0.00          0.44
   102.08         12.15       1177.20          0.00         -4.03
   102.09         12.15       1181.12          0.00          2.16
   102.10         12.15       1179.43          0.00         -3.48
   102.11         12.15       1180.54          0.00          1.04
   102.12         12.15       1180.48          0.00          1.07
   102.13         12.15       1179.31          0.00         -2.30
   102.14         12.15       1180.98          0.00          1.66
   102.15         12.16       1176.99          0.00         -4.58
   102.16         12.16       1179.19          0.01         -0.20
   102.17         12.16       1180.83          0.01          1.36
   102.18         12.16       1180.78          0.01         -2.10
   102.19         12.16       1179.06          0.01          0.12
   102.20         12.16       1176.78          0.01         -4.40
   102.21         12.16       1180.68          0.01          1.80
   102.22         12.16       1179.51          0.02         -1.63
   102.23         12.17       1181.17          0.02         -1.67
   102.24         12.16       1177.25          0.02         -1.70
   102.25         12.16       1177.30          0.02         -3.96
   102.26         12.16       1181.28          0.02          2.28
   102.27         12.16       1181.31          0.02          0.06
   102.28         12.16       1181.31          0.01         -1.54
   102.29         12.16       1177.34          0.01         -0.37
   102.30         12.16       1181.24          0.01          1.88
   102.31         12.16       1181.20          0.01          1.87
   102.32         12.17       1181.17          0.01         -0.43
   102.33         12.17       1178.90          0.01         -0.43
   102.34         12.16       1177.24          0.01         -0.38
   102.35         12.16       1181.20          0.01         -0.34
   102.36         12.16       1181.23          0.01          2.01
   102.37         12.16       1181.28          0.01         -0.17
   102.38         12.16       1177.40          0.00         -1.80
   102.39         12.16       1177.41          0.00         -0.09
   102.40         12.16       1181.38          0.00         -0.07
   102.41         12.16       1179.12          0.00         -2.33
   102.42         12.16       1181.38          0.00         -0.04
   102.43         12.16       1177.51         -0.00         -1.66
   102.44         12.16       1177.55         -0.00          0.09
   102.45         12.15       1181.53         -0.00          0.11
   102.46         12.15       1177.60         -0.00         -1.58
   102.47         12.15       1180.95         -0.00         -0.56
   102.48         12.16       1176.96          0.00         -0.65
   102.49         12.16       1180.86          0.00          3.23
   102.50         12.16       1180.88          0.01         -0.79
   102.51         12.16       1180.91          0.01         -0.79
   102.52         12.15       1180.95          0.01          0.91
   102.53         12.15       1177.07          0.01         -0.78
   102.54         12.15       1178.75          0.01         -1.33
   102.55         12.15       1181.01          0.01          0.91
   102.56         12.15       1181.01          0.01         -0.27
   102.57         12.15       1182.65          0.01          3.11
   102.58         12.16       1177.55          0.01         -1.93
   102.59         12.16       1182.58          0.01          1.43
   102.60         12.16       1178.62          0.01         -0.76
   102.61         12.16       1180.91          0.00          1.61
   102.62         12.16       1178.68          0.00         -0.61
   102.63         12.15       1177.03         -0.00         -3.90
   102.64         12.15       1182.10         -0.00          2.97
   102.65         12.15       1180.40         -0.01          1.30
   102.66         12.15       1180.41         -0.01         -0.32
   102.67         12.15       1178.17         -0.01         -1.35
   102.68         12.15       1176.54         -0.01         -3.00
   102.69         12.15       1181.64         -0.01          4.37
   102.70         12.15       1176.58         -0.01         -2.93
   102.71         12.15       1178.27         -0.01         -2.94
   102.72         12.15       1178.22         -0.01         -3.01
   102.73         12.15       1176.51         -0.01         -0.79
   102.74         12.15       1181.58         -0.01          4.27
   102.75         12.15       1176.50         -0.01         -4.82
   102.76         12.15       1180.46         -0.01          1.41
   102.77         12.15       1178.20         -0.01         -3.10
   102.78         12.15       1176.50         -0.01         -0.84
   102.79         12.15       1180.43         -0.01          1.45
   102.80         12.15       1177.05         -0.01         -4.18
   102.81         12.15       1180.98         -0.01          2.05
   102.82         12.15       1179.26         -0.01         -1.91
   102.83         12.16       1180.34         -0.01          1.43
   102.84         12.16       1180.26         -0.01          1.38
   102.85         12.16       1179.04         -0.00         -2.10
   102.86         12.16       1180.73         -0.01          1.86
   102.87         12.16       1176.78         -0.00         -4.38
   102.88         12.16       1179.00         -0.00          0.04
   102.89         12.16       1180.68          0.00          1.66
   102.90         12.16       1180.63          0.00         -0.68
   102.91         12.16       1180.63          0.00          1.55
   102.92         12.16       1176.71          0.00         -4.65
   102.93         12.16       1180.68          0.00          3.28
   102.94         12.16       1177.31          0.00         -2.37
   102.95         12.16       1181.24          0.00         -0.14
   102.96         12.16       1177.31          0.00         -4.07
   102.97         12.16       1177.27          0.01         -2.48
   102.98         12.16       1181.23          0.01          3.69
   102.99         12.16       1181.24          0.01          1.42
   103.00         12.16       1181.24          0.01          1.38
   103.01         12.16       1177.31          0.01         -3.71
   103.02         12.16       1177.27          0.01         -2.05
   103.03         12.16       1181.21          0.01          1.88
   103.04         12.16       1178.94          0.01         -2.12
   103.05         12.16       1181.24          0.01          4.12
   103.06         12.16       1177.42          0.01         -1.99
   103.07         12.16       1182.57          0.01          5.37
   103.08         12.15       1180.96          0.00         -0.16
