#Written by Robertson Geologging WinLogger V1.0/406
~VERSION INFORMATION
#------------------------------------------------------------------------------
 VERS. 2.0 : CWLS LOG ASCII STANDARD - VERSION 2.0
 WRAP. NO  : ONE LINE PER DEPTH STEP
~WELL INFORMATION
#MNEM.UNIT         DATA                                DESCRIPTION OF MNEMONIC
#------------------------------------------------------------------------------
 STRT.M         44.9500                            :   START DEPTH
 STOP.M        194.0200                            :   STOP DEPTH
 STEP.M          0.0100                            :   STEP VALUE
 NULL.        -999.2500                            :   NULL VALUE
 COMP.    Coal Authority                           :   COMPANY NAME
 WELL.    Thrislington Shaft                       :   WELL NAME
 FLD.     Banks Yard                               :   FIELD NAME
 LOC.     N/A                                      :   LOCATION
 PROV.    N/A                                      :   PROVINCE
 SRVC.    N/A                                      :   SERVICE COMPANY NAME
 DATE.    19 May 08                                :   DATE
 UWI.     N/A                                      :   UNIQUE WELL IDENTIFIER
~PARAMETER INFORMATION
#MNEMO.UNIT         VALUE                 DESCRIPTION OF MNEMONIC
#------------------------------------------------------------------------------
~OTHER INFORMATION SECTION
#------------------------------------------------------------------------------
 TCDS 1365
~CURVE INFORMATION
#MNEMO.UNIT         API CODE              CURVE DESCRIPTION
#------------------------------------------------------------------------------
 DEPTH.M                                 :   0     Depth
 TEMP.DegC                               :   1     Temperature
 COND.uS/cm                              :   2     Absolute Conductivity
 COND.uS/cm                              :   3     Conductivity@25DegC
 DELT.DegC                               :   4     Delta T
 DELC.uS/cm                              :   5     Delta C
#------------------------------------------------------------------------------
~A  DEPTH     TEMP      COND      COND      DELT      DELC      
# ...
   153.19     12.64    940.38   1249.30     -0.01      0.48 
   153.20     12.63    939.48   1248.27     -0.01     -0.71 
   153.21     12.64    940.38   1249.30      0.00      0.00 
   153.22     12.64    940.38   1249.14      0.00     -0.16 
   153.23     12.65    940.38   1248.82      0.01     -0.32 
   153.24     12.65    940.38   1248.82      0.00      1.03 
   153.25     12.65    940.38   1248.98     -0.00      0.16 
   153.26     12.65    940.38   1248.82      0.01     -0.32 
   153.27     12.65    939.48   1247.63      0.01     -1.51 
   153.28     12.65    940.38   1248.82      0.01     -0.32 
   153.29     12.65    933.19   1239.28      0.00     -8.51 
   153.30     12.65    940.38   1248.98      0.00      0.00 
   153.31     12.64    940.38   1249.14      0.00      0.00 
   153.32     12.64    940.38   1249.30      0.00      9.39 
   153.33     12.64    939.48   1247.95      0.01     -1.51 
   153.34     12.65    940.38   1248.98      0.01      0.71 
   153.35     12.65    940.38   1248.82      0.02     -0.80 
   153.36     12.66    940.38   1248.50      0.02     -0.80 
   153.37     12.66    940.38   1248.66      0.02     -0.64 
   153.38     12.65    940.38   1248.82      0.01      0.71 
   153.39     12.64    940.38   1249.14     -0.00      0.16 
   153.40     12.63    940.38   1249.46     -0.01      0.32 
   153.41     12.65    933.19   1239.44      0.00     -9.71 
   153.42     12.66    939.48   1247.47      0.00     -0.16 
   153.43     12.67    940.38   1248.34      0.02     -0.64 
   153.44     12.67    940.38   1248.02      0.03     -0.96 
   153.45     12.67    940.38   1248.34      0.02     -0.80 
   153.46     12.65    940.38   1248.82      0.01      9.23 
   153.47     12.65    940.38   1248.98      0.01     -0.32 
   153.48     12.64    939.48   1247.95      0.00     -0.16 
   153.49     12.63    940.38   1249.46     -0.01      0.48 
   153.50     12.63    940.38   1249.63     -0.01      0.32 
   153.51     12.63    940.38   1249.46     -0.01      0.32 
   153.52     12.64    940.38   1249.30     -0.00      1.35 
   153.53     12.64    939.48   1247.95      0.00     -1.19 
   153.54     12.64    940.38   1249.14      0.00      0.00 
   153.55     12.65    933.19   1239.44      0.01     -9.87 
   153.56     12.65    940.38   1248.82      0.02     -0.64 
   153.57     12.64    939.48   1247.95      0.00     -0.16 
   153.58     12.65    940.38   1248.82      0.01     -0.32 
   153.59     12.65    940.38   1248.98     -0.00      0.16 
   153.60     12.63    940.38   1249.63     -0.03     10.51 
   153.61     12.64    939.48   1248.11     -0.02     -0.55 
   153.62     12.64    940.38   1249.30     -0.01      0.32 
   153.63     12.64    940.38   1249.30      0.00      0.00 
   153.64     12.64    940.38   1249.14      0.00      1.19 
   153.65     12.64    939.48   1247.95      0.00     -1.35 
   153.66     12.63    940.38   1249.46     -0.01      0.32 
   153.67     12.64    940.38   1249.14      0.00     -0.16 
   153.68     12.64    933.19   1239.75      0.00     -9.55 
   153.69     12.64    948.47   1260.05      0.00     10.75 
   153.70     12.64    933.19   1239.60      0.01     -9.87 
   153.71     12.63    940.38   1249.63     -0.01      0.48 
   153.72     12.63    940.38   1249.63     -0.01      1.67 
   153.73     12.63    939.48   1248.27     -0.01      8.83 
   153.74     12.63    940.38   1249.46     -0.01      0.32 
   153.75     12.64    940.38   1249.14      0.01     -0.32 
   153.76     12.65    940.38   1248.82      0.02     -0.80 
   153.77     12.64    939.48   1247.95      0.01     -0.48 
   153.78     12.65    940.38   1248.98      0.01     -0.32 
   153.79     12.64    940.38   1249.30      0.00      0.00 
   153.80     12.63    940.38   1249.63     -0.00      1.35 
   153.81     12.63    940.38   1249.46     -0.00      0.16 
   153.82     12.62    933.19   1240.39     -0.02     -8.91 
   153.83     12.63    948.47   1260.21     -0.01     11.23 
   153.84     12.65    933.19   1239.28     -0.00     -8.19 
   153.85     12.64    940.38   1249.14     -0.01      0.32 
   153.86     12.64    940.38   1249.14     -0.01      0.32 
   153.87     12.63    940.38   1249.46     -0.01      1.67 
   153.88     12.63    940.38   1249.63     -0.03      0.96 
   153.89     12.64    939.48   1248.11     -0.02     -0.55 
   153.90     12.65    940.38   1248.82     -0.00      9.71 
   153.91     12.66    940.38   1248.66      0.00    -10.74 
   153.92     12.66    940.38   1248.66      0.01      9.23 
   153.93     12.65    940.38   1248.82      0.01     -0.32 
   153.94     12.64    933.19   1239.60      0.00     -9.71 
   153.95     12.64    939.48   1248.11      0.00      0.00 
   153.96     12.64    940.38   1249.14      0.00     -0.16 
   153.97     12.65    940.38   1248.98      0.00     -0.16 
   153.98     12.65    940.38   1248.82      0.00      9.39 
   153.99     12.65    940.38   1248.82      0.01     -0.48 
   154.00     12.65    939.48   1247.63      0.01     -1.51 
   154.01     12.65    940.38   1248.98     -0.00      1.35 
   154.02     12.65    940.38   1248.82     -0.00      0.16 
   154.03     12.65    940.38   1248.98     -0.01      0.48 
   154.04     12.64    940.38   1249.14     -0.01      0.32 
   154.05     12.64    939.48   1247.95     -0.00      8.51 
   154.06     12.64    940.38   1249.30      0.00      0.00 
   154.07     12.65    933.19   1239.44      0.01    -10.03 
   154.08     12.66    940.38   1248.50      0.03     -0.96 
   154.09     12.66    939.48   1247.47      0.03     -2.31 
   154.10     12.66    940.38   1248.66      0.03      0.07 
   154.11     12.65    940.38   1248.98      0.01     -0.48 
   154.12     12.64    940.38   1249.30     -0.00      0.16 
   154.13     12.65    939.48   1247.79      0.00     -1.19 
   154.14     12.64    940.38   1249.30      0.00      0.00 
   154.15     12.64    940.38   1249.30     -0.00      0.16 
   154.16     12.65    940.38   1248.82      0.02      8.75 
   154.17     12.64    939.48   1247.95      0.01     -1.67 
   154.18     12.65    940.38   1248.82      0.01     -0.48 
   154.19     12.65    940.38   1248.82      0.02      0.55 
   154.20     12.64    933.19   1239.60      0.00     -9.71 
   154.21     12.64    940.38   1249.14      0.00      0.00 
   154.22     12.64    940.38   1249.14     -0.01      0.32 
   154.23     12.65    939.48   1247.79     -0.00     -1.03 
   154.24     12.65    940.38   1248.82      0.00     -0.16 
   154.25     12.66    940.38   1248.66      0.00     -0.16 
   154.26     12.66    940.38   1248.66      0.00      1.03 
   154.27     12.65    940.38   1248.82      0.00      0.00 
   154.28     12.66    940.38   1248.66      0.00      9.39 
   154.29     12.66    940.38   1248.66      0.01     -0.32 
   154.30     12.66    939.48   1247.31      0.02     -1.83 
   154.31     12.66    940.38   1248.50      0.02     -0.80 
   154.32     12.65    933.19   1239.44      0.00     -8.51 
   154.33     12.64    940.38   1249.14     -0.00      0.16 
   154.34     12.63    940.38   1249.46     -0.02      0.64 
   154.35     12.63    940.38   1249.46     -0.03      0.96 
   154.36     12.64    940.38   1249.14     -0.01      0.48 
   154.37     12.65    939.48   1247.79     -0.00     -1.03 
   154.38     12.67    940.38   1248.34      0.02     -0.80 
   154.39     12.66    940.38   1248.50      0.03     -0.96 
   154.40     12.66    940.38   1248.50      0.01      9.07 
   154.41     12.66    940.38   1248.66      0.00      1.19 
   154.42     12.64    940.38   1249.14     -0.02      0.80 
   154.43     12.65    940.38   1248.98     -0.03      0.96 
   154.44     12.64    939.48   1248.11     -0.03     -0.23 
   154.45     12.64    940.38   1249.14     -0.01      0.32 
   154.46     12.65    933.19   1239.44      0.00     -9.55 
   154.47     12.65    940.38   1248.82      0.01      0.87 
   154.48     12.66    940.38   1248.50      0.03     -0.96 
   154.49     12.66    940.38   1248.66      0.03     -0.96 
   154.50     12.64    940.38   1249.14      0.01     -0.32 
