#Written by Robertson Geologging WinLogger V1.0/406
~VERSION INFORMATION
#------------------------------------------------------------------------------
 VERS. 2.0 : CWLS LOG ASCII STANDARD - VERSION 2.0
 WRAP. NO  : ONE LINE PER DEPTH STEP
~WELL INFORMATION
#MNEM.UNIT         DATA                                DESCRIPTION OF MNEMONIC
#------------------------------------------------------------------------------
 STRT.M         44.9500                            :   START DEPTH
 STOP.M        194.0200                            :   STOP DEPTH
 STEP.M          0.0100                            :   STEP VALUE
 NULL.        -999.2500                            :   NULL VALUE
 COMP.    Coal Authority                           :   COMPANY NAME
 WELL.    Thrislington Shaft                       :   WELL NAME
 FLD.     Banks Yard                               :   FIELD NAME
 LOC.     N/A                                      :   LOCATION
 PROV.    N/A                                      :   PROVINCE
 SRVC.    N/A                                      :   SERVICE COMPANY NAME
 DATE.    19 May 08                                :   DATE
 UWI.     N/A                                      :   UNIQUE WELL IDENTIFIER
~PARAMETER INFORMATION
#MNEMO.UNIT         VALUE                 DESCRIPTION OF MNEMONIC
#------------------------------------------------------------------------------
~OTHER INFORMATION SECTION
#------------------------------------------------------------------------------
 TCDS 1365
~CURVE INFORMATION
#MNEMO.UNIT         API CODE              CURVE DESCRIPTION
#------------------------------------------------------------------------------
 DEPTH.M                                 :   0     Depth
 TEMP.DegC                               :   1     Temperature
 COND.uS/cm                              :   2     Absolute Conductivity
 COND.uS/cm                              :   3     Conductivity@25DegC
 DELT.DegC                               :   4     Delta T
 DELC.uS/cm                              :   5     Delta C
#------------------------------------------------------------------------------
~A  DEPTH     TEMP      COND      COND      DELT      DELC      
# ...
    84.55     11.78    616.43    837.96      0.02     -4.10 
    84.56     11.78    619.12    841.61      0.01      3.43 
    84.57     11.78    619.12    841.61      0.00     -0.11 
    84.58     11.78    611.95    831.97      0.00     -9.86 
    84.59     11.78    625.39    850.25      0.00     12.18 
    84.60     11.78    611.95    831.97     -0.01      0.22 
    84.61     11.78    616.43    837.96     -0.01     -3.43 
    84.62     11.79    619.12    841.50     -0.01      3.87 
    84.63     11.78    619.12    841.72     -0.02      0.55 
    84.64     11.78    616.43    837.96     -0.00      0.11 
    84.65     11.79    611.95    831.76     -0.00     -9.63 
    84.66     11.78    619.12    841.72     -0.00      9.86 
    84.67     11.78    616.43    838.07     -0.00      0.11 
    84.68     11.77    619.12    841.83     -0.01      0.22 
    84.69     11.77    619.12    841.94     -0.02      4.10 
    84.70     11.78    616.43    838.07     -0.02     -3.21 
    84.71     11.78    611.95    831.86     -0.01     -9.41 
    84.72     11.79    619.12    841.50     -0.01      3.87 
    84.73     11.78    616.43    837.96     -0.01      6.31 
    84.74     11.78    619.12    841.72     -0.01     -8.19 
    84.75     11.79    616.43    837.85     -0.00      6.20 
    84.76     11.79    619.12    841.39      0.01     -0.22 
    84.77     11.79    611.95    831.65      0.01     -6.42 
    84.78     11.79    616.43    837.74      0.02     -4.10 
    84.79     11.79    619.12    841.50      0.01      3.43 
    84.80     11.79    616.43    837.85      0.01     -3.87 
    84.81     11.78    619.12    841.61      0.00      3.54 
    84.82     11.78    619.12    841.72      0.00      9.75 
    84.83     11.78    616.43    837.96      0.00     -0.11 
    84.84     11.77    611.95    832.08     -0.01     -9.42 
    84.85     11.78    619.12    841.61     -0.00      0.11 
    84.86     11.79    616.43    837.85      0.00     -0.11 
    84.87     11.78    619.12    841.61      0.00     -0.11 
    84.88     11.79    616.43    837.74      0.01     -0.33 
    84.89     11.79    619.12    841.50      0.01      9.53 
    84.90     11.78    611.95    831.86      0.00     -9.86 
    84.91     11.79    616.43    837.85     -0.00      0.11 
    84.92     11.77    619.12    841.94     -0.02      0.44 
    84.93     11.78    619.12    841.72     -0.01      3.87 
    84.94     11.78    616.43    838.07     -0.01     -3.43 
    84.95     11.78    619.12    841.72      0.00      9.64 
    84.96     11.80    616.43    837.63      0.02     -0.55 
    84.97     11.79    611.95    831.65      0.02    -10.18 
    84.98     11.79    619.12    841.50      0.01     -0.33 
    84.99     11.78    616.43    837.96      0.00     -0.11 
    85.00     11.78    619.12    841.61      0.00     -0.11 
    85.01     11.78    616.43    837.96      0.00      0.00 
    85.02     11.79    619.12    841.50      0.01      9.53 
    85.03     11.77    611.95    832.08     -0.00     -9.64 
    85.04     11.77    625.39    850.47     -0.01     12.52 
    85.05     11.77    611.95    832.08     -0.00     -9.64 
    85.06     11.77    619.12    841.83     -0.00      0.11 
    85.07     11.78    616.43    837.96      0.00      6.09 
    85.08     11.78    619.12    841.61      0.01      3.43 
    85.09     11.77    616.43    838.18      0.00     -3.77 
    85.10     11.77    611.95    832.19      0.00     -9.75 
    85.11     11.78    619.12    841.72      0.01      3.43 
    85.12     11.78    616.43    837.96      0.01     -3.88 
    85.13     11.78    619.12    841.61      0.01      9.42 
    85.14     11.78    616.43    837.96      0.00     -0.11 
    85.15     11.78    619.12    841.61      0.01     -0.22 
    85.16     11.78    611.95    831.97      0.02    -10.19 
    85.17     11.78    625.39    850.25      0.01     11.85 
    85.18     11.78    611.95    831.86      0.03    -10.41 
    85.19     11.78    619.12    841.61      0.02      3.21 
    85.20     11.80    616.43    837.63      0.02      5.54 
    85.21     11.80    619.12    841.17      0.02     -0.55 
    85.22     11.79    616.43    837.74      0.01     -0.22 
    85.23     11.79    611.95    831.76      0.01    -10.07 
    85.24     11.77    619.12    841.83     -0.01      3.88 
    85.25     11.77    616.43    838.18     -0.01     -3.32 
    85.26     11.78    619.12    841.61     -0.00      9.85 
    85.27     11.79    619.12    841.50     -0.00      3.76 
    85.28     11.78    616.43    837.96      0.00     -3.65 
    85.29     11.77    611.95    832.08     -0.00     -5.98 
    85.30     11.77    619.12    841.83      0.00      0.00 
    85.31     11.78    616.43    838.07      0.00     -0.11 
    85.32     11.77    619.12    841.83     -0.00      0.11 
    85.33     11.78    619.12    841.72      0.00      9.75 
    85.34     11.77    616.43    838.18     -0.01    -11.96 
    85.35     11.77    611.95    832.08     -0.00      0.11 
    85.36     11.78    619.12    841.61     -0.00      3.76 
    85.37     11.78    619.12    841.72     -0.01      0.22 
    85.38     11.79    616.43    837.74      0.01     -3.98 
    85.39     11.79    619.12    841.50      0.00      3.54 
    85.40     11.79    616.43    837.85      0.01     -3.99 
    85.41     11.78    611.95    831.86      0.01     -0.33 
    85.42     11.77    619.12    841.83     -0.00      3.77 
    85.43     11.78    616.43    837.96      0.00     -3.76 
    85.44     11.77    619.12    841.83     -0.01      0.22 
    85.45     11.78    616.43    838.07     -0.01      0.33 
    85.46     11.78    619.12    841.72     -0.01      0.22 
    85.47     11.78    611.95    831.97     -0.01      0.22 
    85.48     11.79    616.43    837.85      0.00      0.00 
    85.49     11.79    619.12    841.50      0.01     -0.22 
    85.50     11.80    616.43    837.63      0.02     -4.09 
    85.51     11.79    619.12    841.39      0.02      3.21 
    85.52     11.79    619.12    841.50      0.02     -0.44 
    85.53     11.79    616.43    837.74      0.01      5.76 
    85.54     11.79    611.95    831.76      0.00     -6.20 
    85.55     11.79    616.43    837.85      0.00     -3.76 
    85.56     11.79    619.12    841.39      0.01     -0.22 
    85.57     11.78    616.43    837.96      0.00      5.98 
    85.58     11.79    619.12    841.50      0.01     -8.75 
    85.59     11.78    619.12    841.61      0.00      9.64 
    85.60     11.77    616.43    838.18     -0.01      0.22 
    85.61     11.78    611.95    831.86     -0.00     -9.63 
    85.62     11.78    616.43    837.96      0.00     -3.76 
    85.63     11.78    619.12    841.61      0.00      3.65 
    85.64     11.78    619.12    841.72     -0.01      9.96 
    85.65     11.77    616.43    838.18     -0.00     -3.54 
    85.66     11.77    619.12    841.83     -0.00      3.77 
    85.67     11.77    616.43    838.18      0.00     -3.66 
    85.68     11.78    611.95    831.86      0.01    -10.08 
    85.69     11.79    619.12    841.50      0.01      3.43 
    85.70     11.79    616.43    837.85      0.00      5.98 
    85.71     11.79    619.12    841.50      0.00      0.00 
    85.72     11.78    619.12    841.61      0.00      3.65 
    85.73     11.79    616.43    837.85      0.01     -3.87 
    85.74     11.79    611.95    831.76      0.00     -6.09 
    85.75     11.79    619.12    841.50     -0.00      0.11 
    85.76     11.79    616.43    837.74      0.00      6.09 
    85.77     11.79    619.12    841.50     -0.00      3.76 
    85.78     11.78    619.12    841.72     -0.01      0.22 
    85.79     11.78    616.43    837.96     -0.00      0.11 
    85.80     11.77    611.95    832.08     -0.01     -9.53 
    85.81     11.77    619.12    841.83     -0.00      0.11 
    85.82     11.78    616.43    838.07     -0.00      0.11 
    85.83     11.77    619.12    841.83      0.00      9.75 
    85.84     11.78    619.12    841.72     -0.00      0.11 
    85.85     11.78    616.43    837.96     -0.00      0.11 
    85.86     11.79    611.95    831.76      0.00     -9.85 
