#Written by Robertson Geologging WinLogger V1.5/410
~VERSION INFORMATION
#------------------------------------------------------------------------------
 VERS. 2.0 : CWLS LOG ASCII STANDARD - VERSION 2.0
 WRAP. NO  : ONE LINE PER DEPTH STEP
~WELL INFORMATION
#MNEM.UNIT         DATA                                DESCRIPTION OF MNEMONIC
#------------------------------------------------------------------------------
 STRT.M         25.0100                            :   START DEPTH
 STOP.M        192.0000                            :   STOP DEPTH
 STEP.M          0.0100                            :   STEP VALUE
 NULL.        -999.2500                            :   NULL VALUE
 COMP.    IWS                                      :   COMPANY NAME
 WELL.    Thristlington                            :   WELL NAME
 FLD.     N/A                                      :   FIELD NAME
 LOC.     N/A                                      :   LOCATION
 PROV.    N/A                                      :   PROVINCE
 SRVC.    N/A                                      :   SERVICE COMPANY NAME
 DATE.    01 Feb 11                                :   DATE
 UWI.     N/A                                      :   UNIQUE WELL IDENTIFIER
~PARAMETER INFORMATION
#MNEMO.UNIT         VALUE                 DESCRIPTION OF MNEMONIC
#------------------------------------------------------------------------------
~OTHER INFORMATION SECTION
#------------------------------------------------------------------------------
 1365
~CURVE INFORMATION
#MNEMO.UNIT         API CODE              CURVE DESCRIPTION
#------------------------------------------------------------------------------
 DEPTH.M                                 :   0     Depth
 TEMP.DegC                               :   1     Temperature
 CN25.uS/cm                              :   2     Conductivity@25DegC
 DELT.DegC                               :   3     Delta T
 DELC.uS/cm                              :   4     Delta C
#------------------------------------------------------------------------------
~A  DEPTH          TEMP          CN25          DELT          DELC
# ...
   114.07         12.15       1177.61         -0.00         -3.25
   114.08         12.15       1179.82         -0.00          2.86
   114.09         12.16       1181.48          0.00          1.11
   114.10         12.16       1181.44          0.00          1.04
   114.11         12.16       1179.74          0.00          1.63
   114.12         12.16       1177.50          0.00         -2.83
   114.13         12.16       1181.44          0.00          5.07
   114.14         12.16       1183.68          0.00          2.23
   114.15         12.16       1179.71          0.00          1.58
   114.16         12.16       1177.42          0.01         -0.73
   114.17         12.16       1179.64          0.01          1.46
   114.18         12.16       1179.64          0.01          1.52
   114.19         12.16       1180.75          0.00         -1.26
   114.20         12.16       1179.03          0.00          0.45
   114.21         12.16       1179.00          0.00          0.44
   114.22         12.16       1178.96          0.01         -3.03
   114.23         12.17       1178.90          0.01          0.83
   114.24         12.17       1178.83          0.01         -3.20
   114.25         12.17       1178.79          0.01          0.15
   114.26         12.17       1180.45          0.01         -0.38
   114.27         12.17       1178.73          0.01         -3.76
   114.28         12.17       1178.72          0.01          0.17
   114.29         12.17       1180.38          0.01          1.78
   114.30         12.17       1179.22          0.02          0.60
   114.31         12.17       1179.22          0.02         -1.67
   114.32         12.17       1177.01          0.01         -5.55
   114.33         12.17       1180.98          0.01          3.55
   114.34         12.17       1183.30          0.01          0.84
   114.35         12.17       1181.10          0.01          2.65
   114.36         12.17       1177.20          0.00         -3.49
   114.37         12.17       1180.59          0.00          2.17
   114.38         12.16       1180.62          0.00          3.87
   114.39         12.16       1180.65          0.00         -0.01
   114.40         12.16       1180.66         -0.00          0.06
   114.41         12.16       1176.78         -0.00         -3.79
   114.42         12.16       1181.88         -0.01          3.61
   114.43         12.16       1180.19         -0.01          3.59
   114.44         12.16       1177.95         -0.01         -3.76
   114.45         12.16       1177.92         -0.00          1.23
   114.46         12.16       1180.16          0.00         -0.56
   114.47         12.16       1181.82          0.00          3.34
   114.48         12.16       1176.75          0.00         -4.04
   114.49         12.16       1181.83          0.00         -0.66
   114.50         12.16       1177.93          0.00         -0.63
   114.51         12.16       1180.24          0.00         -0.61
   114.52         12.16       1181.93          0.00          3.35
   114.53         12.16       1176.89          0.00         -3.94
   114.54         12.16       1181.95         -0.00          1.16
   114.55         12.16       1180.23         -0.00          2.85
   114.56         12.16       1177.95         -0.00         -3.35
   114.57         12.16       1177.90         -0.00          0.61
   114.58         12.16       1180.16         -0.00         -0.49
   114.59         12.16       1181.85         -0.00          5.18
   114.60         12.16       1176.79         -0.01         -2.08
   114.61         12.16       1181.83         -0.01          1.31
   114.62         12.16       1177.85         -0.01          1.30
   114.63         12.16       1177.83         -0.00         -2.10
   114.64         12.17       1181.73         -0.00          5.73
   114.65         12.17       1176.65         -0.00         -3.34
   114.66         12.17       1181.72         -0.00          1.70
   114.67         12.17       1180.04         -0.00          0.01
   114.68         12.16       1177.82          0.00         -2.25
   114.69         12.16       1177.83          0.00          1.10
   114.70         12.16       1177.85          0.00         -2.82
   114.71         12.16       1181.79         -0.00          5.09
   114.72         12.16       1178.42         -0.00         -1.66
   114.73         12.16       1182.38         -0.00          2.32
   114.74         12.16       1182.40         -0.00          3.44
   114.75         12.16       1178.47         -0.00         -2.23
   114.76         12.16       1183.55         -0.00          6.80
   114.77         12.16       1178.48         -0.00         -0.54
   114.78         12.16       1182.43          0.00          5.63
   114.79         12.16       1182.41          0.00          1.66
   114.80         12.16       1178.45          0.00         -2.35
   114.81         12.16       1181.85          0.00          0.98
   114.82         12.16       1177.87          0.01         -3.02
   114.83         12.16       1180.11          0.01          2.56
   114.84         12.16       1177.85          0.01         -3.68
   114.85         12.17       1180.04          0.01          2.46
   114.86         12.17       1180.03          0.01         -0.91
   114.87         12.17       1176.62          0.01         -4.27
   114.88         12.17       1180.54          0.01         -0.33
   114.89         12.17       1176.59          0.01         -4.21
   114.90         12.17       1179.97          0.01         -0.81
   114.91         12.17       1179.99          0.00         -0.71
   114.92         12.17       1178.89          0.00          2.18
   114.93         12.16       1180.62          0.00         -0.03
   114.94         12.16       1180.66         -0.00          0.06
   114.95         12.16       1180.68         -0.00          0.04
   114.96         12.16       1176.76         -0.00         -5.58
   114.97         12.16       1180.72         -0.00          3.44
   114.98         12.16       1180.75         -0.00         -0.53
   114.99         12.16       1180.79         -0.00          1.72
   115.00         12.16       1180.81          0.00         -0.58
   115.01         12.16       1177.44          0.00         -0.06
   115.02         12.16       1181.36          0.00          3.80
   115.03         12.16       1181.28          0.01         -0.26
   115.04         12.16       1181.23          0.01         -0.33
   115.05         12.17       1177.23          0.01         -4.36
   115.06         12.17       1180.59          0.01          2.98
   115.07         12.17       1180.58          0.01          0.76
   115.08         12.17       1180.58          0.01         -0.91
   115.09         12.17       1180.54          0.01         -0.91
   115.10         12.17       1176.55          0.01         -3.19
   115.11         12.17       1180.49          0.01          3.00
   115.12         12.17       1180.48          0.01         -0.96
   115.13         12.17       1180.51          0.01         -3.17
   115.14         12.17       1178.24          0.01         -1.47
   115.15         12.17       1180.48          0.01          3.05
   115.16         12.17       1182.15          0.01          2.52
   115.17         12.17       1177.10          0.01         -2.54
   115.18         12.17       1181.11          0.01          0.36
   115.19         12.17       1178.90          0.00         -0.13
   115.20         12.16       1181.23          0.00          2.23
   115.21         12.16       1181.26         -0.00          2.30
   115.22         12.16       1179.02         -0.00          0.11
   115.23         12.16       1181.27         -0.01          2.44
   115.24         12.16       1181.26         -0.01          2.47
   115.25         12.16       1181.28         -0.01          0.83
   115.26         12.16       1177.37         -0.01         -1.36
   115.27         12.16       1179.66         -0.01          0.95
   115.28         12.16       1181.38         -0.01          1.00
