#Written by Robertson Geologging WinLogger V1.5/410
~VERSION INFORMATION
#------------------------------------------------------------------------------
 VERS. 2.0 : CWLS LOG ASCII STANDARD - VERSION 2.0
 WRAP. NO  : ONE LINE PER DEPTH STEP
~WELL INFORMATION
#MNEM.UNIT         DATA                                DESCRIPTION OF MNEMONIC
#------------------------------------------------------------------------------
 STRT.M        191.7300                            :   START DEPTH
 STOP.M         42.4500                            :   STOP DEPTH
 STEP.M         -0.0100                            :   STEP VALUE
 NULL.        -999.2500                            :   NULL VALUE
 COMP.    I.W.S.                                   :   COMPANY NAME
 WELL.    THRISLINGTON                             :   WELL NAME
 FLD.     N/A                                      :   FIELD NAME
 LOC.     N/A                                      :   LOCATION
 PROV.    N/A                                      :   PROVINCE
 SRVC.    N/A                                      :   SERVICE COMPANY NAME
 DATE.    14 Nov 11                                :   DATE
 UWI.     N/A                                      :   UNIQUE WELL IDENTIFIER
~PARAMETER INFORMATION
#MNEMO.UNIT         VALUE                 DESCRIPTION OF MNEMONIC
#------------------------------------------------------------------------------
~OTHER INFORMATION SECTION
#------------------------------------------------------------------------------
 1365 LOW
~CURVE INFORMATION
#MNEMO.UNIT         API CODE              CURVE DESCRIPTION
#------------------------------------------------------------------------------
 DEPTH.M                                 :   0     Depth
 TEMP.DegC                               :   1     Temperature
 COND.uS/cm                              :   2     Conductivity
 DELT.DegC                               :   3     Delta T
 DELC.uS/cm                              :   4     Delta C
 NGAM.CPS                                :   5     Natural Gamma
#------------------------------------------------------------------------------
~A  DEPTH          TEMP          COND          DELT          DELC          NGAM
# ...
   161.73         12.41        920.74          0.01         -2.51          1.50
   161.72         12.40        920.74          0.01         -2.51          1.50
   161.71         12.40        920.74          0.01         -0.00          1.50
   161.70         12.40        920.74          0.01          0.00          1.50
   161.69         12.40        920.74          0.01          0.00          1.50
   161.68         12.40        920.74          0.01          0.42          1.50
   161.67         12.40        920.74          0.01          0.42          1.00
   161.66         12.40        920.74          0.01          0.42          1.00
   161.65         12.40        920.74          0.01          0.00          1.00
   161.64         12.40        920.32          0.02         -0.42          1.00
   161.63         12.40        920.32          0.02         -0.42          0.50
   161.62         12.40        922.83          0.02          2.09          1.00
   161.61         12.40        922.83          0.02          2.09          1.00
   161.60         12.40        922.83          0.01         -0.42          0.50
   161.59         12.40        920.74          0.01         -2.51          0.50
   161.58         12.39        920.32          0.01         -0.42          0.50
   161.57         12.39        920.74          0.00         -0.00          0.50
   161.56         12.39        920.74         -0.00         -0.00          0.50
   161.55         12.39        920.74         -0.00         -0.00          0.50
   161.54         12.39        920.74         -0.00          0.42          0.50
   161.53         12.39        920.74          0.00          0.42          0.50
   161.52         12.40        920.74          0.00         -0.00          0.50
   161.51         12.40        920.74          0.01         -0.00          0.50
   161.50         12.40        920.74          0.01         -0.00          0.50
   161.49         12.40        920.74          0.01         -0.00          0.50
   161.48         12.40        922.83          0.01          2.09          0.50
   161.47         12.41        923.25          0.01          0.00          0.50
   161.46         12.41        922.83          0.01         -0.42          0.50
   161.45         12.41        922.83          0.01          2.09          0.00
   161.44         12.41        920.32          0.01         -0.42          0.00
   161.43         12.41        920.32          0.01         -0.42          0.50
   161.42         12.40        920.32          0.00         -0.42          0.50
   161.41         12.40        920.32         -0.00          0.00          1.00
   161.40         12.40        920.32         -0.01          0.00          1.00
   161.39         12.39        920.32         -0.01          0.00          1.00
   161.38         12.39        920.32         -0.01          0.00          1.00
   161.37         12.39        920.32         -0.02          0.00          1.00
   161.36         12.39        920.32         -0.02          0.00          1.00
   161.35         12.38        920.32         -0.02          0.00          1.42
   161.34         12.38        920.32         -0.01         -2.51          1.42
   161.33         12.38        922.83         -0.01          0.00          1.83
   161.32         12.38        922.83         -0.01          0.00          1.83
   161.31         12.38        922.83         -0.01          0.00          1.83
   161.30         12.38        922.83         -0.01          2.51          1.83
   161.29         12.38        920.32         -0.00          0.00          1.83
   161.28         12.38        920.32          0.00          0.00          1.83
   161.27         12.38        920.32          0.00          0.00          1.83
   161.26         12.38        920.32          0.00          0.00          1.33
   161.25         12.38        920.32          0.00          0.00          1.33
   161.24         12.38        920.32          0.00          0.00          0.83
   161.23         12.38        920.32         -0.00          0.00          0.83
   161.22         12.38        920.32         -0.00          0.00          0.83
   161.21         12.39        920.32          0.00          0.00          0.83
   161.20         12.39        920.32          0.00          0.00          0.83
   161.19         12.39        920.32          0.00         -2.51          0.83
   161.18         12.39        922.83          0.00          0.00          0.42
   161.17         12.39        923.25         -0.00          0.42          0.42
   161.16         12.39        923.25         -0.00          0.42          0.00
   161.15         12.39        920.74         -0.00          0.42          0.00
   161.14         12.39        920.74          0.00          0.00          0.00
   161.13         12.39        920.74          0.00          0.00          0.00
   161.12         12.39        920.74          0.00          0.42          0.00
   161.11         12.39        920.74          0.00          0.42          0.00
   161.10         12.39        920.74         -0.00         -0.00          0.00
   161.09         12.39        920.74         -0.01         -0.00          0.00
   161.08         12.39        920.74         -0.01         -0.00          0.00
   161.07         12.39        920.74         -0.01          0.42          0.00
   161.06         12.39        920.32         -0.01         -0.00          0.00
   161.05         12.39        920.32         -0.01         -0.00          0.00
   161.04         12.39        922.83         -0.01         -0.00          0.00
   161.03         12.38        922.83         -0.02          0.42          0.00
   161.02         12.38        922.83         -0.02          0.42          0.00
   161.01         12.38        922.83         -0.02         -0.00          0.00
   161.00         12.39        922.83         -0.02          2.51          0.00
   160.99         12.39        920.32         -0.02         -0.00          0.00
   160.98         12.39        920.74         -0.02          0.84          0.00
   160.97         12.39        920.74         -0.02          0.42          0.00
   160.96         12.39        920.74         -0.02          0.42          0.00
   160.95         12.39        920.74         -0.02         -0.00          0.00
   160.94         12.39        920.74         -0.02         -0.00          0.00
   160.93         12.39        920.74         -0.02         -0.00          0.00
   160.92         12.39        920.74         -0.02         -0.00          0.00
   160.91         12.40        920.74         -0.02         -0.00          0.00
   160.90         12.40        920.74         -0.01         -0.00          0.00
   160.89         12.40        920.74         -0.01         -2.51          0.00
   160.88         12.40        923.25         -0.01          0.42          0.00
   160.87         12.40        922.83         -0.01          2.09          0.00
   160.86         12.40        920.32         -0.01         -0.00          0.00
   160.85         12.40        920.32         -0.01         -0.42          0.00
   160.84         12.40        920.32         -0.01          0.00          0.00
   160.83         12.40        920.32         -0.00         -0.42          0.00
   160.82         12.40        920.32         -0.00         -0.42          0.00
   160.81         12.39        920.32         -0.00         -0.42          0.00
   160.80         12.39        920.74         -0.00          0.00          0.00
   160.79         12.39        920.74         -0.00          0.00          0.00
   160.78         12.39        920.74         -0.00         -0.00          0.00
   160.77         12.39        920.74          0.00         -0.42          0.50
   160.76         12.39        920.74          0.01         -2.93          0.50
   160.75         12.40        923.25          0.01          2.09          0.50
   160.74         12.40        923.25          0.01          2.09          0.50
