#Written by Robertson Geologging WinLogger V1.0/406
~VERSION INFORMATION
#------------------------------------------------------------------------------
 VERS. 2.0 : CWLS LOG ASCII STANDARD - VERSION 2.0
 WRAP. NO  : ONE LINE PER DEPTH STEP
~WELL INFORMATION
#MNEM.UNIT         DATA                                DESCRIPTION OF MNEMONIC
#------------------------------------------------------------------------------
 STRT.M         44.9500                            :   START DEPTH
 STOP.M        194.0200                            :   STOP DEPTH
 STEP.M          0.0100                            :   STEP VALUE
 NULL.        -999.2500                            :   NULL VALUE
 COMP.    Coal Authority                           :   COMPANY NAME
 WELL.    Thrislington Shaft                       :   WELL NAME
 FLD.     Banks Yard                               :   FIELD NAME
 LOC.     N/A                                      :   LOCATION
 PROV.    N/A                                      :   PROVINCE
 SRVC.    N/A                                      :   SERVICE COMPANY NAME
 DATE.    19 May 08                                :   DATE
 UWI.     N/A                                      :   UNIQUE WELL IDENTIFIER
~PARAMETER INFORMATION
#MNEMO.UNIT         VALUE                 DESCRIPTION OF MNEMONIC
#------------------------------------------------------------------------------
~OTHER INFORMATION SECTION
#------------------------------------------------------------------------------
 TCDS 1365
~CURVE INFORMATION
#MNEMO.UNIT         API CODE              CURVE DESCRIPTION
#------------------------------------------------------------------------------
 DEPTH.M                                 :   0     Depth
 TEMP.DegC                               :   1     Temperature
 COND.uS/cm                              :   2     Absolute Conductivity
 COND.uS/cm                              :   3     Conductivity@25DegC
 DELT.DegC                               :   4     Delta T
 DELC.uS/cm                              :   5     Delta C
#------------------------------------------------------------------------------
~A  DEPTH     TEMP      COND      COND      DELT      DELC      
# ...
   113.59     12.63    940.38   1249.46      0.01     -0.32 
   113.60     12.64    939.48   1248.11      0.00     -0.16 
   113.61     12.63    940.38   1249.46      0.00      0.00 
   113.62     12.63    939.48   1248.43     -0.00     -1.03 
   113.63     12.63    940.38   1249.63     -0.01      1.51 
   113.64     12.62    933.19   1240.39     -0.02     -8.75 
   113.65     12.62    939.48   1248.59     -0.02      0.64 
   113.66     12.62    940.38   1249.95     -0.02     10.35 
   113.67     12.62    940.38   1249.79     -0.00      0.16 
   113.68     12.63    939.48   1248.43      0.00     -1.35 
   113.69     12.62    940.38   1249.95      0.00      1.19 
   113.70     12.63    939.48   1248.27      0.02     -1.84 
   113.71     12.63    940.38   1249.46      0.00      1.03 
   113.72     12.63    940.38   1249.46      0.00     -0.16 
   113.73     12.65    939.48   1247.79      0.02     -1.99 
   113.74     12.63    940.38   1249.46      0.00      1.19 
   113.75     12.63    939.48   1248.27      0.00      8.20 
   113.76     12.63    933.19   1240.07      0.00     -9.55 
   113.77     12.62    939.48   1248.59     -0.02      0.64 
   113.78     12.62    940.38   1249.79     -0.02      0.64 
   113.79     12.63    940.38   1249.63     -0.01      0.48 
   113.80     12.63    939.48   1248.43     -0.01      0.48 
   113.81     12.64    940.38   1249.30      0.00     -0.16 
   113.82     12.64    939.48   1247.95      0.00     -0.16 
   113.83     12.64    940.38   1249.14      0.01     -0.32 
   113.84     12.65    939.48   1247.79      0.00     -0.16 
   113.85     12.64    940.38   1249.30     -0.00      9.71 
   113.86     12.63    940.38   1249.46      0.00      0.00 
   113.87     12.64    939.48   1248.11      0.00     -0.16 
   113.88     12.63    940.38   1249.63      0.01     -0.32 
   113.89     12.64    933.19   1239.75      0.02     -9.00 
   113.90     12.64    939.48   1248.11      0.02     -2.00 
   113.91     12.63    940.38   1249.63      0.00      1.19 
   113.92     12.64    939.48   1248.11      0.00     -1.19 
   113.93     12.64    940.38   1249.30     -0.01      0.32 
   113.94     12.64    940.38   1249.14      0.00      1.03 
   113.95     12.65    940.38   1248.82      0.03     -0.96 
   113.96     12.65    939.48   1247.79      0.02     -0.64 
   113.97     12.64    940.38   1249.14      0.01      9.07 
   113.98     12.65    933.19   1239.44      0.00     -8.51 
   113.99     12.64    948.47   1260.05     -0.00     10.91 
   114.00     12.64    933.19   1239.75      0.01     -9.87 
   114.01     12.64    940.38   1249.30      0.00      1.03 
   114.02     12.63    939.48   1248.27      0.00     -1.19 
   114.03     12.62    940.38   1249.79     -0.01      0.32 
   114.04     12.63    940.38   1249.63     -0.02      0.64 
   114.05     12.62    939.48   1248.59     -0.02      0.64 
   114.06     12.62    940.38   1249.95     -0.02     10.19 
   114.07     12.63    940.38   1249.46     -0.01      0.32 
   114.08     12.63    939.48   1248.27      0.00     -1.19 
   114.09     12.62    933.19   1240.23     -0.01     -8.04 
   114.10     12.63    948.47   1260.21      0.01     10.27 
   114.11     12.63    933.19   1240.07      0.00     -9.71 
   114.12     12.62    940.38   1249.95     -0.00      1.35 
   114.13     12.63    939.48   1248.27      0.01     -1.51 
   114.14     12.62    940.38   1249.79     -0.01      9.87 
   114.15     12.63    939.48   1248.27      0.00    -12.10 
   114.16     12.64    940.38   1249.30      0.01      9.23 
   114.17     12.63    940.38   1249.63     -0.01      0.32 
   114.18     12.63    939.48   1248.27     -0.00     -1.03 
   114.19     12.62    940.38   1249.95     -0.01      1.51 
   114.20     12.62    939.48   1248.59     -0.01     -0.87 
   114.21     12.63    940.38   1249.63      0.00      0.00 
   114.22     12.63    939.48   1248.43     -0.00     -1.03 
   114.23     12.63    933.19   1240.07     -0.02     -7.72 
   114.24     12.63    940.38   1249.63     -0.01     10.03 
   114.25     12.62    939.48   1248.59     -0.01     -0.71 
   114.26     12.62    940.38   1249.95     -0.02      2.00 
   114.27     12.62    939.48   1248.59     -0.01     -0.87 
   114.28     12.63    940.38   1249.63     -0.01      0.32 
   114.29     12.62    940.38   1249.79     -0.01      1.67 
   114.30     12.63    939.48   1248.43     -0.01     -0.87 
   114.31     12.62    940.38   1249.79     -0.01      0.48 
   114.32     12.62    940.38   1249.79     -0.02      1.83 
   114.33     12.64    933.19   1239.75     -0.00     -9.39 
   114.34     12.65    939.48   1247.79      0.00      8.20 
   114.35     12.65    940.38   1248.98      0.01     -0.48 
   114.36     12.64    940.38   1249.14      0.01      0.87 
   114.37     12.63    939.48   1248.27     -0.00     -1.03 
   114.38     12.63    940.38   1249.63     -0.01      0.48 
   114.39     12.64    940.38   1249.30     -0.00      0.16 
   114.40     12.63    940.38   1249.46     -0.01      1.51 
   114.41     12.63    939.48   1248.27     -0.01     -0.87 
   114.42     12.64    940.38   1249.30     -0.00      9.71 
   114.43     12.63    933.19   1240.07     -0.03     -7.40 
   114.44     12.64    940.38   1249.30     -0.01      0.32 
   114.45     12.64    939.48   1247.95     -0.00     -1.03 
   114.46     12.64    940.38   1249.14      0.00      0.00 
   114.47     12.65    940.38   1248.98      0.01      0.71 
   114.48     12.66    939.48   1247.47      0.03     -2.15 
   114.49     12.65    940.38   1248.82      0.03     -1.12 
   114.50     12.65    940.38   1248.98      0.02      0.55 
   114.51     12.65    939.48   1247.79      0.02     -1.83 
   114.52     12.64    940.38   1249.14      0.01      9.23 
   114.53     12.64    933.19   1239.60      0.00     -8.36 
   114.54     12.65    948.47   1259.57      0.01     10.26 
   114.55     12.65    933.19   1239.28      0.01    -10.03 
   114.56     12.64    940.38   1249.14      0.00      1.19 
   114.57     12.65    940.38   1248.98      0.01     -0.32 
   114.58     12.65    939.48   1247.79      0.01     -1.67 
   114.59     12.64    940.38   1249.30      0.00      1.19 
   114.60     12.63    940.38   1249.46      0.00      0.00 
   114.61     12.63    940.38   1249.46      0.00      1.03 
   114.62     12.63    939.48   1248.27      0.00     -1.35 
   114.63     12.64    933.19   1239.75      0.02     -0.64 
   114.64     12.64    940.38   1249.30      0.01      0.71 
   114.65     12.64    939.48   1247.95      0.02     -2.00 
   114.66     12.63    940.38   1249.46      0.01     -0.32 
   114.67     12.63    940.38   1249.46      0.00      1.03 
   114.68     12.65    939.48   1247.79      0.03     -2.16 
   114.69     12.64    940.38   1249.30      0.00      1.03 
   114.70     12.64    940.38   1249.14      0.01     -0.32 
   114.71     12.64    939.48   1248.11      0.00     -1.35 
   114.72     12.62    940.38   1249.79     -0.02      1.99 
   114.73     12.64    940.38   1249.30      0.00     -0.16 
   114.74     12.64    939.48   1248.11      0.00     -0.16 
   114.75     12.64    933.19   1239.75      0.01     -0.32 
   114.76     12.64    939.48   1248.11      0.01     -0.48 
   114.77     12.64    940.38   1249.30      0.01     -0.48 
   114.78     12.63    940.38   1249.46      0.00     -0.16 
   114.79     12.64    939.48   1247.95      0.01     -0.48 
   114.80     12.64    940.38   1249.14      0.00     -0.16 
   114.81     12.64    940.38   1249.30     -0.00      1.35 
   114.82     12.64    939.48   1247.95      0.00     -1.19 
   114.83     12.64    940.38   1249.30     -0.01      1.51 
   114.84     12.64    940.38   1249.30      0.00      0.00 
   114.85     12.64    939.48   1247.95      0.01     -1.51 
   114.86     12.64    933.19   1239.75      0.00     -8.36 
   114.87     12.64    939.48   1248.11      0.01     -1.51 
   114.88     12.63    940.38   1249.46     -0.00      9.71 
   114.89     12.63    940.38   1249.63     -0.01      1.51 
   114.90     12.63    939.48   1248.43      0.00     -1.19 
