#Written by Robertson Geologging WinLogger V1.0/406
~VERSION INFORMATION
#------------------------------------------------------------------------------
 VERS. 2.0 : CWLS LOG ASCII STANDARD - VERSION 2.0
 WRAP. NO  : ONE LINE PER DEPTH STEP
~WELL INFORMATION
#MNEM.UNIT         DATA                                DESCRIPTION OF MNEMONIC
#------------------------------------------------------------------------------
 STRT.M         44.9500                            :   START DEPTH
 STOP.M        194.0200                            :   STOP DEPTH
 STEP.M          0.0100                            :   STEP VALUE
 NULL.        -999.2500                            :   NULL VALUE
 COMP.    Coal Authority                           :   COMPANY NAME
 WELL.    Thrislington Shaft                       :   WELL NAME
 FLD.     Banks Yard                               :   FIELD NAME
 LOC.     N/A                                      :   LOCATION
 PROV.    N/A                                      :   PROVINCE
 SRVC.    N/A                                      :   SERVICE COMPANY NAME
 DATE.    19 May 08                                :   DATE
 UWI.     N/A                                      :   UNIQUE WELL IDENTIFIER
~PARAMETER INFORMATION
#MNEMO.UNIT         VALUE                 DESCRIPTION OF MNEMONIC
#------------------------------------------------------------------------------
~OTHER INFORMATION SECTION
#------------------------------------------------------------------------------
 TCDS 1365
~CURVE INFORMATION
#MNEMO.UNIT         API CODE              CURVE DESCRIPTION
#------------------------------------------------------------------------------
 DEPTH.M                                 :   0     Depth
 TEMP.DegC                               :   1     Temperature
 COND.uS/cm                              :   2     Absolute Conductivity
 COND.uS/cm                              :   3     Conductivity@25DegC
 DELT.DegC                               :   4     Delta T
 DELC.uS/cm                              :   5     Delta C
#------------------------------------------------------------------------------
~A  DEPTH     TEMP      COND      COND      DELT      DELC      
# ...
   143.95     12.63    940.38   1249.63     -0.01      9.87 
   143.96     12.63    940.38   1249.63     -0.01    -10.42 
   143.97     12.64    940.38   1249.14     -0.01      9.87 
   143.98     12.64    939.48   1247.95     -0.02     -0.39 
   143.99     12.65    940.38   1248.82     -0.01      0.48 
   144.00     12.66    933.19   1239.12      0.00     -9.55 
   144.01     12.65    940.38   1248.98     -0.00      0.16 
   144.02     12.64    940.38   1249.14      0.00      0.00 
   144.03     12.64    940.38   1249.14      0.00     -0.16 
   144.04     12.64    939.48   1248.11      0.00      8.36 
   144.05     12.64    940.38   1249.30      0.00      0.00 
   144.06     12.63    940.38   1249.46     -0.01      0.32 
   144.07     12.63    940.38   1249.63     -0.02      1.99 
   144.08     12.62    933.19   1240.39     -0.04     -8.27 
   144.09     12.63    939.48   1248.43     -0.03     -0.07 
   144.10     12.64    940.38   1249.30     -0.02      0.64 
   144.11     12.65    940.38   1248.98      0.00      0.00 
   144.12     12.66    940.38   1248.66      0.01     -0.48 
   144.13     12.65    940.38   1248.98      0.00      1.03 
   144.14     12.64    939.48   1247.95     -0.00      8.51 
   144.15     12.64    940.38   1249.14     -0.01      0.32 
   144.16     12.64    933.19   1239.60     -0.00     -9.39 
   144.17     12.64    940.38   1249.14      0.00     -0.16 
   144.18     12.64    940.38   1249.14      0.00      1.19 
   144.19     12.63    940.38   1249.63     -0.01      0.32 
   144.20     12.63    940.38   1249.46     -0.00      0.16 
   144.21     12.64    939.48   1248.11     -0.01     -0.87 
   144.22     12.65    940.38   1248.98      0.00      1.03 
   144.23     12.66    940.38   1248.50      0.02     -0.64 
   144.24     12.65    933.19   1239.28      0.01     -9.87 
   144.25     12.65    940.38   1248.98      0.01      9.23 
   144.26     12.64    940.38   1249.14      0.01     -0.48 
   144.27     12.64    940.38   1249.14      0.00      1.03 
   144.28     12.63    940.38   1249.63     -0.00      0.16 
   144.29     12.63    940.38   1249.46      0.00      0.00 
   144.30     12.63    939.48   1248.27     -0.01      0.48 
   144.31     12.62    940.38   1249.79     -0.02     -0.39 
   144.32     12.63    933.19   1239.91     -0.02     -7.56 
   144.33     12.63    940.38   1249.63     -0.02      0.80 
   144.34     12.63    940.38   1249.46     -0.01      9.87 
   144.35     12.63    939.48   1248.27      0.00     -1.19 
   144.36     12.64    940.38   1249.30      0.01     -0.32 
   144.37     12.65    940.38   1248.98      0.01     -0.48 
   144.38     12.64    940.38   1249.30      0.01     -0.32 
   144.39     12.65    939.48   1247.79      0.02     -0.64 
   144.40     12.65    940.38   1248.82      0.01     -0.48 
   144.41     12.65    940.38   1248.82      0.01      9.07 
   144.42     12.65    940.38   1248.98      0.00      0.00 
   144.43     12.65    939.48   1247.63      0.01     -1.51 
   144.44     12.65    933.19   1239.44      0.01    -10.03 
   144.45     12.64    940.38   1249.14      0.01     -0.32 
   144.46     12.64    940.38   1249.30      0.01     -0.32 
   144.47     12.63    940.38   1249.63     -0.01      9.87 
   144.48     12.62    939.48   1248.59     -0.01    -11.46 
   144.49     12.63    940.38   1249.63     -0.01      9.87 
   144.50     12.63    940.38   1249.63     -0.00      0.16 
   144.51     12.64    940.38   1249.14      0.01     -0.32 
   144.52     12.64    939.48   1247.95      0.01     -1.51 
   144.53     12.65    933.19   1239.28      0.02    -10.19 
   144.54     12.66    940.38   1248.50      0.03      0.23 
   144.55     12.65    940.38   1248.82      0.01     -0.32 
   144.56     12.65    940.38   1248.98      0.00      9.39 
   144.57     12.64    940.38   1249.30     -0.00      0.16 
   144.58     12.64    939.48   1247.95      0.00     -1.35 
   144.59     12.64    940.38   1249.14      0.01     -0.32 
   144.60     12.65    940.38   1248.82      0.01     -0.48 
   144.61     12.65    933.19   1239.28      0.00     -8.35 
   144.62     12.65    940.38   1248.98     -0.01      0.32 
   144.63     12.64    940.38   1249.30     -0.02     10.19 
   144.64     12.64    939.48   1248.11     -0.01     -0.87 
   144.65     12.64    940.38   1249.30      0.00      0.00 
   144.66     12.64    940.38   1249.30      0.00      0.00 
   144.67     12.64    940.38   1249.30     -0.00      1.35 
   144.68     12.64    940.38   1249.30     -0.01      0.32 
   144.69     12.63    933.19   1240.07     -0.02     -8.91 
   144.70     12.65    948.47   1259.73      0.00     10.74 
   144.71     12.65    933.19   1239.28      0.00     -0.16 
   144.72     12.65    940.38   1248.82      0.01     -0.32 
   144.73     12.66    940.38   1248.66      0.01      0.71 
   144.74     12.65    940.38   1248.98     -0.00      0.16 
   144.75     12.65    940.38   1248.98      0.00     -0.16 
   144.76     12.65    939.48   1247.63      0.00     -1.35 
   144.77     12.66    940.38   1248.66      0.01     -0.32 
   144.78     12.66    940.38   1248.66      0.01      0.87 
   144.79     12.65    933.19   1239.28      0.00     -0.16 
   144.80     12.65    940.38   1248.98     -0.01      0.32 
   144.81     12.64    939.48   1247.95     -0.01     -0.87 
   144.82     12.64    940.38   1249.14     -0.01      0.32 
   144.83     12.63    940.38   1249.46     -0.03      2.15 
   144.84     12.63    940.38   1249.63     -0.03      0.96 
   144.85     12.63    940.38   1249.63     -0.03      0.96 
   144.86     12.62    939.48   1248.75     -0.03     -0.23 
   144.87     12.63    940.38   1249.46     -0.01      9.87 
   144.88     12.63    933.19   1239.91     -0.01    -19.81 
   144.89     12.63    940.38   1249.63     -0.01     10.03 
   144.90     12.63    940.38   1249.46     -0.01      0.32 
   144.91     12.63    940.38   1249.46     -0.00      0.16 
   144.92     12.64    939.48   1248.11      0.01     -0.32 
   144.93     12.65    940.38   1248.98      0.01     -0.48 
   144.94     12.65    940.38   1248.98      0.02     -0.64 
   144.95     12.65    940.38   1248.82      0.02     -0.80 
   144.96     12.65    940.38   1248.98      0.00     -0.16 
   144.97     12.64    933.19   1239.75     -0.00     -8.20 
   144.98     12.65    940.38   1248.98     -0.00      0.16 
   144.99     12.64    939.48   1248.11     -0.02      8.99 
   145.00     12.64    940.38   1249.30     -0.01      0.32 
   145.01     12.65    940.38   1248.82      0.01     -0.32 
   145.02     12.65    940.38   1248.98      0.00     -0.16 
   145.03     12.65    940.38   1248.98      0.01      0.87 
   145.04     12.65    940.38   1248.98      0.01     -0.32 
   145.05     12.63    939.48   1248.27      0.00     -1.19 
   145.06     12.63    940.38   1249.46      0.00     -0.16 
   145.07     12.63    933.19   1239.91      0.01     -0.48 
   145.08     12.64    940.38   1249.30      0.01      0.87 
   145.09     12.63    940.38   1249.46     -0.00      0.16 
   145.10     12.64    939.48   1247.95     -0.00     -1.03 
   145.11     12.64    940.38   1249.14     -0.01      0.48 
   145.12     12.64    940.38   1249.14     -0.00      0.16 
   145.13     12.64    940.38   1249.14      0.00      1.19 
   145.14     12.65    940.38   1248.98      0.00     -0.16 
   145.15     12.65    939.48   1247.63      0.01      8.04 
   145.16     12.65    933.19   1239.28      0.01     -9.87 
   145.17     12.66    940.38   1248.50      0.02     -0.64 
   145.18     12.65    940.38   1248.82      0.02     -0.80 
   145.19     12.65    940.38   1248.98      0.01     -0.48 
   145.20     12.64    940.38   1249.14      0.00      1.03 
   145.21     12.65    939.48   1247.79      0.00     -1.19 
   145.22     12.64    940.38   1249.14     -0.02      0.64 
   145.23     12.65    940.38   1248.98     -0.00      9.71 
   145.24     12.65    933.19   1239.28      0.00     -9.71 
   145.25     12.64    940.38   1249.14      0.00      0.00 
   145.26     12.65    939.48   1247.79      0.00     -1.35 
