#Written by Robertson Geologging WinLogger V1.0/370
~VERSION INFORMATION
#------------------------------------------------------------------------------
 VERS. 2.0 : CWLS LOG ASCII STANDARD - VERSION 2.0
 WRAP. NO  : ONE LINE PER DEPTH STEP
~WELL INFORMATION
#MNEM.UNIT         DATA                                DESCRIPTION OF MNEMONIC
#------------------------------------------------------------------------------
 STRT.M         44.0600                            :   START DEPTH
 STOP.M        195.1500                            :   STOP DEPTH
 STEP.M          0.0100                            :   STEP VALUE
 NULL.        -999.2500                            :   NULL VALUE
 COMP.    WHITE YOUN GREEN                         :   COMPANY NAME
 WELL.    THRISINGTON SHAFT                        :   WELL NAME
 FLD.     THRISINGTON                              :   FIELD NAME
 LOC.     N/A                                      :   LOCATION
 PROV.    N/A                                      :   PROVINCE
 SRVC.    N/A                                      :   SERVICE COMPANY NAME
 DATE.    15 Dec 06                                :   DATE
 UWI.     N/A                                      :   UNIQUE WELL IDENTIFIER
~PARAMETER INFORMATION
#MNEMO.UNIT         VALUE                 DESCRIPTION OF MNEMONIC
#------------------------------------------------------------------------------
~OTHER INFORMATION SECTION
#------------------------------------------------------------------------------
 lLOGGING DOWN
~CURVE INFORMATION
#MNEMO.UNIT         API CODE              CURVE DESCRIPTION
#------------------------------------------------------------------------------
 DEPTH.M                                 :   0     Depth
 TEMP.DegC                               :   1     Temperature
 CN25.mS/cm                              :   2     Conductivity@25DegC
 COND.mS/cm                              :   3     Conductivity
 DELT.DegC                               :   4     Delta T
 DELC.mS/cm                              :   5     Delta C
 NGAM.CPS                                :   6     Natural Gamma
#------------------------------------------------------------------------------
~A  DEPTH     TEMP      CN25      COND      DELT      DELC      NGAM      
# ...
   134.46     12.63      7.82      1.61      0.00     -0.00      0.00 
   134.47     12.63      7.82      1.61      0.00      0.00      0.00 
   134.48     12.63      7.82      1.61      0.00     -0.00      0.00 
   134.49     12.63      7.82      1.61      0.00     -0.00      0.00 
   134.50     12.64      7.82      1.61      0.00      0.00      0.00 
   134.51     12.64      7.81      1.61      0.00     -0.00      0.47 
   134.52     12.63      7.82      1.61      0.00      0.01      0.47 
   134.53     12.63      7.81      1.61     -0.00      0.00      0.47 
   134.54     12.63      7.82      1.61     -0.01      0.01      0.47 
   134.55     12.63      7.82      1.61     -0.01      0.01      0.47 
   134.56     12.63      7.82      1.61     -0.01      0.01      0.47 
   134.57     12.63      7.81      1.61     -0.01      0.01      0.47 
   134.58     12.64      7.81      1.61     -0.00      0.01      0.47 
   134.59     12.64      7.81      1.61     -0.00      0.00      0.47 
   134.60     12.64      7.81      1.61     -0.00      0.01      0.47 
   134.61     12.64      7.81      1.61     -0.00      0.00      0.47 
   134.62     12.64      7.81      1.61      0.00      0.00      0.94 
   134.63     12.64      7.81      1.61      0.00      0.00      0.94 
   134.64     12.64      7.81      1.61      0.00      0.00      0.94 
   134.65     12.64      7.81      1.61      0.00     -0.00      0.94 
   134.66     12.64      7.81      1.61      0.00     -0.00      1.35 
   134.67     12.64      7.81      1.60      0.00     -0.00      1.35 
   134.68     12.64      7.81      1.61      0.00     -0.01      0.88 
   134.69     12.64      7.81      1.61      0.00     -0.00      0.88 
   134.70     12.64      7.81      1.61      0.00     -0.00      0.88 
   134.71     12.64      7.81      1.60      0.00     -0.01      0.88 
   134.72     12.63      7.82      1.61      0.00     -0.00      0.88 
   134.73     12.63      7.81      1.61      0.00     -0.00      0.88 
   134.74     12.63      7.82      1.61      0.00     -0.00      0.88 
   134.75     12.64      7.81      1.60      0.00     -0.01      0.88 
   134.76     12.64      7.81      1.61      0.01     -0.01      0.88 
   134.77     12.64      7.81      1.61      0.01     -0.01      0.88 
   134.78     12.64      7.81      1.61      0.01     -0.01      0.88 
   134.79     12.64      7.81      1.61      0.00     -0.00      0.41 
   134.80     12.64      7.81      1.61      0.00     -0.01      0.41 
   134.81     12.64      7.81      1.61      0.00     -0.00      0.41 
   134.82     12.64      7.81      1.61      0.00     -0.00      0.82 
   134.83     12.64      7.80      1.60      0.00     -0.00      0.41 
   134.84     12.64      7.81      1.61      0.00     -0.00      0.41 
   134.85     12.64      7.81      1.61      0.00     -0.00      0.41 
   134.86     12.64      7.81      1.61      0.00     -0.00      0.41 
   134.87     12.64      7.80      1.61      0.00     -0.00      0.41 
   134.88     12.64      7.80      1.61      0.01     -0.01      0.41 
   134.89     12.64      7.80      1.61      0.01     -0.01      0.41 
   134.90     12.64      7.81      1.61      0.01     -0.01      0.41 
   134.91     12.64      7.81      1.61      0.01     -0.01      0.41 
   134.92     12.64      7.81      1.61      0.01     -0.01      0.41 
   134.93     12.64      7.81      1.60      0.01     -0.01      0.41 
   134.94     12.64      7.81      1.61      0.01     -0.02      0.41 
   134.95     12.64      7.80      1.60      0.01     -0.01      0.41 
   134.96     12.64      7.81      1.61      0.01     -0.02      0.41 
   134.97     12.64      7.80      1.60      0.01     -0.02      0.41 
   134.98     12.64      7.80      1.60      0.01     -0.02      0.82 
   134.99     12.64      7.81      1.61      0.01     -0.01      0.41 
   135.00     12.64      7.81      1.61      0.00     -0.01      0.82 
   135.01     12.64      7.81      1.61      0.00     -0.00      0.82 
   135.02     12.64      7.81      1.61      0.01     -0.01      0.82 
   135.03     12.64      7.81      1.61      0.01     -0.01      0.82 
   135.04     12.64      7.81      1.61      0.01     -0.01      0.82 
   135.05     12.64      7.81      1.60      0.00     -0.00      0.82 
   135.06     12.64      7.81      1.61      0.00     -0.00      0.82 
   135.07     12.64      7.81      1.61      0.00     -0.00      0.82 
   135.08     12.64      7.81      1.61     -0.00     -0.00      0.82 
   135.09     12.64      7.81      1.61     -0.00      0.00      0.82 
   135.10     12.64      7.81      1.61     -0.00      0.00      0.82 
   135.11     12.64      7.81      1.61     -0.00     -0.00      0.82 
   135.12     12.64      7.81      1.61     -0.00     -0.00      0.82 
   135.13     12.64      7.81      1.61     -0.00      0.00      0.82 
   135.14     12.64      7.81      1.61      0.00     -0.00      1.29 
   135.15     12.64      7.81      1.61      0.00     -0.00      0.88 
   135.16     12.64      7.81      1.61      0.01     -0.01      0.88 
   135.17     12.64      7.80      1.60      0.01     -0.01      0.47 
   135.18     12.64      7.80      1.60      0.01     -0.02      0.47 
   135.19     12.64      7.81      1.61      0.01     -0.01      0.47 
   135.20     12.64      7.81      1.61      0.00     -0.01      0.47 
   135.21     12.64      7.81      1.60      0.00     -0.01      0.47 
   135.22     12.64      7.81      1.61      0.00      0.00      0.47 
   135.23     12.64      7.81      1.60     -0.00     -0.00      0.47 
   135.24     12.63      7.81      1.61     -0.01      0.00      0.47 
   135.25     12.63      7.81      1.60     -0.01      0.01      0.47 
   135.26     12.63      7.82      1.61     -0.01      0.01      0.47 
   135.27     12.63      7.82      1.60     -0.01      0.01      0.47 
   135.28     12.63      7.82      1.61     -0.01      0.01      0.47 
   135.29     12.63      7.82      1.61     -0.01      0.02      0.47 
   135.30     12.63      7.81      1.60     -0.01      0.01      0.47 
   135.31     12.63      7.81      1.60     -0.01      0.01      0.00 
   135.32     12.64      7.81      1.60     -0.01      0.01      0.00 
   135.33     12.64      7.81      1.60     -0.01      0.01      0.00 
   135.34     12.64      7.81      1.60     -0.01      0.01      0.00 
   135.35     12.64      7.81      1.60     -0.01      0.00      0.00 
   135.36     12.64      7.81      1.60     -0.01      0.00      0.00 
   135.37     12.64      7.81      1.60     -0.00      0.00      0.00 
   135.38     12.64      7.81      1.60     -0.00      0.00      0.00 
   135.39     12.64      7.81      1.60     -0.00      0.00      0.00 
   135.40     12.64      7.81      1.60     -0.01      0.00      0.00 
   135.41     12.64      7.82      1.61     -0.01      0.00      0.00 
   135.42     12.64      7.81      1.61     -0.00     -0.00      0.00 
   135.43     12.64      7.81      1.61     -0.00     -0.00      0.00 
   135.44     12.64      7.81      1.61      0.00     -0.01      0.00 
   135.45     12.64      7.81      1.61      0.01     -0.01      0.00 
   135.46     12.64      7.81      1.61      0.01     -0.01      0.00 
   135.47     12.64      7.81      1.61      0.01     -0.01      0.00 
   135.48     12.64      7.81      1.61      0.01     -0.01      0.00 
   135.49     12.64      7.81      1.61      0.01     -0.01      0.00 
   135.50     12.64      7.81      1.61      0.01     -0.01      0.00 
   135.51     12.64      7.81      1.61      0.01     -0.01      0.00 
   135.52     12.64      7.81      1.61      0.01     -0.01      0.00 
   135.53     12.64      7.81      1.61      0.01     -0.02      0.00 
   135.54     12.64      7.81      1.61      0.01     -0.01      0.00 
   135.55     12.64      7.81      1.61      0.01     -0.01      0.00 
   135.56     12.64      7.81      1.61      0.01     -0.00      0.00 
   135.57     12.64      7.81      1.61      0.01     -0.01      0.00 
   135.58     12.64      7.80      1.61      0.01     -0.01      0.00 
