#Written by Robertson Geologging WinLogger V1.0/406
~VERSION INFORMATION
#------------------------------------------------------------------------------
 VERS. 2.0 : CWLS LOG ASCII STANDARD - VERSION 2.0
 WRAP. NO  : ONE LINE PER DEPTH STEP
~WELL INFORMATION
#MNEM.UNIT         DATA                                DESCRIPTION OF MNEMONIC
#------------------------------------------------------------------------------
 STRT.M         44.9500                            :   START DEPTH
 STOP.M        194.0200                            :   STOP DEPTH
 STEP.M          0.0100                            :   STEP VALUE
 NULL.        -999.2500                            :   NULL VALUE
 COMP.    Coal Authority                           :   COMPANY NAME
 WELL.    Thrislington Shaft                       :   WELL NAME
 FLD.     Banks Yard                               :   FIELD NAME
 LOC.     N/A                                      :   LOCATION
 PROV.    N/A                                      :   PROVINCE
 SRVC.    N/A                                      :   SERVICE COMPANY NAME
 DATE.    19 May 08                                :   DATE
 UWI.     N/A                                      :   UNIQUE WELL IDENTIFIER
~PARAMETER INFORMATION
#MNEMO.UNIT         VALUE                 DESCRIPTION OF MNEMONIC
#------------------------------------------------------------------------------
~OTHER INFORMATION SECTION
#------------------------------------------------------------------------------
 TCDS 1365
~CURVE INFORMATION
#MNEMO.UNIT         API CODE              CURVE DESCRIPTION
#------------------------------------------------------------------------------
 DEPTH.M                                 :   0     Depth
 TEMP.DegC                               :   1     Temperature
 COND.uS/cm                              :   2     Absolute Conductivity
 COND.uS/cm                              :   3     Conductivity@25DegC
 DELT.DegC                               :   4     Delta T
 DELC.uS/cm                              :   5     Delta C
#------------------------------------------------------------------------------
~A  DEPTH     TEMP      COND      COND      DELT      DELC      
# ...
    54.19     11.82    619.12    840.84      0.01     -0.22 
    54.20     11.82    616.43    837.08      0.01     -0.33 
    54.21     11.82    625.39    849.36     -0.00      8.63 
    54.22     11.81    619.12    841.06      0.00      0.00 
    54.23     11.80    616.43    837.63     -0.00    -12.07 
    54.24     11.79    619.12    841.39     -0.00      0.11 
    54.25     11.79    625.39    849.91     -0.00     12.29 
    54.26     11.81    616.43    837.41      0.01    -13.73 
    54.27     11.80    619.12    841.17      0.01      3.43 
    54.28     11.81    625.39    849.58      0.01      8.19 
    54.29     11.81    619.12    840.95      0.02     -9.08 
    54.30     11.80    616.43    837.52      0.00     -3.76 
    54.31     11.80    616.43    837.52      0.00      0.00 
    54.32     11.79    626.29    851.24     -0.01     10.08 
    54.33     11.79    616.43    837.74     -0.01    -11.84 
    54.34     11.79    619.12    841.50     -0.02      0.44 
    54.35     11.79    616.43    837.74     -0.01      0.33 
    54.36     11.80    626.29    850.91     -0.00      0.11 
    54.37     11.80    616.43    837.63     -0.02      0.44 
    54.38     11.80    619.12    841.17     -0.02      0.44 
    54.39     11.80    616.43    837.52     -0.02    -11.62 
    54.40     11.80    626.29    851.02     -0.02     10.29 
    54.41     11.81    616.43    837.41     -0.02      0.44 
    54.42     11.81    619.12    841.06     -0.00      0.11 
    54.43     11.80    616.43    837.52     -0.01     -3.43 
    54.44     11.81    619.12    841.06      0.00     -8.52 
    54.45     11.81    626.29    850.80      0.00     13.28 
    54.46     11.81    616.43    837.41      0.00     -3.65 
    54.47     11.81    616.43    837.30      0.00     -3.65 
    54.48     11.81    619.12    841.06     -0.01      3.98 
    54.49     11.80    626.29    850.91     -0.01      9.96 
    54.50     11.80    616.43    837.63     -0.00    -12.07 
    54.51     11.79    619.12    841.39     -0.01      0.22 
    54.52     11.79    616.43    837.74     -0.00      0.11 
    54.53     11.80    619.12    841.17     -0.00      0.11 
    54.54     11.80    625.39    849.69     -0.01      0.22 
    54.55     11.80    619.12    841.28     -0.01      3.98 
    54.56     11.81    616.43    837.41      0.00     -3.76 
    54.57     11.80    619.12    841.28      0.00      0.00 
    54.58     11.80    625.39    849.80     -0.00      0.11 
    54.59     11.80    619.12    841.28     -0.01      0.33 
    54.60     11.79    619.12    841.50     -0.02      4.20 
    54.61     11.79    616.43    837.85     -0.03    -11.40 
    54.62     11.80    625.39    849.69     -0.01      8.74 
    54.63     11.81    619.12    841.06      0.00      3.65 
    54.64     11.82    619.12    840.84      0.00     -9.85 
    54.65     11.82    616.43    837.19      0.00     -0.11 
    54.66     11.81    625.39    849.58      0.00      8.52 
    54.67     11.81    619.12    840.95      0.00     -8.63 
    54.68     11.81    616.43    837.30      0.00     -3.65 
    54.69     11.81    619.12    841.06      0.01      3.43 
    54.70     11.81    625.39    849.47      0.00     -0.11 
    54.71     11.81    619.12    840.95      0.00     -0.11 
    54.72     11.80    616.43    837.52      0.00     -0.11 
    54.73     11.81    619.12    841.06      0.00     -8.52 
    54.74     11.80    616.43    837.52     -0.00     -3.54 
    54.75     11.79    619.12    841.39     -0.01      3.87 
    54.76     11.81    625.39    849.58     -0.00      0.11 
    54.77     11.80    619.12    841.28     -0.00      0.11 
    54.78     11.80    616.43    837.63     -0.00      0.11 
    54.79     11.80    619.12    841.28     -0.01      0.33 
    54.80     11.79    625.39    849.91     -0.01      0.33 
    54.81     11.81    616.43    837.41      0.00      0.00 
    54.82     11.81    619.12    841.06      0.00      0.00 
    54.83     11.82    619.12    840.84      0.01     -8.85 
    54.84     11.81    625.39    849.47      0.01      8.30 
    54.85     11.81    616.43    837.30      0.00      0.00 
    54.86     11.82    619.12    840.84      0.00      0.00 
    54.87     11.82    616.43    837.08      0.00    -12.28 
    54.88     11.83    619.12    840.62      0.00      0.00 
    54.89     11.82    625.39    849.25      0.00     12.06 
    54.90     11.82    619.12    840.84      0.00     -8.63 
    54.91     11.81    616.43    837.30      0.01     -3.87 
    54.92     11.81    625.39    849.47      0.02     11.73 
    54.93     11.81    619.12    840.95      0.01     -0.33 
    54.94     11.81    616.43    837.30      0.01    -12.39 
    54.95     11.80    619.12    841.17     -0.01      0.22 
    54.96     11.81    625.39    849.47     -0.01     12.39 
    54.97     11.81    619.12    840.95     -0.01      0.22 
    54.98     11.81    616.43    837.30     -0.00    -12.06 
    54.99     11.81    619.12    840.95      0.00      0.00 
    55.00     11.80    616.43    837.52     -0.01      0.22 
    55.01     11.80    625.39    849.69      0.00      8.52 
    55.02     11.80    619.12    841.17     -0.00     -8.41 
    55.03     11.80    616.43    837.52     -0.00     -3.54 
    55.04     11.80    619.12    841.17     -0.01      3.87 
    55.05     11.80    625.39    849.80     -0.01      8.85 
    55.06     11.80    619.12    841.17     -0.02     -8.08 
    55.07     11.81    616.43    837.41     -0.00     -3.54 
    55.08     11.80    619.12    841.17     -0.01      3.87 
    55.09     11.80    616.43    837.52     -0.02     -3.21 
    55.10     11.80    619.12    841.17     -0.00     -8.41 
    55.11     11.79    625.39    849.91     -0.02      8.97 
    55.12     11.80    616.43    837.52     -0.01      0.22 
    55.13     11.80    619.12    841.28     -0.01     -8.30 
    55.14     11.79    625.39    849.91     -0.01      8.75 
    55.15     11.79    619.12    841.39     -0.01      3.87 
    55.16     11.79    616.43    837.85     -0.01     -3.32 
    55.17     11.80    619.12    841.28     -0.01     -8.19 
    55.18     11.80    616.43    837.63     -0.02     -3.21 
    55.19     11.81    625.39    849.58     -0.01     12.50 
    55.20     11.81    619.12    841.06     -0.01     -8.30 
    55.21     11.81    616.43    837.41      0.00     -3.65 
    55.22     11.81    619.12    840.95      0.01      3.32 
    55.23     11.81    616.43    837.41      0.01     -3.98 
    55.24     11.81    626.29    850.80      0.01      0.88 
    55.25     11.80    616.43    837.52     -0.00      0.11 
    55.26     11.81    619.12    841.06      0.00     -0.11 
    55.27     11.80    616.43    837.52     -0.00    -12.06 
    55.28     11.81    619.12    841.06     -0.00      0.11 
    55.29     11.81    625.39    849.47      0.01     11.95 
    55.30     11.81    619.12    841.06      0.00      3.54 
    55.31     11.81    616.43    837.30      0.02    -13.95 
    55.32     11.81    619.12    840.95      0.02      3.21 
    55.33     11.82    616.43    837.19      0.03     -4.31 
    55.34     11.82    619.12    840.84      0.02      3.10 
    55.35     11.81    625.39    849.47      0.01     -1.44 
    55.36     11.82    619.12    840.84      0.02      3.21 
    55.37     11.80    616.43    837.52      0.00     -3.65 
    55.38     11.81    625.39    849.47      0.01     11.95 
    55.39     11.82    619.12    840.84      0.02    -10.18 
    55.40     11.82    616.43    837.19      0.01     -0.22 
    55.41     11.81    619.12    841.06      0.00      0.00 
    55.42     11.80    616.43    837.63     -0.00      0.11 
    55.43     11.80    619.12    841.28     -0.01      0.22 
    55.44     11.78    625.39    850.14     -0.02     -0.66 
    55.45     11.80    616.43    837.63     -0.01      0.22 
    55.46     11.81    619.12    841.06     -0.00      3.76 
    55.47     11.81    616.43    837.41      0.00     -3.65 
    55.48     11.81    626.29    850.69      0.01     -0.22 
    55.49     11.81    616.43    837.41      0.01     -0.22 
    55.50     11.80    616.43    837.52      0.01     -3.87 
