#Written by Robertson Geologging WinLogger V1.5/410
~VERSION INFORMATION
#------------------------------------------------------------------------------
 VERS. 2.0 : CWLS LOG ASCII STANDARD - VERSION 2.0
 WRAP. NO  : ONE LINE PER DEPTH STEP
~WELL INFORMATION
#MNEM.UNIT         DATA                                DESCRIPTION OF MNEMONIC
#------------------------------------------------------------------------------
 STRT.M         40.0200                            :   START DEPTH
 STOP.M        195.6300                            :   STOP DEPTH
 STEP.M          0.0100                            :   STEP VALUE
 NULL.        -999.2500                            :   NULL VALUE
 COMP.    IWS                                      :   COMPANY NAME
 WELL.    THRISLINGTON                             :   WELL NAME
 FLD.     DURHAM                                   :   FIELD NAME
 LOC.     N/A                                      :   LOCATION
 PROV.    N/A                                      :   PROVINCE
 SRVC.    N/A                                      :   SERVICE COMPANY NAME
 DATE.    16 Dec 09                                :   DATE
 UWI.     N/A                                      :   UNIQUE WELL IDENTIFIER
~PARAMETER INFORMATION
#MNEMO.UNIT         VALUE                 DESCRIPTION OF MNEMONIC
#------------------------------------------------------------------------------
~OTHER INFORMATION SECTION
#------------------------------------------------------------------------------
 TCDS 1365
~CURVE INFORMATION
#MNEMO.UNIT         API CODE              CURVE DESCRIPTION
#------------------------------------------------------------------------------
 DEPTH.M                                 :   0     Depth
 TEMP.DegC                               :   1     Temperature
 COND.uS/cm                              :   2     Conductivity@25DegC
 COND.uS/cm                              :   3     Absolute Conductivity
 DELT.DegC                               :   4     Delta T
 DELC.uS/cm                              :   5     Delta C
#------------------------------------------------------------------------------
~A  DEPTH          TEMP          COND          COND          DELT          DELC
    40.02          0.00          0.00          0.00          0.00          0.00
    40.03          0.00          0.00          0.00          0.00          0.00
    40.04          0.00          0.00          0.00          0.00          0.00
    40.05          0.00          0.00          0.00          0.00          0.00
    40.06          0.00          0.00          0.00          0.00          0.00
    40.07          0.00          0.00          0.00          0.00          0.00
    40.08          0.00          0.00          0.00          0.00          0.00
    40.09          0.00          0.00          0.00          0.00          0.00
    40.10          0.00          0.00          0.00          0.00          0.00
    40.11          0.00          0.00          0.00          0.00          0.00
    40.12          0.00          0.00          0.00          0.00          0.00
    40.13          0.00          0.00          0.00          0.00          0.00
    40.14          0.00          0.00          0.00          0.00          0.00
    40.15          0.00          0.00          0.00          0.00          0.00
    40.16          0.00          0.00          0.00          0.00          0.00
    40.17          0.00          0.00          0.00          0.00          0.00
    40.18          0.00          0.00          0.00          0.00          0.00
    40.19          0.00          0.00          0.00          0.00          0.00
    40.20          0.00          0.00          0.00          0.00          0.00
    40.21          0.00          0.00          0.00          0.00          0.00
    40.22          0.00          0.00          0.00          0.00          0.00
    40.23          0.00          0.00          0.00          0.00          0.00
    40.24          0.00          0.00          0.00          0.00          0.00
    40.25          0.00          0.00          0.00          0.00          0.00
    40.26          0.00          0.00          0.00          0.00          0.00
    40.27          0.00          0.00          0.00          0.00          0.00
    40.28          0.00          0.00          0.00          0.00          0.00
    40.29          0.00          0.00          0.00          0.00          0.00
    40.30          0.00          0.00          0.00          0.00          0.00
    40.31          0.00          0.00          0.00          0.00          0.00
    40.32          0.00          0.00          0.00          0.00          0.00
    40.33          0.00          0.00          0.00          0.00          0.00
    40.34          0.00          0.00          0.00          0.00          0.00
    40.35          0.00          0.00          0.00          0.00          0.00
    40.36          0.00          0.00          0.00          0.00          0.00
    40.37          0.00          0.00          0.00          0.00          0.00
    40.38          0.00          0.00          0.00          0.00          0.00
    40.39          0.00          0.00          0.00          0.00          0.00
    40.40          0.00          0.00          0.00          0.00          0.00
    40.41          0.00          0.00          0.00          0.00          0.00
    40.42          0.00          0.00          0.00          0.00          0.00
    40.43          0.00          0.00          0.00          0.00          0.00
    40.44          0.00          0.00          0.00          0.00          0.00
    40.45          0.00          0.00          0.00          0.00          0.00
    40.46          0.00          0.00          0.00          0.00          0.00
    40.47          0.00          0.00          0.00          0.00          0.00
    40.48          0.00          0.00          0.00          0.00          0.00
    40.49          0.00          0.00          0.00          0.00          0.00
    40.50          0.00          0.00          0.00          0.00          0.00
    40.51          0.00          0.00          0.00          0.00          0.00
    40.52          0.00          0.00          0.00          0.00          0.00
    40.53          0.00          0.00          0.00          0.00          0.00
    40.54          0.00          0.00          0.00          0.00          0.00
    40.55          0.00          0.00          0.00          0.00          0.00
    40.56          0.00          0.00          0.00          0.00          0.00
    40.57          0.00          0.00          0.00          0.00          0.00
    40.58          0.00          0.00          0.00          0.00          0.00
    40.59          0.00          0.00          0.00          0.00          0.00
    40.60          0.00          0.00          0.00          0.00          0.00
    40.61          0.00          0.00          0.00          0.00          0.00
    40.62          0.00          0.00          0.00          0.00          0.00
    40.63          0.00          0.00          0.00          0.00          0.00
    40.64          0.00          0.00          0.00          0.00          0.00
    40.65          0.00          0.00          0.00          0.00          0.00
    40.66          0.00          0.00          0.00          0.00          0.00
    40.67          0.00          0.00          0.00          0.00          0.00
    40.68          0.00          0.00          0.00          0.00          0.00
    40.69          0.00          0.00          0.00          0.00          0.00
    40.70          0.00          0.00          0.00          0.00          0.00
    40.71          0.00          0.00          0.00          0.00          0.00
    40.72          0.00          0.00          0.00          0.00          0.00
    40.73          0.00          0.00          0.00          0.00          0.00
    40.74          0.00          0.00          0.00          0.00          0.00
    40.75          0.00          0.00          0.00          0.00          0.00
    40.76          0.00          0.00          0.00          0.00          0.00
    40.77          0.00          0.00          0.00          0.00          0.00
    40.78          0.00          0.00          0.00          0.00          0.00
    40.79          0.00          0.00          0.00          0.00          0.00
    40.80          0.00          0.00          0.00          0.00          0.00
    40.81          0.00          0.00          0.00          0.00          0.00
    40.82          0.00          0.00          0.00          0.00          0.00
    40.83          0.00          0.00          0.00          0.00          0.00
    40.84          0.00          0.00          0.00          0.00          0.00
    40.85          0.00          0.00          0.00          0.00          0.00
    40.86          0.00          0.00          0.00          0.00          0.00
    40.87          0.00          0.00          0.00          0.00          0.00
    40.88          0.00          0.00          0.00          0.00          0.00
    40.89          0.00          0.00          0.00          0.00          0.00
    40.90          0.00          0.00          0.00          0.00          0.00
    40.91          0.00          0.00          0.00          0.00          0.00
    40.92          0.00          0.00          0.00          0.00          0.00
    40.93          0.00          0.00          0.00          0.00          0.00
    40.94          0.00          0.00          0.00          0.00          0.00
    40.95          0.00          0.00          0.00          0.00          0.00
    40.96          0.00          0.00          0.00          0.00          0.00
    40.97          0.00          0.00          0.00          0.00          0.00
    40.98          0.00          0.00          0.00          0.00          0.00
    40.99          0.00          0.00          0.00          0.00          0.00
    41.00          0.00          0.00          0.00          0.00          0.00
    41.01          0.00          0.00          0.00          0.00          0.00
