#Written by Robertson Geologging WinLogger V1.5/410
~VERSION INFORMATION
#------------------------------------------------------------------------------
 VERS. 2.0 : CWLS LOG ASCII STANDARD - VERSION 2.0
 WRAP. NO  : ONE LINE PER DEPTH STEP
~WELL INFORMATION
#MNEM.UNIT         DATA                                DESCRIPTION OF MNEMONIC
#------------------------------------------------------------------------------
 STRT.M        191.7300                            :   START DEPTH
 STOP.M         42.4500                            :   STOP DEPTH
 STEP.M         -0.0100                            :   STEP VALUE
 NULL.        -999.2500                            :   NULL VALUE
 COMP.    I.W.S.                                   :   COMPANY NAME
 WELL.    THRISLINGTON                             :   WELL NAME
 FLD.     N/A                                      :   FIELD NAME
 LOC.     N/A                                      :   LOCATION
 PROV.    N/A                                      :   PROVINCE
 SRVC.    N/A                                      :   SERVICE COMPANY NAME
 DATE.    14 Nov 11                                :   DATE
 UWI.     N/A                                      :   UNIQUE WELL IDENTIFIER
~PARAMETER INFORMATION
#MNEMO.UNIT         VALUE                 DESCRIPTION OF MNEMONIC
#------------------------------------------------------------------------------
~OTHER INFORMATION SECTION
#------------------------------------------------------------------------------
 1365 LOW
~CURVE INFORMATION
#MNEMO.UNIT         API CODE              CURVE DESCRIPTION
#------------------------------------------------------------------------------
 DEPTH.M                                 :   0     Depth
 TEMP.DegC                               :   1     Temperature
 COND.uS/cm                              :   2     Conductivity
 DELT.DegC                               :   3     Delta T
 DELC.uS/cm                              :   4     Delta C
 NGAM.CPS                                :   5     Natural Gamma
#------------------------------------------------------------------------------
~A  DEPTH          TEMP          COND          DELT          DELC          NGAM
# ...
   122.73         12.38        920.74         -0.00          0.00          1.00
   122.72         12.38        920.74         -0.00          2.51          1.00
   122.71         12.38        920.74         -0.01          2.51          0.50
   122.70         12.38        920.74         -0.01          2.51          0.50
   122.69         12.38        920.74         -0.00         -0.00          0.50
   122.68         12.38        920.74         -0.00         -0.00          0.50
   122.67         12.38        920.74         -0.00         -0.00          0.50
   122.66         12.38        918.22          0.00         -2.51          0.50
   122.65         12.38        918.22          0.00         -2.51          0.50
   122.64         12.38        920.74          0.00          0.00          0.50
   122.63         12.38        920.74          0.00          0.42          1.00
   122.62         12.38        920.32          0.00          0.00          1.00
   122.61         12.38        920.32          0.00         -0.42          1.00
   122.60         12.37        920.32          0.00         -0.42          1.50
   122.59         12.37        920.74         -0.00          0.00          1.50
   122.58         12.37        920.74         -0.01          0.00          1.50
   122.57         12.37        918.22         -0.01         -2.51          1.50
   122.56         12.37        918.22         -0.01         -2.51          1.50
   122.55         12.37        920.74         -0.01          0.00          1.50
   122.54         12.37        920.74         -0.01          0.00          1.50
   122.53         12.37        920.74         -0.01          2.51          1.50
   122.52         12.38        920.74         -0.00          2.51          1.50
   122.51         12.38        920.74         -0.00          2.09          1.50
   122.50         12.38        920.74         -0.00          0.00          1.50
   122.49         12.38        920.74         -0.00          0.00          1.50
   122.48         12.38        920.32         -0.00         -0.42          1.50
   122.47         12.38        917.80         -0.00         -2.93          1.50
   122.46         12.38        920.32         -0.00         -0.42          1.00
   122.45         12.38        920.74         -0.01          0.00          1.00
   122.44         12.38        920.74         -0.01          2.51          1.00
   122.43         12.38        920.74         -0.01          2.51          1.00
   122.42         12.38        920.74         -0.01         -0.00          1.00
   122.41         12.37        920.74         -0.02         -0.00          0.50
   122.40         12.37        920.74         -0.02          0.42          0.50
   122.39         12.37        918.22         -0.02         -2.09          0.50
   122.38         12.37        918.22         -0.02         -2.09          0.50
   122.37         12.38        918.22         -0.02         -2.09          0.50
   122.36         12.38        920.74         -0.02          0.42          0.50
   122.35         12.38        920.74         -0.01          0.42          0.50
   122.34         12.38        920.32         -0.01          2.51          0.50
   122.33         12.38        920.32         -0.01          0.00          0.50
   122.32         12.39        920.32         -0.01          0.00          0.50
   122.31         12.39        920.32         -0.00          0.00          0.50
   122.30         12.39        920.32         -0.00          0.00          0.50
   122.29         12.39        917.80          0.00         -2.51          0.50
   122.28         12.39        920.32          0.01          0.00          0.50
   122.27         12.39        920.32          0.01          0.00          0.50
   122.26         12.39        920.32          0.01          0.00          0.00
   122.25         12.39        920.32          0.01          0.00          0.50
   122.24         12.39        920.32          0.01          2.51          0.50
   122.23         12.39        920.32          0.01          0.00          0.50
   122.22         12.39        920.32          0.00          0.00          0.50
   122.21         12.39        920.32          0.00          0.00          0.50
   122.20         12.39        920.32          0.00          0.00          0.50
   122.19         12.38        917.80         -0.00         -2.51          1.00
   122.18         12.38        920.32         -0.00          0.00          1.50
   122.17         12.38        920.32         -0.00          0.00          1.50
   122.16         12.38        920.32         -0.00          0.00          1.50
   122.15         12.38        920.32         -0.00          0.00          1.50
   122.14         12.38        920.32         -0.01          0.00          1.50
   122.13         12.38        920.32         -0.00          0.00          1.50
   122.12         12.38        920.32         -0.00          0.00          1.50
   122.11         12.38        920.32         -0.01          0.00          1.50
   122.10         12.38        920.32         -0.01          0.00          1.50
   122.09         12.38        917.80         -0.01         -2.51          1.50
   122.08         12.38        920.74         -0.00          0.42          1.00
   122.07         12.38        920.74         -0.00          0.42          1.00
   122.06         12.38        920.74         -0.00          0.42          1.00
   122.05         12.38        920.74         -0.00          0.42          1.00
   122.04         12.38        920.74          0.00          0.42          1.00
   122.03         12.38        920.74          0.01          2.93          1.00
   122.02         12.38        920.74          0.01          0.42          0.50
   122.01         12.38        920.74          0.01          0.42          0.00
   122.00         12.38        918.22          0.01         -2.09          0.00
   121.99         12.38        918.22          0.01         -2.09          0.00
   121.98         12.38        920.74          0.01          0.00          0.00
   121.97         12.38        920.32          0.01         -0.42          0.00
   121.96         12.38        920.32          0.00         -0.42          0.00
   121.95         12.38        920.32          0.00          2.09          0.00
   121.94         12.38        920.32          0.00          2.09          0.00
   121.93         12.38        920.32         -0.00          2.09          0.00
   121.92         12.38        920.32         -0.01         -0.42          0.50
   121.91         12.38        918.22         -0.01         -2.51          0.50
   121.90         12.38        918.22         -0.01         -2.51          0.50
   121.89         12.38        920.74         -0.01         -0.00          0.50
   121.88         12.38        920.74         -0.01         -0.00          0.50
   121.87         12.39        920.74         -0.00          0.42          0.50
   121.86         12.39        920.74          0.00          0.42          0.50
   121.85         12.39        920.74          0.00          2.93          0.50
   121.84         12.39        920.74          0.00          0.42          1.42
   121.83         12.39        920.74          0.00          0.42          1.42
   121.82         12.39        920.74          0.01          0.42          1.42
   121.81         12.39        918.22          0.01         -2.09          1.42
   121.80         12.39        920.32          0.01         -0.42          1.42
   121.79         12.39        920.32          0.01         -0.42          1.42
   121.78         12.39        920.32          0.01         -0.42          1.42
   121.77         12.39        920.32          0.01         -0.42          1.42
   121.76         12.38        920.32          0.00          2.09          1.42
   121.75         12.38        920.74          0.00          2.51          0.92
   121.74         12.38        920.74          0.01         -0.00          0.92
