#Written by Robertson Geologging WinLogger V1.0/370
~VERSION INFORMATION
#------------------------------------------------------------------------------
 VERS. 2.0 : CWLS LOG ASCII STANDARD - VERSION 2.0
 WRAP. NO  : ONE LINE PER DEPTH STEP
~WELL INFORMATION
#MNEM.UNIT         DATA                                DESCRIPTION OF MNEMONIC
#------------------------------------------------------------------------------
 STRT.M         44.0600                            :   START DEPTH
 STOP.M        195.1500                            :   STOP DEPTH
 STEP.M          0.0100                            :   STEP VALUE
 NULL.        -999.2500                            :   NULL VALUE
 COMP.    WHITE YOUN GREEN                         :   COMPANY NAME
 WELL.    THRISINGTON SHAFT                        :   WELL NAME
 FLD.     THRISINGTON                              :   FIELD NAME
 LOC.     N/A                                      :   LOCATION
 PROV.    N/A                                      :   PROVINCE
 SRVC.    N/A                                      :   SERVICE COMPANY NAME
 DATE.    15 Dec 06                                :   DATE
 UWI.     N/A                                      :   UNIQUE WELL IDENTIFIER
~PARAMETER INFORMATION
#MNEMO.UNIT         VALUE                 DESCRIPTION OF MNEMONIC
#------------------------------------------------------------------------------
~OTHER INFORMATION SECTION
#------------------------------------------------------------------------------
 lLOGGING DOWN
~CURVE INFORMATION
#MNEMO.UNIT         API CODE              CURVE DESCRIPTION
#------------------------------------------------------------------------------
 DEPTH.M                                 :   0     Depth
 TEMP.DegC                               :   1     Temperature
 CN25.mS/cm                              :   2     Conductivity@25DegC
 COND.mS/cm                              :   3     Conductivity
 DELT.DegC                               :   4     Delta T
 DELC.mS/cm                              :   5     Delta C
 NGAM.CPS                                :   6     Natural Gamma
#------------------------------------------------------------------------------
~A  DEPTH     TEMP      CN25      COND      DELT      DELC      NGAM      
# ...
    74.57     12.04      7.88      1.20      0.01     -0.01      0.00 
    74.58     12.04      7.88      1.20      0.01     -0.01      0.00 
    74.59     12.04      7.88      1.20      0.01     -0.01      0.00 
    74.60     12.04      7.88      1.20      0.01     -0.01      0.00 
    74.61     12.04      7.89      1.20      0.01     -0.01      0.00 
    74.62     12.03      7.89      1.20      0.01     -0.01      0.00 
    74.63     12.03      7.89      1.20      0.01     -0.02      0.00 
    74.64     12.03      7.89      1.20      0.01     -0.01      0.00 
    74.65     12.03      7.89      1.20      0.01     -0.01      0.00 
    74.66     12.03      7.89      1.20      0.01     -0.01      0.00 
    74.67     12.03      7.89      1.20      0.02     -0.02      0.00 
    74.68     12.04      7.89      1.20      0.01     -0.02      0.00 
    74.69     12.04      7.89      1.20      0.01     -0.01      0.00 
    74.70     12.04      7.89      1.20      0.01     -0.01      0.00 
    74.71     12.04      7.88      1.20      0.01     -0.01      0.00 
    74.72     12.04      7.88      1.20      0.01     -0.02      0.00 
    74.73     12.05      7.88      1.20      0.02     -0.01      0.00 
    74.74     12.05      7.87      1.20      0.02     -0.02      0.00 
    74.75     12.05      7.88      1.20      0.02     -0.02      0.00 
    74.76     12.05      7.87      1.20      0.01     -0.02      0.00 
    74.77     12.04      7.88      1.20      0.01     -0.02      0.00 
    74.78     12.04      7.88      1.20      0.01     -0.01      0.00 
    74.79     12.04      7.89      1.20      0.01     -0.00      0.00 
    74.80     12.04      7.89      1.20      0.00     -0.01      0.00 
    74.81     12.03      7.89      1.20      0.00     -0.00      0.00 
    74.82     12.03      7.89      1.20      0.00      0.00      0.00 
    74.83     12.03      7.89      1.20     -0.00      0.00      0.00 
    74.84     12.03      7.89      1.20     -0.00      0.00      0.00 
    74.85     12.03      7.89      1.20     -0.00      0.01      0.00 
    74.86     12.03      7.90      1.20     -0.00      0.01      0.00 
    74.87     12.03      7.89      1.20      0.00      0.00      0.00 
    74.88     12.03      7.89      1.20      0.00     -0.00      0.00 
    74.89     12.04      7.89      1.20      0.01     -0.01      0.00 
    74.90     12.04      7.88      1.20      0.01     -0.01      0.00 
    74.91     12.04      7.88      1.20      0.01     -0.01      0.00 
    74.92     12.04      7.88      1.20      0.01     -0.02      0.00 
    74.93     12.04      7.88      1.20      0.01     -0.01      0.00 
    74.94     12.04      7.88      1.20      0.01     -0.01      0.00 
    74.95     12.04      7.88      1.20      0.01     -0.01      0.00 
    74.96     12.04      7.88      1.20      0.01     -0.01      0.00 
    74.97     12.04      7.88      1.20      0.01     -0.01      0.00 
    74.98     12.04      7.88      1.20      0.01     -0.01      0.00 
    74.99     12.04      7.88      1.20      0.01     -0.01      0.00 
    75.00     12.04      7.88      1.20      0.01     -0.01      0.00 
    75.01     12.04      7.88      1.20      0.01     -0.01      0.00 
    75.02     12.04      7.88      1.20      0.01     -0.01      0.00 
    75.03     12.04      7.88      1.20      0.01     -0.01      0.00 
    75.04     12.04      7.88      1.20      0.01     -0.02      0.00 
    75.05     12.04      7.88      1.20      0.02     -0.02      0.00 
    75.06     12.04      7.88      1.20      0.01     -0.02      0.00 
    75.07     12.04      7.88      1.20      0.01     -0.01      0.00 
    75.08     12.04      7.89      1.20      0.01     -0.01      0.00 
    75.09     12.03      7.89      1.20     -0.00     -0.00      0.00 
    75.10     12.03      7.89      1.20     -0.00      0.00      0.00 
    75.11     12.03      7.89      1.20     -0.01      0.01      0.00 
    75.12     12.03      7.89      1.20     -0.01      0.01      0.47 
    75.13     12.03      7.89      1.20     -0.01      0.01      0.47 
    75.14     12.03      7.89      1.20     -0.01      0.01      0.47 
    75.15     12.03      7.89      1.20     -0.01      0.00      0.47 
    75.16     12.03      7.89      1.20     -0.01      0.01      0.47 
    75.17     12.03      7.89      1.20     -0.01      0.01      0.47 
    75.18     12.03      7.89      1.20     -0.00      0.00      0.47 
    75.19     12.04      7.88      1.20      0.00     -0.00      0.47 
    75.20     12.04      7.88      1.20      0.01     -0.01      0.47 
    75.21     12.04      7.88      1.20      0.01     -0.01      0.47 
    75.22     12.04      7.88      1.20      0.01     -0.01      0.47 
    75.23     12.04      7.88      1.20      0.01     -0.01      0.47 
    75.24     12.04      7.88      1.20      0.00     -0.00      0.47 
    75.25     12.04      7.88      1.20      0.00     -0.00      0.47 
    75.26     12.04      7.88      1.20     -0.00      0.00      0.47 
    75.27     12.04      7.88      1.20     -0.00     -0.00      0.47 
    75.28     12.04      7.88      1.20     -0.00      0.00      0.47 
    75.29     12.04      7.88      1.20     -0.00      0.00      0.00 
    75.30     12.04      7.88      1.20     -0.01      0.01      0.00 
    75.31     12.04      7.88      1.20     -0.01      0.01      0.00 
    75.32     12.04      7.88      1.20     -0.01      0.01      0.00 
    75.33     12.03      7.89      1.20     -0.01      0.01      0.00 
    75.34     12.03      7.89      1.20     -0.01      0.01      0.00 
    75.35     12.03      7.89      1.20     -0.01      0.01      0.00 
    75.36     12.03      7.88      1.20     -0.01      0.01      0.00 
    75.37     12.04      7.89      1.20     -0.01      0.01      0.00 
    75.38     12.04      7.89      1.20     -0.01      0.01      0.00 
    75.39     12.04      7.89      1.20     -0.00      0.01      0.00 
    75.40     12.04      7.89      1.20     -0.01      0.01      0.00 
    75.41     12.04      7.89      1.20     -0.00      0.00      0.00 
    75.42     12.04      7.89      1.20     -0.00      0.00      0.00 
    75.43     12.04      7.89      1.20     -0.00     -0.00      0.00 
    75.44     12.04      7.88      1.20      0.00     -0.01      0.00 
    75.45     12.04      7.88      1.20      0.01     -0.01      0.00 
    75.46     12.04      7.88      1.20      0.01     -0.00      0.00 
    75.47     12.04      7.88      1.20      0.00     -0.00      0.00 
    75.48     12.04      7.88      1.20      0.00     -0.00      0.00 
    75.49     12.04      7.89      1.20     -0.00      0.00      0.00 
    75.50     12.04      7.89      1.20     -0.00      0.01      0.00 
    75.51     12.04      7.89      1.20     -0.01      0.01      0.00 
    75.52     12.03      7.89      1.20     -0.01      0.01      0.00 
    75.53     12.03      7.89      1.20     -0.01      0.01      0.00 
    75.54     12.03      7.89      1.20     -0.01      0.02      0.00 
    75.55     12.03      7.89      1.20     -0.01      0.02      0.00 
    75.56     12.03      7.90      1.20     -0.02      0.02      0.00 
    75.57     12.03      7.89      1.20     -0.01      0.01      0.00 
    75.58     12.03      7.90      1.20     -0.01      0.02      0.00 
    75.59     12.03      7.89      1.20     -0.01      0.01      0.00 
    75.60     12.03      7.89      1.20     -0.01      0.01      0.00 
    75.61     12.03      7.89      1.20     -0.00      0.00      0.00 
    75.62     12.03      7.90      1.20     -0.00      0.01      0.00 
    75.63     12.03      7.89      1.20     -0.00      0.00      0.00 
    75.64     12.03      7.89      1.20     -0.00     -0.00      0.00 
    75.65     12.03      7.89      1.20     -0.00     -0.00      0.00 
    75.66     12.03      7.89      1.20     -0.00      0.00      0.00 
    75.67     12.03      7.89      1.20     -0.01      0.01      0.47 
    75.68     12.03      7.89      1.20     -0.01      0.01      0.47 
    75.69     12.03      7.90      1.20     -0.01      0.01      0.47 
