#Written by Robertson Geologging WinLogger V1.5/410
~VERSION INFORMATION
#------------------------------------------------------------------------------
 VERS. 2.0 : CWLS LOG ASCII STANDARD - VERSION 2.0
 WRAP. NO  : ONE LINE PER DEPTH STEP
~WELL INFORMATION
#MNEM.UNIT         DATA                                DESCRIPTION OF MNEMONIC
#------------------------------------------------------------------------------
 STRT.M        191.7300                            :   START DEPTH
 STOP.M         42.4500                            :   STOP DEPTH
 STEP.M         -0.0100                            :   STEP VALUE
 NULL.        -999.2500                            :   NULL VALUE
 COMP.    I.W.S.                                   :   COMPANY NAME
 WELL.    THRISLINGTON                             :   WELL NAME
 FLD.     N/A                                      :   FIELD NAME
 LOC.     N/A                                      :   LOCATION
 PROV.    N/A                                      :   PROVINCE
 SRVC.    N/A                                      :   SERVICE COMPANY NAME
 DATE.    14 Nov 11                                :   DATE
 UWI.     N/A                                      :   UNIQUE WELL IDENTIFIER
~PARAMETER INFORMATION
#MNEMO.UNIT         VALUE                 DESCRIPTION OF MNEMONIC
#------------------------------------------------------------------------------
~OTHER INFORMATION SECTION
#------------------------------------------------------------------------------
 1365 LOW
~CURVE INFORMATION
#MNEMO.UNIT         API CODE              CURVE DESCRIPTION
#------------------------------------------------------------------------------
 DEPTH.M                                 :   0     Depth
 TEMP.DegC                               :   1     Temperature
 COND.uS/cm                              :   2     Conductivity
 DELT.DegC                               :   3     Delta T
 DELC.uS/cm                              :   4     Delta C
 NGAM.CPS                                :   5     Natural Gamma
#------------------------------------------------------------------------------
~A  DEPTH          TEMP          COND          DELT          DELC          NGAM
# ...
   142.73         12.39        920.32         -0.01         -0.42          0.50
   142.72         12.39        920.32         -0.01         -0.42          0.50
   142.71         12.39        920.32         -0.01         -0.42          0.50
   142.70         12.39        920.32         -0.01         -2.51          0.50
   142.69         12.39        920.32         -0.01          0.00          0.50
   142.68         12.38        920.32         -0.02          0.00          0.50
   142.67         12.38        920.32         -0.02          0.00          0.50
   142.66         12.38        920.32         -0.02          0.00          0.50
   142.65         12.38        920.74         -0.02          0.42          0.00
   142.64         12.38        920.74         -0.02         -0.00          0.00
   142.63         12.39        920.74         -0.01         -0.00          0.00
   142.62         12.39        920.74         -0.01         -0.00          0.00
   142.61         12.39        920.74         -0.00         -0.00          0.00
   142.60         12.39        920.74         -0.00         -0.00          0.00
   142.59         12.39        920.74          0.00         -0.00          0.00
   142.58         12.39        920.74          0.00         -0.00          0.00
   142.57         12.39        920.74          0.00         -0.00          0.00
   142.56         12.39        920.74          0.00         -0.00          0.00
   142.55         12.39        920.74          0.01         -0.00          0.00
   142.54         12.39        922.83          0.01          2.09          0.00
   142.53         12.39        920.74          0.01          0.42          0.00
   142.52         12.39        920.74          0.01          0.42          0.00
   142.51         12.39        920.74          0.01          0.42          0.00
   142.50         12.39        920.74          0.01          0.42          0.00
   142.49         12.39        920.74          0.01          0.42          0.00
   142.48         12.39        920.74          0.01          0.42          0.00
   142.47         12.39        920.74          0.01         -2.09          0.00
   142.46         12.39        920.74          0.02         -2.09          0.00
   142.45         12.40        920.74          0.02          0.42          0.00
   142.44         12.40        920.74          0.02          0.42          0.00
   142.43         12.40        920.74          0.02          0.42          0.00
   142.42         12.40        922.83          0.01          2.51          0.00
   142.41         12.40        920.32          0.01          0.00          0.00
   142.40         12.40        920.32          0.01          0.00          0.00
   142.39         12.40        920.32          0.01          0.00          0.00
   142.38         12.40        920.32          0.00          0.00          0.00
   142.37         12.39        920.32          0.00         -0.42          0.00
   142.36         12.39        920.32         -0.00         -0.42          0.00
   142.35         12.39        920.74         -0.00         -0.00          0.00
   142.34         12.39        920.74         -0.00          0.00          0.00
   142.33         12.39        920.74         -0.00          0.00          0.00
   142.32         12.39        920.74         -0.00          0.00          0.00
   142.31         12.39        920.74         -0.00          0.00          0.00
   142.30         12.39        920.74          0.00          0.00          0.00
   142.29         12.40        920.74          0.00          0.00          0.00
   142.28         12.40        920.74          0.00          0.00          0.00
   142.27         12.40        920.74          0.00          0.00          0.00
   142.26         12.40        920.74          0.00          0.42          0.00
   142.25         12.40        920.74         -0.00          0.84          0.00
   142.24         12.40        920.32         -0.00         -0.00          0.00
   142.23         12.40        920.32         -0.00         -2.51          0.00
   142.22         12.40        920.32         -0.00         -0.00          0.00
   142.21         12.40        920.32         -0.01         -0.00          0.00
   142.20         12.40        920.32         -0.01         -0.00          0.00
   142.19         12.39        922.83         -0.01          2.51          0.00
   142.18         12.39        922.83         -0.01          2.51          0.00
   142.17         12.39        920.32         -0.01         -0.00          0.00
   142.16         12.39        920.32         -0.01         -0.00          0.00
   142.15         12.39        920.32         -0.01         -0.00          0.00
   142.14         12.38        920.32         -0.01         -0.42          0.00
   142.13         12.38        920.32         -0.01          0.00          0.00
   142.12         12.38        920.32         -0.00          0.00          0.00
   142.11         12.38        920.32         -0.00         -2.51          0.00
   142.10         12.38        920.32         -0.00         -2.51          0.00
   142.09         12.38        920.74         -0.01          0.42          0.00
   142.08         12.39        920.74         -0.00          0.42          0.00
   142.07         12.39        920.74         -0.00          0.42          0.00
   142.06         12.39        920.74          0.00          0.42          0.00
   142.05         12.39        920.74          0.00          0.42          0.50
   142.04         12.39        920.74          0.00          0.42          0.50
   142.03         12.40        920.74          0.00          0.42          0.50
   142.02         12.40        920.74          0.00          0.00          0.50
   142.01         12.40        920.74          0.00          0.00          0.50
   142.00         12.40        920.74          0.00          0.00          0.50
   141.99         12.40        920.74          0.00          0.00          0.50
   141.98         12.40        920.32          0.00         -0.42          0.50
   141.97         12.40        920.32          0.00         -0.42          1.00
   141.96         12.40        920.32          0.00         -0.42          1.00
   141.95         12.40        922.83         -0.00          2.09          1.00
   141.94         12.40        922.83         -0.01          2.09          1.00
   141.93         12.40        920.32         -0.01         -0.42          1.00
   141.92         12.40        920.32         -0.01         -0.42          1.00
   141.91         12.40        920.32         -0.01          0.00          1.50
   141.90         12.40        920.32         -0.00         -0.42          1.50
   141.89         12.40        920.32         -0.00         -0.42          1.50
   141.88         12.39        920.32         -0.00         -0.42          1.00
   141.87         12.39        920.32         -0.01         -0.42          1.50
   141.86         12.39        920.32         -0.01         -0.42          1.50
   141.85         12.39        920.32         -0.01         -0.42          1.50
   141.84         12.39        920.32         -0.01         -0.42          1.50
   141.83         12.39        920.32         -0.01         -0.42          2.00
   141.82         12.39        920.74         -0.01         -0.00          2.00
   141.81         12.39        920.74         -0.01         -0.00          2.00
   141.80         12.39        920.74         -0.00         -0.00          1.50
   141.79         12.39        920.74         -0.00          0.42          1.50
   141.78         12.39        920.74         -0.00          0.42          1.50
   141.77         12.39        920.74          0.00          0.42          1.50
   141.76         12.40        920.74          0.01         -2.09          1.50
   141.75         12.40        920.74          0.01          0.42          1.50
   141.74         12.40        920.74          0.01         -0.00          1.00
