#Written by Robertson Geologging WinLogger V1.5/410
~VERSION INFORMATION
#------------------------------------------------------------------------------
 VERS. 2.0 : CWLS LOG ASCII STANDARD - VERSION 2.0
 WRAP. NO  : ONE LINE PER DEPTH STEP
~WELL INFORMATION
#MNEM.UNIT         DATA                                DESCRIPTION OF MNEMONIC
#------------------------------------------------------------------------------
 STRT.M         25.0100                            :   START DEPTH
 STOP.M        192.0000                            :   STOP DEPTH
 STEP.M          0.0100                            :   STEP VALUE
 NULL.        -999.2500                            :   NULL VALUE
 COMP.    IWS                                      :   COMPANY NAME
 WELL.    Thristlington                            :   WELL NAME
 FLD.     N/A                                      :   FIELD NAME
 LOC.     N/A                                      :   LOCATION
 PROV.    N/A                                      :   PROVINCE
 SRVC.    N/A                                      :   SERVICE COMPANY NAME
 DATE.    01 Feb 11                                :   DATE
 UWI.     N/A                                      :   UNIQUE WELL IDENTIFIER
~PARAMETER INFORMATION
#MNEMO.UNIT         VALUE                 DESCRIPTION OF MNEMONIC
#------------------------------------------------------------------------------
~OTHER INFORMATION SECTION
#------------------------------------------------------------------------------
 1365
~CURVE INFORMATION
#MNEMO.UNIT         API CODE              CURVE DESCRIPTION
#------------------------------------------------------------------------------
 DEPTH.M                                 :   0     Depth
 TEMP.DegC                               :   1     Temperature
 CN25.uS/cm                              :   2     Conductivity@25DegC
 DELT.DegC                               :   3     Delta T
 DELC.uS/cm                              :   4     Delta C
#------------------------------------------------------------------------------
~A  DEPTH          TEMP          CN25          DELT          DELC
# ...
    68.93         12.15       1179.46          0.01         -0.21
    68.94         12.15       1177.78          0.01         -0.78
    68.95         12.15       1177.78          0.01         -1.36
    68.96         12.15       1181.71          0.01          2.59
    68.97         12.15       1181.73          0.01          2.62
    68.98         12.15       1181.75          0.00          0.41
    68.99         12.15       1178.98          0.00          1.58
    69.00         12.15       1177.87          0.00         -1.26
    69.01         12.15       1179.57          0.00          1.55
    69.02         12.15       1181.83          0.00          3.82
    69.03         12.15       1177.85          0.00         -4.06
    69.04         12.15       1177.87          0.00         -0.06
    69.05         12.15       1181.80         -0.00          3.96
    69.06         12.15       1180.66         -0.00         -2.21
    69.07         12.15       1179.53         -0.00          0.65
    69.08         12.15       1177.26         -0.00         -3.83
    69.09         12.15       1180.64         -0.00          3.52
    69.10         12.15       1180.67         -0.01          1.88
    69.11         12.15       1178.43         -0.01         -2.62
    69.12         12.15       1180.70         -0.01          3.60
    69.13         12.14       1178.47         -0.01         -3.76
    69.14         12.14       1180.16         -0.00          0.71
    69.15         12.14       1182.43         -0.00          1.27
    69.16         12.14       1178.51         -0.00         -1.01
    69.17         12.14       1179.66         -0.00          2.38
    69.18         12.14       1178.54         -0.00         -1.56
    69.19         12.14       1183.07         -0.00          5.19
    69.20         12.14       1179.70         -0.00         -3.28
    69.21         12.14       1182.49         -0.00         -0.51
    69.22         12.14       1182.49         -0.00          1.72
    69.23         12.14       1178.59         -0.00         -2.20
    69.24         12.14       1178.60         -0.00         -0.48
    69.25         12.14       1179.81         -0.00          0.16
    69.26         12.14       1178.73         -0.01          0.76
    69.27         12.14       1182.66         -0.01          0.76
    69.28         12.14       1180.40         -0.01         -0.38
    69.29         12.14       1181.49         -0.00         -0.45
    69.30         12.14       1179.21         -0.00         -2.75
    69.31         12.14       1177.50         -0.00          0.62
    69.32         12.14       1178.64         -0.00         -0.46
    69.33         12.14       1180.91         -0.01          3.55
    69.34         12.14       1182.57         -0.00          3.53
    69.35         12.14       1183.69         -0.00          4.64
    69.36         12.14       1182.52         -0.00          5.15
    69.37         12.14       1181.32          0.00         -0.00
    69.38         12.14       1180.19          0.00          1.13
    69.39         12.14       1179.58          0.00          2.23
    69.40         12.15       1179.57          0.00          1.08
    69.41         12.15       1179.57          0.00          1.08
    69.42         12.15       1181.26          0.00         -0.03
    69.43         12.15       1182.39          0.00          3.34
    69.44         12.15       1178.44          0.00         -2.30
    69.45         12.14       1178.47         -0.00         -0.55
    69.46         12.14       1179.61         -0.00          0.61
    69.47         12.14       1179.64         -0.00          0.65
    69.48         12.14       1180.84         -0.00          5.78
    69.49         12.14       1180.90         -0.01          5.84
    69.50         12.14       1179.81         -0.01          4.72
    69.51         12.14       1180.98         -0.01          5.87
    69.52         12.14       1181.01         -0.01          5.85
    69.53         12.14       1180.98         -0.00          8.60
    69.54         12.14       1179.83         -0.00          7.39
    69.55         12.14       1179.78          0.00          5.05
    69.56         12.14       1179.71          0.00          1.00
    69.57         12.14       1177.46          0.01          3.78
    69.58         12.14       1179.70          0.00          4.37
    69.59         12.14       1180.83          0.00          1.61
    69.60         12.14       1179.70          0.00          0.49
    69.61         12.14       1179.73          0.00          0.56
    69.62         12.14       1177.50         -0.00         -1.62
    69.63         12.14       1179.73         -0.00          0.65
    69.64         12.14       1179.71         -0.00          0.68
    69.65         12.14       1179.68         -0.00         -1.55
    69.66         12.14       1181.36         -0.00          2.40
    69.67         12.14       1181.38         -0.01          4.69
    69.68         12.14       1183.59         -0.01          3.00
    69.69         12.14       1179.61         -0.01         -0.96
    69.70         12.15       1177.30         -0.00          0.68
    69.71         12.15       1177.26         -0.00         -1.58
    69.72         12.15       1181.16         -0.00         -1.56
    69.73         12.15       1181.08         -0.00          1.78
    69.74         12.15       1181.03         -0.00          3.48
    69.75         12.15       1180.99         -0.00          1.76
    69.76         12.15       1177.05         -0.00         -3.30
    69.77         12.15       1180.43         -0.00          1.79
    69.78         12.15       1180.41         -0.00         -0.48
    69.79         12.15       1176.48         -0.00         -2.14
    69.80         12.15       1180.44         -0.00          3.50
    69.81         12.15       1178.79         -0.00         -2.10
    69.82         12.15       1181.08         -0.01          2.43
    69.83         12.15       1179.98         -0.00          1.27
    69.84         12.15       1178.32         -0.00          1.24
    69.85         12.15       1178.36         -0.00         -0.46
    69.86         12.15       1178.43         -0.00         -0.41
    69.87         12.14       1178.49         -0.01          1.90
    69.88         12.14       1178.59         -0.01         -3.07
    69.89         12.14       1176.96         -0.01         -0.74
    69.90         12.14       1178.73         -0.01          1.00
    69.91         12.14       1178.77         -0.01         -2.93
    69.92         12.14       1180.46         -0.01          1.01
    69.93         12.14       1180.45         -0.01          2.67
    69.94         12.14       1177.59         -0.01         -0.19
    69.95         12.14       1179.28         -0.01         -2.43
    69.96         12.14       1176.99         -0.01         -4.73
    69.97         12.14       1179.25         -0.01         -2.51
    69.98         12.14       1183.17         -0.01          4.19
    69.99         12.14       1179.68         -0.00          1.82
    70.00         12.14       1179.63         -0.00          0.06
    70.01         12.15       1179.53          0.00         -2.30
    70.02         12.15       1179.47          0.00          1.62
    70.03         12.15       1179.43          0.00          1.56
    70.04         12.15       1177.13          0.00         -4.67
    70.05         12.15       1179.96          0.00         -0.69
    70.06         12.15       1179.98          0.00          0.45
    70.07         12.15       1182.25          0.00          4.99
    70.08         12.15       1178.26          0.00         -2.38
    70.09         12.15       1179.34          0.01         -1.33
    70.10         12.15       1179.30          0.01          0.87
    70.11         12.15       1179.26          0.01         -1.44
    70.12         12.15       1181.53          0.01          3.05
    70.13         12.15       1179.27          0.01         -0.89
    70.14         12.15       1181.54          0.01         -0.89
