#Written by Robertson Geologging WinLogger V1.0/311
~VERSION INFORMATION
#------------------------------------------------------------------------------
 VERS. 2.0 : CWLS LOG ASCII STANDARD - VERSION 2.0
 WRAP. NO  : ONE LINE PER DEPTH STEP
~WELL INFORMATION
#MNEM.UNIT         DATA                                DESCRIPTION OF MNEMONIC
#------------------------------------------------------------------------------
 STRT.M        146.1000                            :   START DEPTH
 STOP.M        425.1000                            :   STOP DEPTH
 STEP.M          0.1000                            :   STEP VALUE
 NULL.        -999.2500                            :   NULL VALUE
 COMP.    IMC                                      :   COMPANY NAME
 WELL.    HAWTHORN SHAFT                           :   WELL NAME
 FLD.     HAWTHORN                                 :   FIELD NAME
 LOC.     N/A                                      :   LOCATION
 PROV.    N/A                                      :   PROVINCE
 SRVC.    N/A                                      :   SERVICE COMPANY NAME
 DATE.    03 Oct 03                                :   DATE
 UWI.     N/A                                      :   UNIQUE WELL IDENTIFIER
~PARAMETER INFORMATION
#MNEMO.UNIT         VALUE                 DESCRIPTION OF MNEMONIC
#------------------------------------------------------------------------------
~OTHER INFORMATION SECTION
#------------------------------------------------------------------------------
 TCDS 2822
~CURVE INFORMATION
#MNEMO.UNIT         API CODE              CURVE DESCRIPTION
#------------------------------------------------------------------------------
 DEPTH.M                                 :   0     Depth
 TEMP.DegC                               :   1     Temperature
 COND.uS/cm                              :   2     Conductivity
 DELT.DegC                               :   3     Delta T
 DELC.uS/cm                              :   4     Delta C
 NGAM.API                                :   5     Natural Gamma
#------------------------------------------------------------------------------
~A  DEPTH     TEMP      COND      DELT      DELC      NGAM      
# ...
   344.10     17.58  48934.94      0.01    -13.50      3.65 
   344.20     17.58  48931.92      0.01    -14.26      3.24 
   344.30     17.57  48929.97     -0.00    -13.93      2.76 
   344.40     17.58  48928.14      0.01    -14.47      3.59 
   344.50     17.59  48925.87      0.01    -15.01      3.29 
   344.60     17.58  48925.98      0.01    -13.50      2.00 
   344.70     17.58  48923.93      0.00    -14.91      2.41 
   344.80     17.57  48923.49      0.00    -14.26      1.53 
   344.90     17.59  48921.98      0.01    -14.91      1.59 
   345.00     17.58  48920.69     -0.01    -14.15      1.65 
   345.10     17.58  48919.93      0.00    -14.26      2.88 
   345.20     17.59  48919.82      0.00    -11.34      3.65 
   345.30     17.59  48919.28      0.01    -10.69      3.53 
   345.40     17.58  48917.88      0.00     -9.50      3.18 
   345.50     17.59  48915.83      0.01    -10.37      2.88 
   345.60     17.59  48914.31      0.00    -11.66      2.41 
   345.70     17.58  48913.67     -0.00    -10.26      2.06 
   345.80     17.58  48913.56      0.01    -10.69      2.82 
   345.90     17.57  48912.26     -0.02     -9.40      3.71 
   346.00     17.58  48909.99      0.01    -11.45      3.53 
   346.10     17.59  48909.67      0.00    -10.26      2.35 
   346.20     17.59  48910.53     -0.00     -9.07      2.29 
   346.30     17.58  48910.53     -0.00     -7.78      2.18 
   346.40     17.57  48909.99     -0.01     -7.13      3.18 
   346.50     17.58  48909.13     -0.01     -6.70      3.94 
   346.60     17.59  48909.13     -0.00     -5.08      5.18 
   346.70     17.58  48908.48      0.00     -5.08      4.06 
   346.80     17.58  48907.73     -0.00     -5.08      3.94 
   346.90     17.58  48906.97      0.01     -4.54      2.71 
   347.00     17.58  48905.57     -0.00     -4.43      3.82 
   347.10     17.57  48905.35     -0.01     -5.08      4.35 
   347.20     17.57  48904.81     -0.01     -5.72      3.12 
   347.30     17.58  48904.59     -0.00     -5.08      2.35 
   347.40     17.58  48904.70      0.00     -4.43      5.59 
   347.50     17.58  48906.75      0.00     -2.27      4.71 
   347.60     17.59  48906.11      0.01     -2.27      2.24 
   347.70     17.59  48906.11      0.01     -2.48      2.71 
   347.80     17.58  48906.11      0.00     -0.86      4.18 
   347.90     17.59  48904.70      0.01     -1.51      4.29 
   348.00     17.58  48903.95      0.00     -1.51      2.00 
   348.10     17.59  48904.05      0.01     -1.30      4.00 
   348.20     17.59  48904.05      0.02     -0.00      2.71 
   348.30     17.59  48902.43      0.01     -2.05      1.59 
   348.40     17.59  48903.41      0.01     -2.05      4.00 
   348.50     17.59  48903.30      0.01     -3.46      3.24 
   348.60     17.59  48904.05      0.00     -2.05      2.35 
   348.70     17.58  48904.05      0.00     -2.81      2.41 
   348.80     17.58  48903.30      0.00     -2.81      2.06 
   348.90     17.59  48904.05     -0.00     -0.65      3.24 
   349.00     17.59  48903.30      0.00     -0.65      3.65 
   349.10     17.59  48902.33      0.01     -0.97      2.41 
   349.20     17.58  48903.41     -0.01      0.22      3.29 
   349.30     17.59  48904.81     -0.01      2.38      4.47 
   349.40     17.59  48905.57      0.01      1.40      3.94 
   349.50     17.60  48904.70      0.00     -0.11      1.94 
   349.60     17.60  48904.59      0.00     -0.22      2.29 
   349.70     17.59  48905.46      0.01      1.40      3.82 
   349.80     17.59  48905.46      0.00      1.40      3.88 
   349.90     17.59  48903.84      0.01     -0.22      1.59 
   350.00     17.59  48904.49     -0.00      1.94      2.35 
   350.10     17.59  48903.95      0.00      1.62      3.12 
   350.20     17.60  48904.81      0.02      1.40      1.53 
   350.30     17.60  48905.57      0.01      0.76      1.12 
   350.40     17.59  48904.70     -0.01     -1.62      2.71 
   350.50     17.58  48904.59     -0.01     -0.86      3.88 
   350.60     17.58  48903.30     -0.01     -1.30      2.71 
   350.70     17.59  48903.19     -0.01     -1.62      2.65 
   350.80     17.59  48902.43      0.00     -3.02      3.59 
   350.90     17.60  48903.08      0.01     -1.40      3.65 
   351.00     17.59  48904.16      0.01     -0.32      2.35 
   351.10     17.59  48905.35     -0.01      1.40      3.29 
   351.20     17.60  48907.51     -0.00      2.70      4.00 
   351.30     17.59  48906.86     -0.01      1.30      3.59 
   351.40     17.59  48906.97      0.01      2.27      2.00 
   351.50     17.60  48906.97      0.02      3.02      2.71 
   351.60     17.59  48906.97      0.01      2.92      3.88 
   351.70     17.58  48906.75     -0.01      2.70      3.59 
   351.80     17.60  48907.40      0.01      4.97      4.29 
   351.90     17.59  48908.16     -0.01      4.21      4.65 
   352.00     17.59  48908.70     -0.00      4.54      2.29 
   352.10     17.59  48909.45      0.00      3.35      4.35 
   352.20     17.61  48909.56      0.01      2.70      4.29 
   352.30     17.59  48909.45      0.00      2.48      4.53 
   352.40     17.60  48908.81      0.01      1.84      6.76 
   352.50     17.60  48908.37     -0.00      1.40      6.12 
   352.60     17.60  48908.27      0.01      1.19      3.94 
   352.70     17.59  48908.27      0.00      0.76      3.59 
   352.80     17.59  48907.51     -0.01     -0.00      3.18 
   352.90     17.59  48908.37     -0.00      0.86      4.65 
   353.00     17.61  48907.62      0.02     -1.19      3.71 
   353.10     17.60  48908.05      0.01     -2.05      2.59 
   353.20     17.61  48909.35      0.00     -0.11      2.24 
   353.30     17.60  48909.45      0.01      0.00      4.94 
   353.40     17.61  48910.21      0.01      1.40      3.88 
   353.50     17.60  48910.21     -0.00      1.19      2.18 
   353.60     17.60  48909.45      0.00      1.30      4.12 
   353.70     17.59  48909.13      0.01      0.86      3.06 
   353.80     17.60  48908.27      0.00      0.76      1.47 
   353.90     17.59  48909.02     -0.01      0.65      2.53 
   354.00     17.60  48908.37     -0.01      0.65      4.47 
   354.10     17.61  48907.73      0.01     -0.32      3.82 
   354.20     17.60  48908.27     -0.00     -1.08      3.00 
   354.30     17.60  48908.16     -0.00     -0.65      2.65 
   354.40     17.59  48909.45     -0.02     -0.76      1.12 
   354.50     17.59  48909.56     -0.01      0.65      0.82 
   354.60     17.60  48909.56      0.00      0.76      0.76 
   354.70     17.58  48908.91     -0.01     -0.22      1.59 
   354.80     17.60  48909.78      0.01      0.76      3.94 
   354.90     17.60  48909.02      0.02      0.11      4.65 
   355.00     17.60  48908.27      0.00      0.00      3.06 
   355.10     17.60  48908.81     -0.00      0.32      1.94 
   355.20     17.61  48910.32      0.00      2.05      0.71 
   355.30     17.60  48910.97      0.01      2.92      0.35 
   355.40     17.59  48910.97     -0.01      1.51      1.53 
   355.50     17.60  48911.94      0.00      2.38      1.94 
   355.60     17.59  48912.48     -0.01      3.67      1.53 
   355.70     17.61  48911.94      0.02      3.02      2.59 
   355.80     17.60  48910.86     -0.00      1.84      3.82 
   355.90     17.60  48911.18     -0.00      2.27      2.29 
   356.00     17.61  48910.53      0.01      2.27      2.35 
   356.10     17.59  48911.07     -0.02      1.51      3.82 
   356.20     17.60  48910.21     -0.01     -0.22      3.41 
   356.30     17.59  48909.67     -0.01     -1.84      4.94 
   356.40     17.60  48909.67      0.01     -2.05      3.82 
   356.50     17.60  48909.56      0.01     -2.38      2.41 
   356.60     17.61  48911.07      0.02     -0.65      1.53 
   356.70     17.60  48910.86     -0.01     -0.54      1.59 
   356.80     17.60  48910.97     -0.00     -0.11      1.94 
   356.90     17.59  48910.32     -0.01     -0.86      2.71 
   357.00     17.59  48910.10     -0.01     -0.22      3.06 
   357.10     17.60  48909.56      0.01     -1.51      2.65 
   357.20     17.61  48908.91      0.01     -0.65      1.59 
