#Written by Robertson Geologging WinLogger V1.0/406
~VERSION INFORMATION
#------------------------------------------------------------------------------
 VERS. 2.0 : CWLS LOG ASCII STANDARD - VERSION 2.0
 WRAP. NO  : ONE LINE PER DEPTH STEP
~WELL INFORMATION
#MNEM.UNIT         DATA                                DESCRIPTION OF MNEMONIC
#------------------------------------------------------------------------------
 STRT.M        115.9300                            :   START DEPTH
 STOP.M        440.0000                            :   STOP DEPTH
 STEP.M          0.0100                            :   STEP VALUE
 NULL.        -999.2500                            :   NULL VALUE
 COMP.    Coal Authority                           :   COMPANY NAME
 WELL.    Hawthorn Shaft                           :   WELL NAME
 FLD.     Hawthorn                                 :   FIELD NAME
 LOC.     N/A                                      :   LOCATION
 PROV.    N/A                                      :   PROVINCE
 SRVC.    N/A                                      :   SERVICE COMPANY NAME
 DATE.    28 Aug 08                                :   DATE
 UWI.     N/A                                      :   UNIQUE WELL IDENTIFIER
~PARAMETER INFORMATION
#MNEMO.UNIT         VALUE                 DESCRIPTION OF MNEMONIC
#------------------------------------------------------------------------------
~OTHER INFORMATION SECTION
#------------------------------------------------------------------------------
 TCGS 1365
 Logged in low conductivity mode as starting readings were so low.
~CURVE INFORMATION
#MNEMO.UNIT         API CODE              CURVE DESCRIPTION
#------------------------------------------------------------------------------
 DEPTH.M                                 :   0     Depth
 TEMP.DegC                               :   1     Temperature
 CN25.uS/cm                              :   2     Conductivity@25DegC
 DELT.DegC                               :   3     Delta T
 DELC.uS/cm                              :   4     Delta C
 NGAM.CPS                                :   5     Natural Gamma
 COND.uS/cm                              :   6     Conductivity
#------------------------------------------------------------------------------
~A  DEPTH     TEMP      CN25      DELT      DELC      NGAM      COND      
# ...
   180.34     12.98   1579.53     -0.00      4.95      0.00   1195.88 
   180.35     12.99   1574.59      0.00      0.00      0.00   1192.28 
   180.36     12.98   1583.09     -0.00      0.21      0.00   1198.58 
   180.37     12.98   1574.79      0.00      0.00      7.00   1192.28 
   180.38     12.98   1574.79     -0.01     -4.13      0.00   1192.28 
   180.39     12.99   1579.12     -0.01      0.41      0.00   1195.88 
   180.40     13.00   1582.47      0.00      3.35      0.00   1198.58 
   180.41     13.00   1574.18      0.00     -0.20      0.00   1192.28 
   180.42     12.99   1574.38      0.00     -0.20      0.00   1192.28 
   180.43     12.99   1579.12      0.01     -3.97      0.00   1195.88 
   180.44     13.00   1582.47      0.01      7.89      0.00   1198.58 
   180.45     12.99   1574.38      0.01     -8.71      0.00   1192.28 
   180.46     13.00   1574.18      0.02     -1.02      0.00   1192.28 
   180.47     12.99   1582.88      0.01      7.89      0.00   1198.58 
   180.48     12.98   1574.79      0.01     -8.92      0.00   1192.28 
   180.49     12.98   1579.53      0.01      4.33      0.00   1195.88 
   180.50     12.99   1574.38      0.01     -5.36      0.00   1192.28 
   180.51     12.99   1582.68      0.02      7.48      0.00   1198.58 
   180.52     13.00   1574.18      0.02     -9.32      0.00   1192.28 
   180.53     13.00   1582.47      0.02      7.27      0.00   1198.58 
   180.54     12.99   1568.66      0.01     -6.54      0.00   1187.78 
   180.55     12.99   1582.68      0.02      2.74      0.00   1198.58 
   180.56     12.98   1574.79      0.00     -8.50      0.00   1192.28 
   180.57     12.98   1583.09     -0.00      8.50      0.00   1198.58 
   180.58     12.97   1575.20     -0.01      0.41      7.00   1192.28 
   180.59     12.97   1575.20     -0.00     -4.54      0.00   1192.28 
   180.60     12.98   1583.09      0.01     -0.62      0.00   1198.58 
   180.61     12.98   1579.53      0.01      4.33      0.00   1195.88 
   180.62     13.00   1574.18      0.02     -5.76      0.00   1192.28 
   180.63     13.00   1574.18      0.02     -1.02      0.00   1192.28 
   180.64     12.99   1582.68      0.01     -0.41      0.00   1198.58 
   180.65     12.99   1574.59      0.01     -5.15      0.00   1192.28 
   180.66     12.97   1575.20     -0.00      0.20      0.00   1192.28 
   180.67     12.96   1584.12     -0.02      9.33      0.00   1198.58 
   180.68     12.97   1575.20     -0.02     -7.48      0.00   1192.28 
   180.69     12.97   1583.71     -0.03      4.79      7.00   1198.58 
   180.70     12.98   1569.07     -0.03     -4.70      0.00   1187.78 
   180.71     12.99   1582.88     -0.01      8.91      0.00   1198.58 
   180.72     12.97   1575.40     -0.02     -7.28      0.00   1192.28 
   180.73     12.98   1583.29     -0.00      3.76      0.00   1198.58 
   180.74     12.96   1575.61     -0.01      0.61      0.00   1192.28 
   180.75     12.96   1580.35     -0.01      5.36      0.00   1195.88 
   180.76     12.97   1575.20      0.00     -8.30      0.00   1192.28 
   180.77     12.97   1583.71     -0.00      8.51      0.00   1198.58 
   180.78     12.97   1575.20      0.00     -4.74      0.00   1192.28 
   180.79     12.98   1579.74      0.00      4.54      0.00   1195.88 
   180.80     12.97   1575.20     -0.01     -7.69      0.00   1192.28 
   180.81     12.97   1583.50     -0.01      8.91      0.00   1198.58 
   180.82     12.97   1579.94     -0.01      5.36      0.00   1195.88 
   180.83     12.97   1575.40     -0.01     -7.69      0.00   1192.28 
   180.84     12.97   1579.94      0.00      4.74      0.00   1195.88 
   180.85     12.97   1575.20      0.00      0.00      0.00   1192.28 
   180.86     12.98   1583.29      0.01     -0.41      0.00   1198.58 
   180.87     12.99   1574.59      0.02     -0.82      0.00   1192.28 
   180.88     12.99   1579.12      0.02     -4.38      0.00   1195.88 
   180.89     12.99   1574.59      0.01      5.32      0.00   1192.28 
   180.90     12.98   1583.09      0.00      0.00      0.00   1198.58 
   180.91     12.98   1574.99     -0.01      0.41      0.00   1192.28 
   180.92     12.97   1575.20     -0.02     -7.48      0.00   1192.28 
   180.93     12.98   1583.29     -0.01      8.91      0.00   1198.58 
   180.94     12.99   1574.59     -0.01      0.41      7.00   1192.28 
   180.95     13.00   1578.92      0.00     -3.76      8.00   1195.88 
   180.96     13.00   1573.97      0.02     -0.82      0.00   1192.28 
   180.97     13.01   1581.86      0.02      7.27      0.00   1198.58 
   180.98     13.00   1573.97      0.03     -9.53      7.00   1192.28 
   180.99     12.99   1574.59      0.01     -0.61      0.00   1192.28 
   181.00     12.98   1583.09      0.01      7.69      0.00   1198.58 
   181.01     12.97   1575.20      0.00     -8.51      0.00   1192.28 
   181.02     12.97   1583.50      0.00      8.30      0.00   1198.58 
   181.03     12.97   1575.20      0.00     -8.30      0.00   1192.28 
   181.04     12.98   1574.79      0.00     -0.20      0.00   1192.28 
   181.05     12.99   1579.33      0.00      4.54      0.00   1195.88 
   181.06     12.99   1582.88      0.00      3.56      0.00   1198.58 
   181.07     12.99   1574.59      0.00     -8.30      0.00   1192.28 
   181.08     12.98   1574.79     -0.01      0.61      0.00   1192.28 
   181.09     12.98   1583.29     -0.02      9.12      0.00   1198.58 
   181.10     12.98   1574.79     -0.01     -7.68      0.00   1192.28 
   181.11     12.99   1582.68     -0.00      8.50      0.00   1198.58 
   181.12     12.99   1574.59     -0.01      0.41      0.00   1192.28 
   181.13     12.99   1574.38      0.00     -8.50      0.00   1192.28 
   181.14     12.99   1582.68      0.00      8.09      0.00   1198.58 
   181.15     12.98   1574.79      0.00     -8.50      0.00   1192.28 
   181.16     12.97   1575.20      0.00      0.00      0.00   1192.28 
   181.17     12.98   1583.29      0.00      8.30      0.00   1198.58 
   181.18     12.97   1575.20      0.01     -8.71      0.00   1192.28 
   181.19     12.99   1579.33      0.01     -0.61      0.00   1195.88 
   181.20     12.99   1574.38      0.01     -0.61      0.00   1192.28 
   181.21     12.99   1582.68      0.01      7.89      0.00   1198.58 
   181.22     13.00   1574.18      0.01     -8.71      0.00   1192.28 
   181.23     13.00   1582.47      0.01      7.68      0.00   1198.58 
   181.24     12.99   1574.59     -0.00      0.20      0.00   1192.28 
   181.25     12.98   1574.99     -0.00     -8.09      0.00   1192.28 
   181.26     12.98   1579.74      0.00      4.74      0.00   1195.88 
   181.27     12.98   1583.29     -0.00      0.21      0.00   1198.58 
   181.28     12.98   1574.79      0.00      5.93      0.00   1192.28 
   181.29     12.99   1579.12     -0.01     -3.15      0.00   1195.88 
   181.30     12.98   1574.79     -0.02      0.82      0.00   1192.28 
   181.31     12.97   1583.50     -0.02      1.03      0.00   1198.58 
   181.32     12.98   1579.74     -0.01      5.36      0.00   1195.88 
   181.33     12.97   1575.20     -0.01     -4.33      0.00   1192.28 
   181.34     12.97   1575.20     -0.01      0.61      0.00   1192.28 
   181.35     12.98   1579.53      0.00     -3.56      0.00   1195.88 
   181.36     12.97   1583.50     -0.01      8.71      0.00   1198.58 
   181.37     12.98   1569.07     -0.00     -5.72      0.00   1187.78 
   181.38     12.98   1583.09     -0.01      3.97      0.00   1198.58 
   181.39     12.99   1574.59     -0.01     -7.89      0.00   1192.28 
   181.40     13.00   1578.92      0.00      4.74      0.00   1195.88 
   181.41     12.99   1582.68      0.00      8.30      0.00   1198.58 
   181.42     13.00   1568.05      0.01    -11.07      0.00   1187.78 
   181.43     12.99   1582.88     -0.01      0.41      0.00   1198.58 
   181.44     12.98   1574.79     -0.01      0.41      0.00   1192.28 
   181.45     12.98   1579.53     -0.01      5.35      0.00   1195.88 
   181.46     12.98   1574.99     -0.01     -7.89      0.00   1192.28 
