#Written by Robertson Geologging WinLogger V1.0/370
~VERSION INFORMATION
#------------------------------------------------------------------------------
 VERS. 2.0 : CWLS LOG ASCII STANDARD - VERSION 2.0
 WRAP. NO  : ONE LINE PER DEPTH STEP
~WELL INFORMATION
#MNEM.UNIT         DATA                                DESCRIPTION OF MNEMONIC
#------------------------------------------------------------------------------
 STRT.M        118.0500                            :   START DEPTH
 STOP.M        420.0800                            :   STOP DEPTH
 STEP.M          0.0100                            :   STEP VALUE
 NULL.        -999.2500                            :   NULL VALUE
 COMP.    WHITE YOUN GREEN                         :   COMPANY NAME
 WELL.    HAWTHORN SHAFT                           :   WELL NAME
 FLD.     HAWTHORN                                 :   FIELD NAME
 LOC.     N/A                                      :   LOCATION
 PROV.    N/A                                      :   PROVINCE
 SRVC.    N/A                                      :   SERVICE COMPANY NAME
 DATE.    14 Dec 06                                :   DATE
 UWI.     N/A                                      :   UNIQUE WELL IDENTIFIER
~PARAMETER INFORMATION
#MNEMO.UNIT         VALUE                 DESCRIPTION OF MNEMONIC
#------------------------------------------------------------------------------
~OTHER INFORMATION SECTION
#------------------------------------------------------------------------------
 lLOGGING DOWN
~CURVE INFORMATION
#MNEMO.UNIT         API CODE              CURVE DESCRIPTION
#------------------------------------------------------------------------------
 DEPTH.M                                 :   0     Depth
 TEMP.DegC                               :   1     Temperature
 CN25.mS/cm                              :   2     Conductivity@25DegC
 COND.mS/cm                              :   3     Conductivity
 DELT.DegC                               :   4     Delta T
 DELC.mS/cm                              :   5     Delta C
 NGAM.CPS                                :   6     Natural Gamma
#------------------------------------------------------------------------------
~A  DEPTH     TEMP      CN25      COND      DELT      DELC      NGAM      
# ...
   338.40     17.01     28.02     22.67      0.01     -0.00      0.00 
   338.41     17.02     28.02     22.67      0.01     -0.00      0.00 
   338.42     17.02     28.02     22.67      0.01     -0.01      0.00 
   338.43     17.02     28.01     22.67      0.01     -0.01      0.00 
   338.44     17.02     28.01     22.67      0.01     -0.01      0.00 
   338.45     17.02     28.01     22.67      0.01     -0.01      0.00 
   338.46     17.02     28.01     22.67      0.01     -0.01      0.00 
   338.47     17.02     28.00     22.67      0.01     -0.01      0.00 
   338.48     17.02     28.00     22.67      0.01     -0.01      0.00 
   338.49     17.03     28.00     22.67      0.01     -0.01      0.00 
   338.50     17.02     28.01     22.67      0.01     -0.01      0.00 
   338.51     17.02     28.01     22.67      0.01     -0.01      0.00 
   338.52     17.02     28.01     22.67      0.01     -0.01      0.00 
   338.53     17.02     28.01     22.67      0.01     -0.01      0.00 
   338.54     17.02     28.01     22.67      0.01     -0.00      0.00 
   338.55     17.02     28.01     22.67      0.00      0.00      0.00 
   338.56     17.02     28.02     22.67      0.00      0.01      0.00 
   338.57     17.02     28.02     22.67      0.00      0.01      0.00 
   338.58     17.02     28.02     22.67      0.00      0.01      0.00 
   338.59     17.01     28.02     22.67      0.00      0.00      0.00 
   338.60     17.01     28.02     22.67      0.00      0.00      0.41 
   338.61     17.01     28.02     22.67      0.00      0.00      0.41 
   338.62     17.01     28.02     22.67      0.00      0.01      0.41 
   338.63     17.01     28.02     22.67      0.00      0.01      0.41 
   338.64     17.01     28.02     22.67      0.00      0.00      0.82 
   338.65     17.01     28.02     22.67      0.01     -0.00      0.82 
   338.66     17.01     28.03     22.67      0.01     -0.00      0.82 
   338.67     17.01     28.02     22.67      0.01     -0.01      0.82 
   338.68     17.01     28.03     22.67      0.01     -0.00      0.82 
   338.69     17.01     28.03     22.67      0.01     -0.00      0.82 
   338.70     17.01     28.03     22.67      0.00      0.01      0.82 
   338.71     17.01     28.04     22.67     -0.00      0.01      0.82 
   338.72     17.01     28.04     22.67     -0.00      0.01      0.82 
   338.73     17.01     28.04     22.67     -0.00      0.02      0.82 
   338.74     17.01     28.03     22.67     -0.00      0.01      0.82 
   338.75     17.01     28.04     22.67     -0.00      0.02      0.82 
   338.76     17.01     28.04     22.67     -0.00      0.02      0.82 
   338.77     17.01     28.04     22.67     -0.01      0.02      0.41 
   338.78     17.01     28.03     22.67     -0.01      0.02      0.41 
   338.79     17.01     28.03     22.67     -0.01      0.02      0.41 
   338.80     17.01     28.03     22.67     -0.01      0.02      0.41 
   338.81     17.01     28.03     22.67     -0.00      0.02      0.00 
   338.82     17.01     28.03     22.67     -0.00      0.02      0.00 
   338.83     17.01     28.03     22.67     -0.00      0.02      0.41 
   338.84     17.01     28.03     22.67     -0.00      0.01      0.41 
   338.85     17.01     28.03     22.67      0.00      0.01      0.41 
   338.86     17.01     28.03     22.67      0.00      0.00      0.41 
   338.87     17.01     28.03     22.67      0.01     -0.00      0.41 
   338.88     17.02     28.02     22.67      0.01     -0.01      0.41 
   338.89     17.02     28.03     22.68      0.01     -0.01      0.41 
   338.90     17.02     28.02     22.67      0.02     -0.01      0.41 
   338.91     17.02     28.02     22.68      0.02     -0.01      0.41 
   338.92     17.02     28.03     22.68      0.02     -0.01      0.41 
   338.93     17.02     28.03     22.68      0.01     -0.01      0.41 
   338.94     17.02     28.03     22.68      0.01     -0.01      0.82 
   338.95     17.02     28.03     22.68      0.01     -0.00      0.82 
   338.96     17.01     28.03     22.68      0.01     -0.00      0.82 
   338.97     17.01     28.03     22.68      0.01     -0.00      1.24 
   338.98     17.01     28.03     22.68      0.01      0.00      1.24 
   338.99     17.01     28.03     22.68      0.01      0.00      1.24 
   339.00     17.01     28.03     22.68      0.01      0.00      0.82 
   339.01     17.01     28.03     22.68      0.01      0.00      0.82 
   339.02     17.02     28.03     22.68      0.01      0.00      0.82 
   339.03     17.02     28.03     22.68      0.01      0.00      0.82 
   339.04     17.02     28.03     22.68      0.01      0.00      0.82 
   339.05     17.02     28.02     22.68      0.01      0.00      0.82 
   339.06     17.02     28.02     22.68      0.01      0.00      0.82 
   339.07     17.02     28.02     22.68      0.01      0.01      0.82 
   339.08     17.02     28.03     22.68      0.00      0.01      0.82 
   339.09     17.02     28.03     22.68      0.00      0.01      0.82 
   339.10     17.02     28.03     22.68     -0.00      0.02      0.82 
   339.11     17.01     28.03     22.68     -0.00      0.02      0.41 
   339.12     17.01     28.04     22.68     -0.00      0.02      0.41 
   339.13     17.01     28.04     22.68     -0.00      0.02      0.41 
   339.14     17.01     28.04     22.68      0.00      0.02      0.00 
   339.15     17.01     28.04     22.68      0.00      0.02      0.00 
   339.16     17.01     28.04     22.68      0.00      0.01      0.00 
   339.17     17.01     28.04     22.68      0.00      0.01      0.00 
   339.18     17.01     28.04     22.68      0.00      0.01      0.00 
   339.19     17.02     28.03     22.68      0.01      0.00      0.00 
   339.20     17.02     28.03     22.68      0.01      0.00      0.00 
   339.21     17.02     28.03     22.68      0.01     -0.00      0.00 
   339.22     17.02     28.03     22.68      0.01     -0.01      0.00 
   339.23     17.02     28.03     22.68      0.01     -0.01      0.00 
   339.24     17.02     28.03     22.68      0.01     -0.01      0.00 
   339.25     17.02     28.03     22.68      0.01     -0.01      0.00 
   339.26     17.02     28.03     22.68      0.01     -0.01      0.00 
   339.27     17.02     28.02     22.68      0.01     -0.01      0.00 
   339.28     17.02     28.03     22.68      0.01     -0.00      0.00 
   339.29     17.02     28.03     22.68      0.01     -0.00      0.00 
   339.30     17.02     28.03     22.68      0.01     -0.00      0.00 
   339.31     17.02     28.02     22.68      0.01     -0.01      0.00 
   339.32     17.02     28.03     22.68      0.01     -0.00      0.00 
   339.33     17.02     28.03     22.68      0.01      0.00      0.00 
   339.34     17.02     28.03     22.68      0.01     -0.00      0.00 
   339.35     17.02     28.03     22.68      0.01     -0.00      0.41 
   339.36     17.02     28.02     22.68      0.01     -0.00      0.41 
   339.37     17.02     28.03     22.68      0.01      0.00      0.41 
   339.38     17.02     28.03     22.68      0.00      0.01      0.41 
   339.39     17.02     28.03     22.68      0.00      0.01      0.41 
   339.40     17.02     28.03     22.68      0.00      0.01      0.82 
   339.41     17.02     28.03     22.68      0.00      0.01      0.82 
   339.42     17.02     28.02     22.68      0.00      0.01      0.82 
   339.43     17.02     28.02     22.68      0.00      0.01      0.82 
   339.44     17.02     28.02     22.68      0.00      0.01      0.82 
   339.45     17.02     28.02     22.68     -0.00      0.02      0.82 
   339.46     17.02     28.02     22.68     -0.00      0.02      0.82 
   339.47     17.02     28.02     22.68     -0.00      0.02      0.82 
   339.48     17.02     28.02     22.68     -0.00      0.01      0.82 
   339.49     17.02     28.02     22.68     -0.00      0.01      0.82 
   339.50     17.02     28.02     22.68     -0.00      0.01      0.82 
   339.51     17.02     28.02     22.68     -0.00      0.01      0.82 
   339.52     17.02     28.02     22.68     -0.00      0.01      0.41 
