#Written by Robertson Geologging WinLogger V1.0/370
~VERSION INFORMATION
#------------------------------------------------------------------------------
 VERS. 2.0 : CWLS LOG ASCII STANDARD - VERSION 2.0
 WRAP. NO  : ONE LINE PER DEPTH STEP
~WELL INFORMATION
#MNEM.UNIT         DATA                                DESCRIPTION OF MNEMONIC
#------------------------------------------------------------------------------
 STRT.M        118.0500                            :   START DEPTH
 STOP.M        420.0800                            :   STOP DEPTH
 STEP.M          0.0100                            :   STEP VALUE
 NULL.        -999.2500                            :   NULL VALUE
 COMP.    WHITE YOUN GREEN                         :   COMPANY NAME
 WELL.    HAWTHORN SHAFT                           :   WELL NAME
 FLD.     HAWTHORN                                 :   FIELD NAME
 LOC.     N/A                                      :   LOCATION
 PROV.    N/A                                      :   PROVINCE
 SRVC.    N/A                                      :   SERVICE COMPANY NAME
 DATE.    14 Dec 06                                :   DATE
 UWI.     N/A                                      :   UNIQUE WELL IDENTIFIER
~PARAMETER INFORMATION
#MNEMO.UNIT         VALUE                 DESCRIPTION OF MNEMONIC
#------------------------------------------------------------------------------
~OTHER INFORMATION SECTION
#------------------------------------------------------------------------------
 lLOGGING DOWN
~CURVE INFORMATION
#MNEMO.UNIT         API CODE              CURVE DESCRIPTION
#------------------------------------------------------------------------------
 DEPTH.M                                 :   0     Depth
 TEMP.DegC                               :   1     Temperature
 CN25.mS/cm                              :   2     Conductivity@25DegC
 COND.mS/cm                              :   3     Conductivity
 DELT.DegC                               :   4     Delta T
 DELC.mS/cm                              :   5     Delta C
 NGAM.CPS                                :   6     Natural Gamma
#------------------------------------------------------------------------------
~A  DEPTH     TEMP      CN25      COND      DELT      DELC      NGAM      
# ...
   278.51     16.95     26.86     21.60      0.00      0.00      0.35 
   278.52     16.95     26.86     21.60      0.00     -0.00      0.41 
   278.53     16.95     26.86     21.60     -0.00      0.00      0.41 
   278.54     16.95     26.86     21.60     -0.00      0.00      0.82 
   278.55     16.95     26.86     21.60     -0.00      0.01      0.82 
   278.56     16.95     26.86     21.60     -0.00      0.01      0.82 
   278.57     16.95     26.86     21.60     -0.00      0.01      0.82 
   278.58     16.95     26.86     21.60     -0.00      0.00      0.82 
   278.59     16.95     26.86     21.60      0.00      0.00      0.82 
   278.60     16.95     26.86     21.60      0.00     -0.00      0.82 
   278.61     16.96     26.86     21.60      0.01     -0.01      0.82 
   278.62     16.95     26.86     21.60      0.01     -0.01      0.82 
   278.63     16.95     26.86     21.60      0.01     -0.01      0.82 
   278.64     16.95     26.86     21.60      0.01     -0.01      0.82 
   278.65     16.95     26.86     21.60      0.01     -0.01      0.82 
   278.66     16.95     26.86     21.60      0.01     -0.02      0.82 
   278.67     16.95     26.86     21.60      0.01     -0.02      0.82 
   278.68     16.96     26.85     21.60      0.01     -0.02      0.82 
   278.69     16.96     26.86     21.60      0.01     -0.02      0.41 
   278.70     16.96     26.85     21.60      0.01     -0.02      0.41 
   278.71     16.96     26.86     21.60      0.01     -0.01      0.00 
   278.72     16.95     26.86     21.60      0.00     -0.01      0.00 
   278.73     16.95     26.86     21.60      0.00     -0.00      0.00 
   278.74     16.95     26.87     21.60     -0.00      0.01      0.00 
   278.75     16.95     26.87     21.60     -0.00      0.01      0.00 
   278.76     16.95     26.87     21.60     -0.00      0.01      0.00 
   278.77     16.95     26.87     21.60     -0.01      0.01      0.00 
   278.78     16.95     26.87     21.60     -0.01      0.02      0.00 
   278.79     16.94     26.87     21.60     -0.01      0.03      0.00 
   278.80     16.94     26.87     21.60     -0.01      0.02      0.00 
   278.81     16.94     26.88     21.60     -0.02      0.03      0.00 
   278.82     16.94     26.87     21.60     -0.01      0.03      0.00 
   278.83     16.95     26.87     21.60     -0.01      0.02      0.00 
   278.84     16.95     26.87     21.60     -0.01      0.02      0.00 
   278.85     16.95     26.87     21.60     -0.01      0.02      0.00 
   278.86     16.95     26.87     21.60     -0.01      0.02      0.00 
   278.87     16.95     26.86     21.60     -0.01      0.03      0.00 
   278.88     16.95     26.87     21.60     -0.01      0.03      0.00 
   278.89     16.95     26.87     21.60     -0.01      0.03      0.00 
   278.90     16.95     26.87     21.60     -0.01      0.02      0.41 
   278.91     16.95     26.87     21.60     -0.01      0.02      0.41 
   278.92     16.95     26.87     21.60     -0.01      0.02      0.41 
   278.93     16.95     26.87     21.60     -0.01      0.02      0.41 
   278.94     16.95     26.86     21.60     -0.01      0.02      0.41 
   278.95     16.95     26.87     21.60     -0.01      0.02      0.41 
   278.96     16.95     26.86     21.60     -0.01      0.02      0.41 
   278.97     16.95     26.86     21.60     -0.01      0.02      0.41 
   278.98     16.96     26.86     21.60     -0.00      0.01      0.41 
   278.99     16.96     26.85     21.60      0.00     -0.00      0.41 
   279.00     16.96     26.85     21.60      0.00      0.00      0.41 
   279.01     16.96     26.85     21.60      0.00      0.00      0.41 
   279.02     16.96     26.85     21.60     -0.00      0.00      0.41 
   279.03     16.96     26.85     21.60     -0.00      0.01      0.41 
   279.04     16.96     26.85     21.60     -0.00      0.01      0.41 
   279.05     16.96     26.85     21.60     -0.00      0.01      0.41 
   279.06     16.96     26.85     21.60     -0.00      0.01      0.41 
   279.07     16.96     26.85     21.60     -0.00      0.01      0.00 
   279.08     16.96     26.86     21.60     -0.00      0.01      0.00 
   279.09     16.95     26.85     21.60     -0.00      0.01      0.00 
   279.10     16.95     26.86     21.60     -0.01      0.02      0.00 
   279.11     16.95     26.86     21.60     -0.01      0.01      0.00 
   279.12     16.95     26.86     21.60     -0.00      0.01      0.00 
   279.13     16.95     26.86     21.60     -0.00      0.01      0.00 
   279.14     16.95     26.86     21.60     -0.00      0.00      0.00 
   279.15     16.95     26.86     21.60      0.00      0.00      0.00 
   279.16     16.95     26.86     21.60      0.00     -0.00      0.00 
   279.17     16.95     26.86     21.60      0.00     -0.00      0.00 
   279.18     16.95     26.86     21.60      0.01     -0.00      0.00 
   279.19     16.95     26.86     21.60      0.01     -0.01      0.41 
   279.20     16.95     26.86     21.60      0.01     -0.01      0.41 
   279.21     16.95     26.86     21.60      0.01     -0.01      0.82 
   279.22     16.95     26.86     21.60      0.00     -0.00      0.82 
   279.23     16.95     26.86     21.60      0.00      0.00      0.82 
   279.24     16.95     26.86     21.60     -0.00      0.01      0.82 
   279.25     16.95     26.86     21.60     -0.00      0.01      0.82 
   279.26     16.95     26.86     21.60     -0.00      0.01      0.82 
   279.27     16.95     26.86     21.60     -0.01      0.01      0.82 
   279.28     16.95     26.86     21.60     -0.00      0.01      0.82 
   279.29     16.96     26.86     21.60     -0.00      0.01      0.82 
   279.30     16.96     26.85     21.60      0.00      0.00      0.82 
   279.31     16.96     26.85     21.60      0.00     -0.00      1.18 
   279.32     16.96     26.85     21.60      0.00     -0.01      1.18 
   279.33     16.96     26.85     21.60      0.01     -0.01      1.18 
   279.34     16.96     26.85     21.60      0.01     -0.01      1.18 
   279.35     16.96     26.85     21.60      0.01     -0.02      1.18 
   279.36     16.96     26.85     21.60      0.01     -0.01      0.76 
   279.37     16.96     26.84     21.60      0.01     -0.02      0.76 
   279.38     16.96     26.85     21.60      0.01     -0.02      0.35 
   279.39     16.96     26.85     21.60      0.01     -0.02      0.35 
   279.40     16.96     26.85     21.60      0.01     -0.01      0.35 
   279.41     16.96     26.86     21.60      0.01     -0.01      0.35 
   279.42     16.95     26.86     21.60      0.01     -0.01      0.35 
   279.43     16.95     26.86     21.60      0.01     -0.00      0.35 
   279.44     16.95     26.86     21.60      0.00     -0.01      0.35 
   279.45     16.95     26.86     21.60      0.00     -0.00      0.35 
   279.46     16.95     26.86     21.60      0.00     -0.01      0.35 
   279.47     16.96     26.86     21.60      0.01     -0.01      0.35 
   279.48     16.96     26.86     21.60      0.01     -0.01      0.00 
   279.49     16.96     26.85     21.60      0.01     -0.01      0.00 
   279.50     16.96     26.85     21.60      0.01     -0.01      0.00 
   279.51     16.96     26.85     21.60      0.01     -0.01      0.00 
   279.52     16.96     26.84     21.60      0.01     -0.01      0.00 
   279.53     16.97     26.84     21.60      0.01     -0.02      0.00 
   279.54     16.97     26.84     21.60      0.01     -0.02      0.00 
   279.55     16.97     26.83     21.60      0.02     -0.03      0.35 
   279.56     16.97     26.83     21.60      0.02     -0.03      0.35 
   279.57     16.97     26.83     21.60      0.02     -0.03      0.35 
   279.58     16.97     26.82     21.60      0.02     -0.04      0.35 
   279.59     16.98     26.82     21.60      0.02     -0.04      0.35 
   279.60     16.97     26.82     21.60      0.02     -0.03      0.35 
   279.61     16.97     26.83     21.60      0.02     -0.03      0.35 
   279.62     16.97     26.83     21.60      0.02     -0.03      0.35 
   279.63     16.97     26.83     21.60      0.02     -0.03      0.35 
