#Written by Robertson Geologging WinLogger V1.0/406
~VERSION INFORMATION
#------------------------------------------------------------------------------
 VERS. 2.0 : CWLS LOG ASCII STANDARD - VERSION 2.0
 WRAP. NO  : ONE LINE PER DEPTH STEP
~WELL INFORMATION
#MNEM.UNIT         DATA                                DESCRIPTION OF MNEMONIC
#------------------------------------------------------------------------------
 STRT.M        115.9300                            :   START DEPTH
 STOP.M        440.0000                            :   STOP DEPTH
 STEP.M          0.0100                            :   STEP VALUE
 NULL.        -999.2500                            :   NULL VALUE
 COMP.    Coal Authority                           :   COMPANY NAME
 WELL.    Hawthorn Shaft                           :   WELL NAME
 FLD.     Hawthorn                                 :   FIELD NAME
 LOC.     N/A                                      :   LOCATION
 PROV.    N/A                                      :   PROVINCE
 SRVC.    N/A                                      :   SERVICE COMPANY NAME
 DATE.    28 Aug 08                                :   DATE
 UWI.     N/A                                      :   UNIQUE WELL IDENTIFIER
~PARAMETER INFORMATION
#MNEMO.UNIT         VALUE                 DESCRIPTION OF MNEMONIC
#------------------------------------------------------------------------------
~OTHER INFORMATION SECTION
#------------------------------------------------------------------------------
 TCGS 1365
 Logged in low conductivity mode as starting readings were so low.
~CURVE INFORMATION
#MNEMO.UNIT         API CODE              CURVE DESCRIPTION
#------------------------------------------------------------------------------
 DEPTH.M                                 :   0     Depth
 TEMP.DegC                               :   1     Temperature
 CN25.uS/cm                              :   2     Conductivity@25DegC
 DELT.DegC                               :   3     Delta T
 DELC.uS/cm                              :   4     Delta C
 NGAM.CPS                                :   5     Natural Gamma
 COND.uS/cm                              :   6     Conductivity
#------------------------------------------------------------------------------
~A  DEPTH     TEMP      CN25      DELT      DELC      NGAM      COND      
# ...
   266.22     13.00   1582.27      0.00      3.55      0.00   1198.58 
   266.23     13.00   1578.92      0.00     -3.56      0.00   1195.88 
   266.24     13.00   1582.47      0.00      3.56      0.00   1198.58 
   266.25     12.98   1579.53     -0.02     -2.74      0.00   1195.88 
   266.26     12.99   1574.59      0.00     -4.74      0.00   1192.28 
   266.27     12.99   1588.81      0.00      5.72      0.00   1203.09 
   266.28     12.99   1579.12      0.01     -0.41      0.00   1195.88 
   266.29     12.99   1574.38      0.01     -8.71      0.00   1192.28 
   266.30     12.99   1588.61     -0.00      9.69      0.00   1203.09 
   266.31     12.99   1574.38     -0.01      0.41      0.00   1192.28 
   266.32     12.99   1588.81     -0.02      1.03      0.00   1203.09 
   266.33     12.99   1574.38     -0.03     -3.51      0.00   1192.28 
   266.34     12.99   1588.61     -0.01      6.54      0.00   1203.09 
   266.35     12.99   1574.59     -0.02     -3.72      7.00   1192.28 
   266.36     12.99   1582.88     -0.01      0.62      0.00   1198.58 
   266.37     13.00   1578.92      0.01     -0.61      0.00   1195.88 
   266.38     13.00   1582.47      0.00      8.09      0.00   1198.58 
   266.39     13.00   1578.92      0.01    -10.10      0.00   1195.88 
   266.40     13.00   1582.47      0.01      3.15      0.00   1198.58 
   266.41     13.00   1578.92      0.00     -3.76      0.00   1195.88 
   266.42     12.99   1582.88     -0.00      3.76      0.00   1198.58 
   266.43     12.99   1579.33     -0.01      0.41      0.00   1195.88 
   266.44     13.00   1582.47      0.00     -0.21      0.00   1198.58 
   266.45     12.99   1579.12     -0.01      0.61      0.00   1195.88 
   266.46     13.01   1582.06      0.00     -0.21      0.00   1198.58 
   266.47     13.00   1578.71     -0.01      0.41      0.00   1195.88 
   266.48     12.99   1574.38     -0.03     -3.51      7.00   1192.28 
   266.49     13.00   1588.19     -0.01      6.34      0.00   1203.09 
   266.50     12.99   1574.38     -0.02     -3.92      0.00   1192.28 
   266.51     13.00   1588.40     -0.00      9.69      0.00   1203.09 
   266.52     13.00   1578.71      0.00     -3.76      0.00   1195.88 
   266.53     12.99   1574.38     -0.00     -4.54      0.00   1192.28 
   266.54     12.99   1588.61     -0.00      6.13      0.00   1203.09 
   266.55     13.00   1578.92      0.00      0.00      0.00   1195.88 
   266.56     12.99   1582.68     -0.01      0.41      0.00   1198.58 
   266.57     13.00   1578.92     -0.01      0.61      0.00   1195.88 
   266.58     13.00   1578.71     -0.01     -3.14      0.00   1195.88 
   266.59     13.00   1582.27     -0.01      3.96      0.00   1198.58 
   266.60     13.01   1578.51      0.00     -3.55      0.00   1195.88 
   266.61     13.01   1578.51      0.01     -0.41      0.00   1195.88 
   266.62     12.99   1582.68      0.00      8.30      0.00   1198.58 
   266.63     13.00   1578.92      0.01     -9.89      0.00   1195.88 
   266.64     13.00   1578.92      0.01      4.33      0.00   1195.88 
   266.65     13.00   1582.47      0.01     -6.54      0.00   1198.58 
   266.66     13.00   1578.71      0.01      4.13      0.00   1195.88 
   266.67     13.00   1582.47      0.00     -6.13      0.00   1198.58 
   266.68     13.01   1578.51      0.01      4.33      0.00   1195.88 
   266.69     13.00   1578.92      0.00      0.00      0.00   1195.88 
   266.70     12.99   1582.68      0.00     -5.93      0.00   1198.58 
   266.71     12.99   1579.12      0.00      4.54      0.00   1195.88 
   266.72     12.98   1583.09     -0.01     -5.52      0.00   1198.58 
   266.73     12.99   1579.33     -0.01      5.15      0.00   1195.88 
   266.74     12.99   1582.68     -0.00     -5.72      0.00   1198.58 
   266.75     12.99   1579.33     -0.01      5.15      8.00   1195.88 
   266.76     12.99   1582.68     -0.01      3.97      0.00   1198.58 
   266.77     12.99   1579.33     -0.00     -3.35      0.00   1195.88 
   266.78     12.99   1582.88     -0.01      4.17      0.00   1198.58 
   266.79     12.99   1579.33     -0.01     -2.94      0.00   1195.88 
   266.80     12.98   1579.53     -0.02      1.02      0.00   1195.88 
   266.81     12.99   1582.88     -0.02      0.82      0.00   1198.58 
   266.82     12.99   1579.33     -0.01      0.61      0.00   1195.88 
   266.83     13.00   1582.47     -0.00      0.21      7.00   1198.58 
   266.84     13.00   1578.71      0.00     -0.20      0.00   1195.88 
   266.85     13.00   1573.97      0.00     -8.50      0.00   1192.28 
   266.86     13.00   1588.19      0.00      9.28      0.00   1203.09 
   266.87     13.00   1574.18      0.01     -8.91      0.00   1192.28 
   266.88     13.00   1588.40      0.01      8.87      8.00   1203.09 
   266.89     12.99   1574.38      0.00     -8.50      0.00   1192.28 
   266.90     13.00   1578.92     -0.00      0.20      0.00   1195.88 
   266.91     13.01   1582.06     -0.00      0.21      0.00   1198.58 
   266.92     13.00   1578.71     -0.00      0.20      0.00   1195.88 
   266.93     13.00   1582.27      0.00      0.00      0.00   1198.58 
   266.94     13.00   1578.92      0.01     -0.41      0.00   1195.88 
   266.95     12.99   1582.88     -0.00      8.50      0.00   1198.58 
   266.96     12.99   1582.88     -0.00     -5.72      0.00   1198.58 
   266.97     12.99   1579.33     -0.01      5.35      0.00   1195.88 
   266.98     12.98   1583.29     -0.02     -5.10      0.00   1198.58 
   266.99     12.98   1579.53     -0.01      5.35      0.00   1195.88 
   267.00     12.99   1574.59     -0.00     -4.54      0.00   1192.28 
   267.01     12.99   1588.61      0.00      5.72      0.00   1203.09 
   267.02     13.00   1573.97      0.01     -5.35      0.00   1192.28 
   267.03     13.00   1588.19      0.02      5.10      0.00   1203.09 
   267.04     13.00   1573.97      0.01     -5.35      0.00   1192.28 
   267.05     13.00   1578.71      0.01     -3.97      0.00   1195.88 
   267.06     13.00   1582.47      0.00      3.35      0.00   1198.58 
   267.07     13.00   1578.92     -0.00      0.20      0.00   1195.88 
   267.08     12.99   1582.88     -0.01      0.62      0.00   1198.58 
   267.09     12.99   1579.12     -0.01      0.41      0.00   1195.88 
   267.10     13.00   1582.27      0.00      0.00      0.00   1198.58 
   267.11     13.00   1578.71      0.00     -0.20      0.00   1195.88 
   267.12     13.01   1582.06      0.01     -0.62      0.00   1198.58 
   267.13     13.00   1578.92     -0.00      0.20      0.00   1195.88 
   267.14     13.00   1582.47      0.01     -0.41      0.00   1198.58 
   267.15     12.99   1579.12     -0.00      0.20      0.00   1195.88 
   267.16     13.00   1582.27      0.00      3.55      0.00   1198.58 
   267.17     13.01   1578.51      0.01     -3.96      0.00   1195.88 
   267.18     13.01   1581.86      0.00      3.55      0.00   1198.58 
   267.19     13.01   1578.30      0.01     -4.17      0.00   1195.88 
   267.20     13.01   1573.77      0.00     -4.94      0.00   1192.28 
   267.21     13.01   1587.99      0.00      5.72      0.00   1203.09 
   267.22     13.00   1578.92      0.00      0.00      0.00   1195.88 
   267.23     12.99   1582.68     -0.00      0.21      0.00   1198.58 
   267.24     12.99   1579.33      0.00     -0.20      0.00   1195.88 
   267.25     12.99   1574.38      0.00     -0.20      0.00   1192.28 
   267.26     12.99   1588.81      0.00      0.00      0.00   1203.09 
   267.27     12.99   1579.12      0.00      0.00      0.00   1195.88 
   267.28     13.00   1582.47      0.00      8.09      0.00   1198.58 
   267.29     13.00   1578.71      0.01     -9.89      0.00   1195.88 
   267.30     13.01   1573.77      0.01     -0.61      0.00   1192.28 
   267.31     13.02   1587.58      0.03     -1.24      0.00   1203.09 
   267.32     13.01   1578.30      0.02      3.92      0.00   1195.88 
   267.33     13.01   1582.06      0.01     -6.54      0.00   1198.58 
   267.34     13.01   1578.30      0.02      3.72      0.00   1195.88 
