#Written by Robertson Geologging WinLogger V1.0/370
~VERSION INFORMATION
#------------------------------------------------------------------------------
 VERS. 2.0 : CWLS LOG ASCII STANDARD - VERSION 2.0
 WRAP. NO  : ONE LINE PER DEPTH STEP
~WELL INFORMATION
#MNEM.UNIT         DATA                                DESCRIPTION OF MNEMONIC
#------------------------------------------------------------------------------
 STRT.M        118.0500                            :   START DEPTH
 STOP.M        420.0800                            :   STOP DEPTH
 STEP.M          0.0100                            :   STEP VALUE
 NULL.        -999.2500                            :   NULL VALUE
 COMP.    WHITE YOUN GREEN                         :   COMPANY NAME
 WELL.    HAWTHORN SHAFT                           :   WELL NAME
 FLD.     HAWTHORN                                 :   FIELD NAME
 LOC.     N/A                                      :   LOCATION
 PROV.    N/A                                      :   PROVINCE
 SRVC.    N/A                                      :   SERVICE COMPANY NAME
 DATE.    14 Dec 06                                :   DATE
 UWI.     N/A                                      :   UNIQUE WELL IDENTIFIER
~PARAMETER INFORMATION
#MNEMO.UNIT         VALUE                 DESCRIPTION OF MNEMONIC
#------------------------------------------------------------------------------
~OTHER INFORMATION SECTION
#------------------------------------------------------------------------------
 lLOGGING DOWN
~CURVE INFORMATION
#MNEMO.UNIT         API CODE              CURVE DESCRIPTION
#------------------------------------------------------------------------------
 DEPTH.M                                 :   0     Depth
 TEMP.DegC                               :   1     Temperature
 CN25.mS/cm                              :   2     Conductivity@25DegC
 COND.mS/cm                              :   3     Conductivity
 DELT.DegC                               :   4     Delta T
 DELC.mS/cm                              :   5     Delta C
 NGAM.CPS                                :   6     Natural Gamma
#------------------------------------------------------------------------------
~A  DEPTH     TEMP      CN25      COND      DELT      DELC      NGAM      
# ...
   379.08     17.02     28.16     22.79     -0.00      0.01      0.82 
   379.09     17.02     28.16     22.79     -0.01      0.02      0.82 
   379.10     17.02     28.16     22.79     -0.01      0.02      0.82 
   379.11     17.02     28.16     22.79     -0.01      0.01      1.24 
   379.12     17.02     28.16     22.79     -0.00      0.01      0.82 
   379.13     17.02     28.17     22.79     -0.00      0.01      0.82 
   379.14     17.02     28.17     22.79     -0.00      0.01      0.82 
   379.15     17.02     28.16     22.79     -0.00      0.01      0.82 
   379.16     17.02     28.16     22.79     -0.00      0.01      0.82 
   379.17     17.02     28.16     22.79     -0.00      0.01      0.82 
   379.18     17.02     28.16     22.79      0.00      0.00      0.82 
   379.19     17.02     28.16     22.79      0.00     -0.00      0.82 
   379.20     17.02     28.16     22.79      0.01     -0.00      0.82 
   379.21     17.02     28.16     22.79      0.01     -0.01      0.82 
   379.22     17.02     28.16     22.79      0.01     -0.01      0.82 
   379.23     17.02     28.16     22.79      0.01     -0.01      0.41 
   379.24     17.02     28.16     22.79      0.01     -0.01      0.41 
   379.25     17.02     28.16     22.79      0.00     -0.01      0.41 
   379.26     17.02     28.17     22.79      0.00     -0.00      0.41 
   379.27     17.01     28.17     22.79      0.00      0.01      0.41 
   379.28     17.01     28.17     22.79     -0.00      0.00      0.00 
   379.29     17.01     28.17     22.79     -0.00      0.00      0.00 
   379.30     17.01     28.17     22.79     -0.00      0.00      0.00 
   379.31     17.01     28.17     22.79     -0.00      0.01      0.00 
   379.32     17.02     28.16     22.79     -0.00      0.01      0.00 
   379.33     17.02     28.17     22.79     -0.00      0.01      0.00 
   379.34     17.02     28.16     22.79     -0.01      0.01      0.00 
   379.35     17.02     28.16     22.79     -0.01      0.01      0.00 
   379.36     17.02     28.15     22.79     -0.01      0.01      0.00 
   379.37     17.02     28.15     22.79     -0.00      0.01      0.41 
   379.38     17.02     28.15     22.79     -0.00      0.00      0.41 
   379.39     17.02     28.15     22.79     -0.00      0.01      0.41 
   379.40     17.02     28.15     22.79      0.00      0.00      0.41 
   379.41     17.02     28.15     22.79      0.00      0.01      0.41 
   379.42     17.02     28.15     22.79      0.00     -0.00      0.82 
   379.43     17.02     28.15     22.79      0.00     -0.01      1.24 
   379.44     17.02     28.15     22.79      0.00     -0.01      1.24 
   379.45     17.03     28.15     22.79      0.01     -0.01      1.65 
   379.46     17.03     28.15     22.79      0.01     -0.01      1.65 
   379.47     17.03     28.15     22.79      0.01     -0.01      1.65 
   379.48     17.03     28.15     22.79      0.01     -0.01      1.65 
   379.49     17.03     28.15     22.79      0.01     -0.01      1.65 
   379.50     17.03     28.15     22.79      0.01     -0.01      1.65 
   379.51     17.03     28.15     22.79      0.01     -0.02      1.65 
   379.52     17.02     28.15     22.79      0.01     -0.02      1.65 
   379.53     17.02     28.15     22.79      0.01     -0.02      1.65 
   379.54     17.02     28.16     22.79      0.01     -0.01      1.24 
   379.55     17.02     28.16     22.79      0.01     -0.01      1.24 
   379.56     17.02     28.16     22.79      0.01     -0.01      1.24 
   379.57     17.02     28.17     22.79      0.01     -0.01      1.24 
   379.58     17.01     28.17     22.79      0.01     -0.01      1.24 
   379.59     17.01     28.17     22.79      0.01     -0.01      0.82 
   379.60     17.01     28.17     22.79      0.01     -0.01      0.41 
   379.61     17.01     28.17     22.79      0.00     -0.01      0.41 
   379.62     17.02     28.17     22.79      0.00     -0.00      0.00 
   379.63     17.02     28.17     22.79      0.00     -0.00      0.00 
   379.64     17.02     28.17     22.79      0.00     -0.00      0.00 
   379.65     17.02     28.16     22.79      0.00     -0.00      0.00 
   379.66     17.02     28.16     22.79      0.00     -0.00      0.00 
   379.67     17.02     28.16     22.79      0.00      0.00      0.00 
   379.68     17.02     28.16     22.79      0.00     -0.00      0.41 
   379.69     17.02     28.16     22.79      0.00     -0.00      0.41 
   379.70     17.02     28.16     22.79      0.00      0.00      0.41 
   379.71     17.02     28.16     22.79      0.00      0.00      0.41 
   379.72     17.02     28.16     22.79      0.00      0.01      0.41 
   379.73     17.02     28.15     22.79      0.00      0.00      0.41 
   379.74     17.02     28.15     22.79      0.00     -0.00      0.41 
   379.75     17.02     28.15     22.79      0.00      0.00      0.41 
   379.76     17.02     28.15     22.79      0.00      0.00      0.41 
   379.77     17.02     28.15     22.79      0.00      0.00      0.41 
   379.78     17.02     28.15     22.79      0.00      0.00      0.41 
   379.79     17.02     28.15     22.79     -0.00      0.00      0.41 
   379.80     17.02     28.15     22.79     -0.00      0.00      0.41 
   379.81     17.02     28.15     22.79     -0.00      0.01      0.41 
   379.82     17.02     28.15     22.79     -0.01      0.01      0.41 
   379.83     17.02     28.15     22.79     -0.01      0.01      0.41 
   379.84     17.02     28.16     22.79     -0.01      0.02      0.41 
   379.85     17.02     28.16     22.79     -0.01      0.02      0.00 
   379.86     17.02     28.16     22.79     -0.01      0.02      0.00 
   379.87     17.02     28.16     22.79     -0.01      0.02      0.00 
   379.88     17.02     28.16     22.79     -0.01      0.02      0.00 
   379.89     17.02     28.16     22.79     -0.01      0.02      0.00 
   379.90     17.02     28.16     22.79     -0.01      0.02      0.00 
   379.91     17.02     28.16     22.79     -0.01      0.02      0.35 
   379.92     17.02     28.16     22.79     -0.01      0.02      0.35 
   379.93     17.02     28.16     22.79     -0.00      0.02      0.35 
   379.94     17.02     28.16     22.79     -0.00      0.01      0.35 
   379.95     17.02     28.16     22.79     -0.00      0.02      0.35 
   379.96     17.02     28.17     22.79     -0.01      0.02      0.35 
   379.97     17.02     28.17     22.79     -0.01      0.02      0.35 
   379.98     17.02     28.16     22.79     -0.00      0.02      0.35 
   379.99     17.02     28.16     22.79     -0.00      0.02      0.35 
   380.00     17.02     28.16     22.79     -0.00      0.01      0.35 
   380.01     17.02     28.16     22.79     -0.00      0.01      0.35 
   380.02     17.02     28.17     22.79     -0.00      0.01      0.35 
   380.03     17.02     28.16     22.79     -0.00      0.01      0.35 
   380.04     17.02     28.16     22.79     -0.00      0.01      0.35 
   380.05     17.02     28.16     22.79      0.00      0.00      0.35 
   380.06     17.02     28.16     22.79      0.00     -0.00      0.35 
   380.07     17.02     28.17     22.79     -0.00      0.00      0.35 
   380.08     17.01     28.17     22.79     -0.00      0.01      0.00 
   380.09     17.01     28.17     22.79     -0.00      0.01      0.00 
   380.10     17.01     28.18     22.80     -0.01      0.02      0.00 
   380.11     17.01     28.18     22.80     -0.01      0.02      0.00 
   380.12     17.01     28.18     22.80     -0.01      0.01      0.00 
   380.13     17.01     28.18     22.79     -0.01      0.01      0.00 
   380.14     17.01     28.18     22.79     -0.01      0.02      0.00 
   380.15     17.01     28.18     22.79     -0.01      0.02      0.00 
   380.16     17.01     28.18     22.79     -0.01      0.02      0.00 
   380.17     17.01     28.18     22.79     -0.01      0.02      0.00 
   380.18     17.01     28.18     22.79     -0.01      0.02      0.00 
   380.19     17.01     28.17     22.79     -0.01      0.01      0.00 
   380.20     17.02     28.17     22.79     -0.00      0.01      0.00 
