#Written by Robertson Geologging WinLogger V1.0/406
~VERSION INFORMATION
#------------------------------------------------------------------------------
 VERS. 2.0 : CWLS LOG ASCII STANDARD - VERSION 2.0
 WRAP. NO  : ONE LINE PER DEPTH STEP
~WELL INFORMATION
#MNEM.UNIT         DATA                                DESCRIPTION OF MNEMONIC
#------------------------------------------------------------------------------
 STRT.M        115.9300                            :   START DEPTH
 STOP.M        440.0000                            :   STOP DEPTH
 STEP.M          0.0100                            :   STEP VALUE
 NULL.        -999.2500                            :   NULL VALUE
 COMP.    Coal Authority                           :   COMPANY NAME
 WELL.    Hawthorn Shaft                           :   WELL NAME
 FLD.     Hawthorn                                 :   FIELD NAME
 LOC.     N/A                                      :   LOCATION
 PROV.    N/A                                      :   PROVINCE
 SRVC.    N/A                                      :   SERVICE COMPANY NAME
 DATE.    28 Aug 08                                :   DATE
 UWI.     N/A                                      :   UNIQUE WELL IDENTIFIER
~PARAMETER INFORMATION
#MNEMO.UNIT         VALUE                 DESCRIPTION OF MNEMONIC
#------------------------------------------------------------------------------
~OTHER INFORMATION SECTION
#------------------------------------------------------------------------------
 TCGS 1365
 Logged in low conductivity mode as starting readings were so low.
~CURVE INFORMATION
#MNEMO.UNIT         API CODE              CURVE DESCRIPTION
#------------------------------------------------------------------------------
 DEPTH.M                                 :   0     Depth
 TEMP.DegC                               :   1     Temperature
 CN25.uS/cm                              :   2     Conductivity@25DegC
 DELT.DegC                               :   3     Delta T
 DELC.uS/cm                              :   4     Delta C
 NGAM.CPS                                :   5     Natural Gamma
 COND.uS/cm                              :   6     Conductivity
#------------------------------------------------------------------------------
~A  DEPTH     TEMP      CN25      DELT      DELC      NGAM      COND      
# ...
   201.81     13.00   1578.71      0.02     -0.82      0.00   1195.88 
   201.82     13.00   1582.27      0.01     -0.41      0.00   1198.58 
   201.83     13.01   1578.51      0.01     -0.41      0.00   1195.88 
   201.84     12.99   1574.38     -0.00      0.20      0.00   1192.28 
   201.85     12.98   1583.09     -0.00      3.76      7.00   1198.58 
   201.86     12.97   1579.94     -0.00      4.95      0.00   1195.88 
   201.87     12.96   1575.61     -0.01     -4.33      0.00   1192.28 
   201.88     12.98   1579.53      0.00     -3.76      0.00   1195.88 
   201.89     12.99   1582.88      0.01      3.15      0.00   1198.58 
   201.90     12.99   1568.46      0.01     -6.33      0.00   1187.78 
   201.91     13.00   1582.47      0.01     -0.62      0.00   1198.58 
   201.92     12.99   1579.12      0.00     -0.20      0.00   1195.88 
   201.93     12.99   1574.59     -0.00      0.20      0.00   1192.28 
   201.94     12.98   1579.53     -0.01     -3.15      0.00   1195.88 
   201.95     12.98   1583.09     -0.00     14.43      0.00   1198.58 
   201.96     12.98   1579.53      0.00     -3.56      8.00   1195.88 
   201.97     12.98   1574.79     -0.01     -4.33      0.00   1192.28 
   201.98     12.98   1579.53     -0.00      4.95      0.00   1195.88 
   201.99     12.98   1583.29     -0.01      0.41      0.00   1198.58 
   202.00     12.98   1579.74     -0.01      0.41      0.00   1195.88 
   202.01     12.98   1574.79      0.01     -0.41      0.00   1192.28 
   202.02     12.98   1579.74     -0.01     -2.94      0.00   1195.88 
   202.03     12.99   1582.68      0.00      3.35      0.00   1198.58 
   202.04     12.99   1579.33     -0.01      5.15      0.00   1195.88 
   202.05     12.99   1574.59     -0.01     -4.33      0.00   1192.28 
   202.06     12.99   1579.12      0.00     -3.56      8.00   1195.88 
   202.07     12.98   1574.79     -0.01      0.61      0.00   1192.28 
   202.08     12.98   1583.09     -0.02      4.38      0.00   1198.58 
   202.09     12.98   1579.53     -0.02      5.56      0.00   1195.88 
   202.10     12.99   1574.59     -0.01     -4.13      0.00   1192.28 
   202.11     12.99   1579.12     -0.01      5.15      0.00   1195.88 
   202.12     12.99   1582.68     -0.00      8.50      0.00   1198.58 
   202.13     12.99   1574.59     -0.00     -4.54      0.00   1192.28 
   202.14     12.99   1579.33     -0.01     -3.15      0.00   1195.88 
   202.15     12.98   1583.09      0.00      8.30      0.00   1198.58 
   202.16     12.99   1574.59      0.00     -4.74      0.00   1192.28 
   202.17     13.00   1578.92      0.00     -3.76      0.00   1195.88 
   202.18     12.99   1582.88      0.00      3.56      0.00   1198.58 
   202.19     12.99   1574.38     -0.01      0.41      7.00   1192.28 
   202.20     12.98   1579.53     -0.01      0.61      0.00   1195.88 
   202.21     12.98   1574.99     -0.01      0.61      0.00   1192.28 
   202.22     12.99   1579.33      0.00     -3.56      0.00   1195.88 
   202.23     12.98   1583.09     -0.01      4.17      7.00   1198.58 
   202.24     12.99   1574.38      0.00      0.00      0.00   1192.28 
   202.25     12.99   1579.12      0.00     -3.76      0.00   1195.88 
   202.26     12.99   1582.88      0.00      3.56      0.00   1198.58 
   202.27     13.00   1578.92      0.03      3.51      0.00   1195.88 
   202.28     12.99   1574.38      0.02     -5.77      7.00   1192.28 
   202.29     13.00   1578.92      0.03     -4.99      0.00   1195.88 
   202.30     12.99   1582.68      0.03      7.07      0.00   1198.58 
   202.31     12.99   1574.59      0.01     -5.15      0.00   1192.28 
   202.32     12.98   1579.53      0.01     -3.97      0.00   1195.88 
   202.33     12.97   1583.50     -0.02      4.38      0.00   1198.58 
   202.34     12.99   1579.33     -0.01      5.15      0.00   1195.88 
   202.35     12.99   1574.59     -0.01     -4.13      0.00   1192.28 
   202.36     13.00   1574.18     -0.01      0.61      0.00   1192.28 
   202.37     13.00   1578.71      0.00     -3.55      0.00   1195.88 
   202.38     12.99   1582.88     -0.02      4.38      0.00   1198.58 
   202.39     13.00   1578.92      0.00      4.74      0.00   1195.88 
   202.40     12.99   1574.59     -0.02     -3.92      0.00   1192.28 
   202.41     12.98   1583.29     -0.03      1.23      0.00   1198.58 
   202.42     12.99   1579.33     -0.01      0.41      0.00   1195.88 
   202.43     12.98   1574.79     -0.01      0.61      0.00   1192.28 
   202.44     12.99   1582.88      0.00      3.35      0.00   1198.58 
   202.45     12.98   1579.53     -0.00     -3.35      0.00   1195.88 
   202.46     12.97   1575.20     -0.02      0.82      0.00   1192.28 
   202.47     12.98   1579.74     -0.02      0.82      0.00   1195.88 
   202.48     12.97   1583.50     -0.03      9.53      0.00   1198.58 
   202.49     12.98   1574.99     -0.02     -3.72      7.00   1192.28 
   202.50     12.98   1579.74     -0.01     -2.94      0.00   1195.88 
   202.51     12.98   1574.99     -0.00     -4.54      0.00   1192.28 
   202.52     12.98   1579.74      0.00      4.54      0.00   1195.88 
   202.53     12.98   1583.09      0.01      3.15      0.00   1198.58 
   202.54     12.99   1579.33      0.01     -0.41      0.00   1195.88 
   202.55     12.98   1574.79      0.00     -8.30      0.00   1192.28 
   202.56     12.98   1579.74     -0.01      0.61      0.00   1195.88 
   202.57     12.97   1583.50     -0.02      9.32      0.00   1198.58 
   202.58     12.97   1579.94     -0.02     -2.53      0.00   1195.88 
   202.59     12.98   1574.99     -0.02     -3.72      0.00   1192.28 
   202.60     12.98   1579.53     -0.01      0.41      8.00   1195.88 
   202.61     12.97   1583.50     -0.02      9.12      0.00   1198.58 
   202.62     12.97   1580.15     -0.01      0.61      0.00   1195.88 
   202.63     12.97   1575.40     -0.01      0.41      0.00   1192.28 
   202.64     12.98   1579.74     -0.00      0.20      0.00   1195.88 
   202.65     12.99   1574.59      0.01     -8.71      0.00   1192.28 
   202.66     12.99   1579.33      0.00     -0.20      8.00   1195.88 
   202.67     12.99   1582.68      0.01      7.89      0.00   1198.58 
   202.68     12.98   1579.53      0.00      0.00      0.00   1195.88 
   202.69     12.98   1574.79     -0.00     -8.09      0.00   1192.28 
   202.70     12.97   1579.94     -0.02      0.82      0.00   1195.88 
   202.71     12.97   1583.50     -0.02      9.12      0.00   1198.58 
   202.72     12.98   1579.74     -0.01      0.41      0.00   1195.88 
   202.73     12.97   1575.40     -0.01     -7.69      0.00   1192.28 
   202.74     12.98   1579.74     -0.00      4.95      0.00   1195.88 
   202.75     12.98   1583.09      0.00      3.56      7.00   1198.58 
   202.76     12.98   1579.74     -0.01      5.15      0.00   1195.88 
   202.77     12.98   1574.99     -0.02     -3.92      0.00   1192.28 
   202.78     12.97   1579.94     -0.02     -2.53      0.00   1195.88 
   202.79     12.98   1574.99     -0.02      0.82      0.00   1192.28 
   202.80     12.98   1579.53     -0.02      0.82      0.00   1195.88 
   202.81     12.99   1579.12     -0.01     -3.15      0.00   1195.88 
   202.82     12.99   1582.68     -0.01      4.17      7.00   1198.58 
   202.83     12.99   1574.38      0.00      0.00     14.00   1192.28 
   202.84     12.99   1579.12      0.01     -3.97      0.00   1195.88 
   202.85     13.00   1578.92      0.02     -1.02      0.00   1195.88 
   202.86     12.99   1582.68      0.03      7.07      0.00   1198.58 
   202.87     12.98   1574.79      0.00     -4.74      0.00   1192.28 
   202.88     12.98   1579.74     -0.01     -3.15      0.00   1195.88 
   202.89     12.97   1583.71     -0.02     15.25      0.00   1198.58 
   202.90     12.98   1579.74     -0.02     -2.74      0.00   1195.88 
   202.91     12.98   1574.79     -0.01     -4.33      0.00   1192.28 
   202.92     12.98   1574.79     -0.00      0.20      0.00   1192.28 
   202.93     12.99   1579.12      0.01     -0.41      0.00   1195.88 
