#Written by Robertson Geologging WinLogger V1.0/370
~VERSION INFORMATION
#------------------------------------------------------------------------------
 VERS. 2.0 : CWLS LOG ASCII STANDARD - VERSION 2.0
 WRAP. NO  : ONE LINE PER DEPTH STEP
~WELL INFORMATION
#MNEM.UNIT         DATA                                DESCRIPTION OF MNEMONIC
#------------------------------------------------------------------------------
 STRT.M        118.0500                            :   START DEPTH
 STOP.M        420.0800                            :   STOP DEPTH
 STEP.M          0.0100                            :   STEP VALUE
 NULL.        -999.2500                            :   NULL VALUE
 COMP.    WHITE YOUN GREEN                         :   COMPANY NAME
 WELL.    HAWTHORN SHAFT                           :   WELL NAME
 FLD.     HAWTHORN                                 :   FIELD NAME
 LOC.     N/A                                      :   LOCATION
 PROV.    N/A                                      :   PROVINCE
 SRVC.    N/A                                      :   SERVICE COMPANY NAME
 DATE.    14 Dec 06                                :   DATE
 UWI.     N/A                                      :   UNIQUE WELL IDENTIFIER
~PARAMETER INFORMATION
#MNEMO.UNIT         VALUE                 DESCRIPTION OF MNEMONIC
#------------------------------------------------------------------------------
~OTHER INFORMATION SECTION
#------------------------------------------------------------------------------
 lLOGGING DOWN
~CURVE INFORMATION
#MNEMO.UNIT         API CODE              CURVE DESCRIPTION
#------------------------------------------------------------------------------
 DEPTH.M                                 :   0     Depth
 TEMP.DegC                               :   1     Temperature
 CN25.mS/cm                              :   2     Conductivity@25DegC
 COND.mS/cm                              :   3     Conductivity
 DELT.DegC                               :   4     Delta T
 DELC.mS/cm                              :   5     Delta C
 NGAM.CPS                                :   6     Natural Gamma
#------------------------------------------------------------------------------
~A  DEPTH     TEMP      CN25      COND      DELT      DELC      NGAM      
# ...
   318.06     17.00     26.87     21.68     -0.00      0.01      0.88 
   318.07     17.00     26.87     21.68     -0.00      0.01      0.88 
   318.08     17.00     26.87     21.68     -0.00      0.01      0.88 
   318.09     17.00     26.87     21.67     -0.00      0.01      0.88 
   318.10     17.00     26.87     21.67     -0.00      0.01      0.88 
   318.11     17.00     26.86     21.67     -0.00      0.00      0.47 
   318.12     17.00     26.86     21.67      0.00      0.00      0.47 
   318.13     17.00     26.85     21.67      0.00     -0.00      0.47 
   318.14     17.01     26.85     21.67      0.00     -0.01      0.47 
   318.15     17.01     26.85     21.67      0.01     -0.01      0.00 
   318.16     17.00     26.86     21.67      0.00     -0.01      0.00 
   318.17     17.00     26.85     21.67      0.00     -0.01      0.00 
   318.18     17.00     26.86     21.67      0.00     -0.00      0.00 
   318.19     17.00     26.86     21.67      0.00     -0.00      0.00 
   318.20     17.00     26.87     21.68      0.00      0.00      0.00 
   318.21     17.00     26.87     21.68      0.00      0.00      0.00 
   318.22     17.00     26.87     21.68      0.00      0.00      0.00 
   318.23     16.99     26.88     21.68     -0.00      0.01      0.00 
   318.24     16.99     26.88     21.68     -0.01      0.01      0.00 
   318.25     16.99     26.88     21.68     -0.01      0.02      0.00 
   318.26     16.99     26.88     21.68     -0.01      0.02      0.00 
   318.27     16.99     26.87     21.68     -0.01      0.01      0.00 
   318.28     16.99     26.88     21.68     -0.01      0.02      0.00 
   318.29     17.00     26.87     21.68     -0.01      0.02      0.00 
   318.30     17.00     26.88     21.68     -0.01      0.02      0.00 
   318.31     17.00     26.87     21.68     -0.01      0.02      0.00 
   318.32     17.00     26.87     21.68     -0.01      0.02      0.00 
   318.33     17.00     26.87     21.68     -0.01      0.02      0.00 
   318.34     17.00     26.86     21.68     -0.01      0.02      0.00 
   318.35     17.00     26.86     21.68     -0.01      0.03      0.00 
   318.36     17.00     26.86     21.68     -0.01      0.03      0.41 
   318.37     17.00     26.86     21.68     -0.02      0.03      0.41 
   318.38     17.00     26.87     21.68     -0.02      0.04      0.41 
   318.39     17.00     26.87     21.67     -0.02      0.03      0.41 
   318.40     17.00     26.87     21.68     -0.02      0.03      0.41 
   318.41     17.00     26.87     21.68     -0.02      0.03      0.41 
   318.42     17.00     26.86     21.67     -0.01      0.02      0.41 
   318.43     17.00     26.87     21.68     -0.01      0.02      0.41 
   318.44     17.00     26.87     21.68     -0.01      0.01      0.41 
   318.45     17.00     26.87     21.68     -0.01      0.02      0.41 
   318.46     17.00     26.87     21.68     -0.01      0.01      0.41 
   318.47     17.00     26.87     21.67     -0.01      0.01      0.41 
   318.48     16.99     26.88     21.68     -0.01      0.02      0.41 
   318.49     16.99     26.88     21.68     -0.01      0.01      0.41 
   318.50     16.99     26.88     21.68     -0.01      0.02      0.41 
   318.51     16.99     26.88     21.68     -0.01      0.01      0.41 
   318.52     16.99     26.88     21.67     -0.01      0.01      0.41 
   318.53     16.99     26.89     21.68     -0.01      0.02      0.00 
   318.54     16.99     26.89     21.68     -0.01      0.02      0.00 
   318.55     16.98     26.89     21.68     -0.01      0.03      0.00 
   318.56     16.98     26.90     21.68     -0.02      0.03      0.00 
   318.57     16.98     26.90     21.68     -0.02      0.03      0.00 
   318.58     16.98     26.89     21.68     -0.02      0.03      0.41 
   318.59     16.99     26.89     21.68     -0.01      0.03      0.41 
   318.60     16.99     26.89     21.67     -0.01      0.02      0.41 
   318.61     16.99     26.89     21.68     -0.01      0.02      0.41 
   318.62     16.99     26.89     21.68     -0.01      0.03      0.41 
   318.63     16.99     26.89     21.68     -0.02      0.03      0.41 
   318.64     16.99     26.89     21.68     -0.02      0.03      0.41 
   318.65     16.99     26.89     21.68     -0.01      0.03      0.41 
   318.66     16.99     26.89     21.68     -0.01      0.02      0.41 
   318.67     16.99     26.89     21.68     -0.01      0.02      0.41 
   318.68     16.99     26.88     21.68     -0.01      0.01      0.41 
   318.69     16.99     26.88     21.68     -0.01      0.01      0.41 
   318.70     16.99     26.88     21.68     -0.00      0.01      0.41 
   318.71     16.99     26.88     21.68     -0.00      0.01      0.41 
   318.72     16.99     26.88     21.68     -0.00      0.01      0.41 
   318.73     16.99     26.88     21.68     -0.00      0.01      0.41 
   318.74     16.99     26.88     21.68     -0.00      0.01      0.41 
   318.75     16.99     26.88     21.68     -0.00      0.01      0.00 
   318.76     16.99     26.88     21.68     -0.00      0.01      0.00 
   318.77     16.99     26.88     21.68     -0.00      0.01      0.00 
   318.78     16.99     26.88     21.68     -0.01      0.01      0.00 
   318.79     16.99     26.87     21.67     -0.01      0.01      0.00 
   318.80     16.99     26.88     21.68     -0.01      0.02      0.00 
   318.81     17.00     26.88     21.68     -0.01      0.02      0.82 
   318.82     17.00     26.88     21.68     -0.01      0.02      0.82 
   318.83     17.00     26.87     21.68     -0.01      0.02      0.82 
   318.84     17.00     26.87     21.68     -0.01      0.01      0.82 
   318.85     17.00     26.87     21.68     -0.01      0.02      0.82 
   318.86     17.00     26.88     21.68     -0.01      0.01      0.82 
   318.87     17.00     26.87     21.68     -0.01      0.01      0.82 
   318.88     17.00     26.87     21.68     -0.00      0.01      0.82 
   318.89     17.00     26.87     21.68     -0.00      0.00      0.82 
   318.90     17.00     26.87     21.68      0.00      0.00      0.82 
   318.91     17.00     26.87     21.68      0.00     -0.00      0.82 
   318.92     17.00     26.87     21.68      0.00     -0.01      0.82 
   318.93     17.00     26.87     21.68      0.00     -0.00      0.82 
   318.94     17.00     26.87     21.68      0.00     -0.01      0.82 
   318.95     17.00     26.86     21.67      0.01     -0.01      0.82 
   318.96     17.00     26.86     21.68      0.00     -0.01      1.24 
   318.97     17.00     26.86     21.68      0.00     -0.01      1.24 
   318.98     17.00     26.86     21.68      0.00     -0.00      0.41 
   318.99     17.00     26.87     21.68      0.00     -0.01      0.41 
   319.00     17.00     26.87     21.68      0.00     -0.00      0.41 
   319.01     17.00     26.87     21.68      0.00     -0.00      0.41 
   319.02     17.00     26.88     21.68      0.00      0.00      0.41 
   319.03     16.99     26.88     21.67     -0.00      0.00      0.41 
   319.04     16.99     26.88     21.68     -0.00      0.01      0.41 
   319.05     16.99     26.88     21.67     -0.01      0.01      0.41 
   319.06     16.99     26.88     21.67     -0.01      0.01      0.41 
   319.07     16.99     26.88     21.67     -0.00      0.00      0.41 
   319.08     16.99     26.87     21.67     -0.00      0.01      0.41 
   319.09     17.00     26.87     21.67     -0.00      0.00      0.41 
   319.10     17.00     26.87     21.67     -0.00      0.01      0.82 
   319.11     17.00     26.87     21.67     -0.00      0.01      1.24 
   319.12     17.00     26.86     21.67     -0.00      0.01      1.65 
   319.13     17.00     26.86     21.67     -0.00      0.01      1.24 
   319.14     17.00     26.86     21.68     -0.00      0.01      1.65 
   319.15     17.00     26.86     21.67      0.00      0.00      1.65 
   319.16     17.01     26.86     21.68      0.00      0.00      1.65 
   319.17     17.00     26.86     21.68      0.00      0.00      1.65 
   319.18     17.00     26.86     21.68      0.00      0.00      1.65 
