#Written by Robertson Geologging WinLogger V1.0/406
~VERSION INFORMATION
#------------------------------------------------------------------------------
 VERS. 2.0 : CWLS LOG ASCII STANDARD - VERSION 2.0
 WRAP. NO  : ONE LINE PER DEPTH STEP
~WELL INFORMATION
#MNEM.UNIT         DATA                                DESCRIPTION OF MNEMONIC
#------------------------------------------------------------------------------
 STRT.M        115.9300                            :   START DEPTH
 STOP.M        440.0000                            :   STOP DEPTH
 STEP.M          0.0100                            :   STEP VALUE
 NULL.        -999.2500                            :   NULL VALUE
 COMP.    Coal Authority                           :   COMPANY NAME
 WELL.    Hawthorn Shaft                           :   WELL NAME
 FLD.     Hawthorn                                 :   FIELD NAME
 LOC.     N/A                                      :   LOCATION
 PROV.    N/A                                      :   PROVINCE
 SRVC.    N/A                                      :   SERVICE COMPANY NAME
 DATE.    28 Aug 08                                :   DATE
 UWI.     N/A                                      :   UNIQUE WELL IDENTIFIER
~PARAMETER INFORMATION
#MNEMO.UNIT         VALUE                 DESCRIPTION OF MNEMONIC
#------------------------------------------------------------------------------
~OTHER INFORMATION SECTION
#------------------------------------------------------------------------------
 TCGS 1365
 Logged in low conductivity mode as starting readings were so low.
~CURVE INFORMATION
#MNEMO.UNIT         API CODE              CURVE DESCRIPTION
#------------------------------------------------------------------------------
 DEPTH.M                                 :   0     Depth
 TEMP.DegC                               :   1     Temperature
 CN25.uS/cm                              :   2     Conductivity@25DegC
 DELT.DegC                               :   3     Delta T
 DELC.uS/cm                              :   4     Delta C
 NGAM.CPS                                :   5     Natural Gamma
 COND.uS/cm                              :   6     Conductivity
#------------------------------------------------------------------------------
~A  DEPTH     TEMP      CN25      DELT      DELC      NGAM      COND      
# ...
   223.28     12.98   1574.99     -0.03     -3.51      0.00   1192.28 
   223.29     12.99   1579.33     -0.01     -3.15      0.00   1195.88 
   223.30     12.98   1583.09     -0.01      8.71      0.00   1198.58 
   223.31     12.99   1579.33      0.00     -0.20      0.00   1195.88 
   223.32     12.99   1574.38      0.01     -8.71      0.00   1192.28 
   223.33     12.98   1583.29     -0.01      8.71      0.00   1198.58 
   223.34     12.98   1579.74     -0.01      0.41      0.00   1195.88 
   223.35     12.98   1574.99     -0.01     -7.89      0.00   1192.28 
   223.36     12.99   1582.68      0.00      3.35      0.00   1198.58 
   223.37     12.99   1579.12      0.00      4.54      0.00   1195.88 
   223.38     12.99   1582.88      0.00     -0.21      0.00   1198.58 
   223.39     12.99   1579.33      0.00     -0.20      0.00   1195.88 
   223.40     12.97   1575.20     -0.01     -7.89      0.00   1192.28 
   223.41     12.98   1583.29     -0.00      8.50      0.00   1198.58 
   223.42     12.99   1579.33      0.00     -0.20      0.00   1195.88 
   223.43     12.98   1574.79      0.00     -8.50      0.00   1192.28 
   223.44     12.99   1582.88     -0.00      3.76      0.00   1198.58 
   223.45     12.98   1579.53     -0.01      5.35      0.00   1195.88 
   223.46     12.98   1574.79     -0.01     -7.89      0.00   1192.28 
   223.47     12.99   1579.33     -0.01      0.61      0.00   1195.88 
   223.48     12.99   1582.68      0.00      8.30      0.00   1198.58 
   223.49     13.00   1574.18      0.02     -9.12      0.00   1192.28 
   223.50     13.00   1588.19      0.02      8.46      0.00   1203.09 
   223.51     12.99   1574.38      0.01     -0.61      0.00   1192.28 
   223.52     12.99   1582.88      0.00     -0.21      0.00   1198.58 
   223.53     12.99   1579.33      0.01     -0.41      0.00   1195.88 
   223.54     12.98   1574.99     -0.00     -4.54      0.00   1192.28 
   223.55     12.97   1579.94     -0.01      0.61      0.00   1195.88 
   223.56     12.97   1583.50     -0.01      0.62      7.00   1198.58 
   223.57     12.97   1580.15     -0.03      6.17      0.00   1195.88 
   223.58     12.98   1574.99     -0.02     -3.92      0.00   1192.28 
   223.59     12.98   1579.53     -0.01     -3.15      0.00   1195.88 
   223.60     12.98   1583.09     -0.01      8.91      0.00   1198.58 
   223.61     12.99   1579.33     -0.00      0.20      0.00   1195.88 
   223.62     12.99   1574.38      0.00     -4.74      0.00   1192.28 
   223.63     12.98   1583.09     -0.01      0.62      0.00   1198.58 
   223.64     13.00   1578.92      0.01     -0.41      0.00   1195.88 
   223.65     12.99   1582.68      0.00      8.09      0.00   1198.58 
   223.66     12.99   1579.12      0.00     -0.20      0.00   1195.88 
   223.67     13.00   1574.18      0.02     -9.12      0.00   1192.28 
   223.68     12.99   1579.33      0.00     -0.20      0.00   1195.88 
   223.69     12.98   1583.09     -0.01      8.71      0.00   1198.58 
   223.70     12.99   1579.33     -0.00      0.20      0.00   1195.88 
   223.71     12.98   1574.79     -0.01     -4.13      0.00   1192.28 
   223.72     12.99   1582.68     -0.00      0.21      0.00   1198.58 
   223.73     12.99   1568.46      0.01     -6.33      0.00   1187.78 
   223.74     12.99   1574.59      0.00    -14.43      0.00   1192.28 
   223.75     12.99   1579.12      0.00      4.54      0.00   1195.88 
   223.76     12.99   1582.68      0.00      3.56      0.00   1198.58 
   223.77     12.99   1579.12     -0.01      0.41      0.00   1195.88 
   223.78     12.99   1579.12     -0.02     -2.74      0.00   1195.88 
   223.79     13.00   1582.47     -0.01      3.96      0.00   1198.58 
   223.80     13.00   1578.92      0.00      4.74      0.00   1195.88 
   223.81     12.99   1574.38      0.00     -8.30      0.00   1192.28 
   223.82     12.99   1579.12      0.01     -0.41      0.00   1195.88 
   223.83     12.98   1583.09      0.01      7.89      0.00   1198.58 
   223.84     12.99   1574.38      0.01     -5.36      0.00   1192.28 
   223.85     13.00   1578.92      0.02     -4.58      0.00   1195.88 
   223.86     13.00   1582.27      0.02      7.27      7.00   1198.58 
   223.87     13.01   1578.30      0.03     -4.99      0.00   1195.88 
   223.88     13.00   1574.18      0.02     -5.76      0.00   1192.28 
   223.89     12.99   1579.12      0.01      4.33      0.00   1195.88 
   223.90     12.99   1582.88      0.01      3.15      0.00   1198.58 
   223.91     12.98   1579.53     -0.00     -3.35      8.00   1195.88 
   223.92     12.98   1583.29     -0.01      8.71      0.00   1198.58 
   223.93     12.99   1574.59     -0.00    -14.02      0.00   1192.28 
   223.94     12.99   1579.33      0.00      4.74      0.00   1195.88 
   223.95     12.99   1582.88      0.00      3.56      0.00   1198.58 
   223.96     12.99   1579.12     -0.00     -3.35      0.00   1195.88 
   223.97     12.98   1574.79     -0.00      0.20      0.00   1192.28 
   223.98     12.98   1579.53     -0.01      0.41      0.00   1195.88 
   223.99     12.98   1583.09     -0.00      0.21      0.00   1198.58 
   224.00     12.99   1579.12      0.00     -0.20      0.00   1195.88 
   224.01     13.00   1574.18      0.01     -0.41      0.00   1192.28 
   224.02     12.99   1582.68      0.00      3.35      0.00   1198.58 
   224.03     13.00   1578.92      0.01     -3.97      0.00   1195.88 
   224.04     12.98   1583.09      0.00      3.56      7.00   1198.58 
   224.05     12.98   1574.79      0.00      0.00      0.00   1192.28 
   224.06     12.99   1579.12      0.00      0.00      0.00   1195.88 
   224.07     12.99   1582.68      0.00      0.00      0.00   1198.58 
   224.08     13.01   1573.77      0.01     -5.15      0.00   1192.28 
   224.09     13.00   1578.71      0.01     -3.97      0.00   1195.88 
   224.10     12.99   1582.88      0.01      3.15      0.00   1198.58 
   224.11     12.99   1574.59      0.00      0.00      0.00   1192.28 
   224.12     12.98   1579.53      0.00      0.00      0.00   1195.88 
   224.13     12.98   1583.29     -0.00      0.21      0.00   1198.58 
   224.14     12.99   1579.12      0.00      0.00      0.00   1195.88 
   224.15     12.99   1582.88      0.00      8.09      7.00   1198.58 
   224.16     12.99   1579.12      0.00     -0.20      0.00   1195.88 
   224.17     13.00   1574.18     -0.00     -8.09      0.00   1192.28 
   224.18     12.99   1582.68     -0.01      3.97      0.00   1198.58 
   224.19     12.99   1579.12     -0.01      5.35      0.00   1195.88 
   224.20     12.98   1574.99     -0.02     -3.92      0.00   1192.28 
   224.21     12.98   1579.53     -0.00     -3.35      0.00   1195.88 
   224.22     12.98   1583.09     -0.01      3.97      7.00   1198.58 
   224.23     12.98   1579.53     -0.00     -3.35      0.00   1195.88 
   224.24     12.99   1579.12      0.01      4.33      0.00   1195.88 
   224.25     12.99   1574.38      0.00     -4.95      0.00   1192.28 
   224.26     13.00   1578.71      0.02     -4.58      0.00   1195.88 
   224.27     13.01   1582.06      0.03      7.07      0.00   1198.58 
   224.28     13.01   1578.30      0.02     -1.02      0.00   1195.88 
   224.29     13.00   1582.47      0.01     -0.62      0.00   1198.58 
   224.30     13.00   1578.92      0.01     -0.41      0.00   1195.88 
   224.31     12.99   1574.38      0.00      0.00      0.00   1192.28 
   224.32     12.98   1579.53      0.00     -3.76      0.00   1195.88 
   224.33     12.99   1582.68      0.01      2.94      0.00   1198.58 
   224.34     12.99   1579.33      0.01      4.33      0.00   1195.88 
   224.35     12.99   1574.38      0.00     -8.30      0.00   1192.28 
   224.36     13.00   1578.92      0.00     -0.20      0.00   1195.88 
   224.37     13.00   1582.27      0.01     -0.62      0.00   1198.58 
   224.38     13.01   1578.51      0.02     -0.82      0.00   1195.88 
   224.39     13.01   1573.77      0.03     -1.43      0.00   1192.28 
   224.40     13.00   1582.27      0.02     -1.03      0.00   1198.58 
