#Written by Robertson Geologging WinLogger V1.0/406
~VERSION INFORMATION
#------------------------------------------------------------------------------
 VERS. 2.0 : CWLS LOG ASCII STANDARD - VERSION 2.0
 WRAP. NO  : ONE LINE PER DEPTH STEP
~WELL INFORMATION
#MNEM.UNIT         DATA                                DESCRIPTION OF MNEMONIC
#------------------------------------------------------------------------------
 STRT.M        115.9300                            :   START DEPTH
 STOP.M        440.0000                            :   STOP DEPTH
 STEP.M          0.0100                            :   STEP VALUE
 NULL.        -999.2500                            :   NULL VALUE
 COMP.    Coal Authority                           :   COMPANY NAME
 WELL.    Hawthorn Shaft                           :   WELL NAME
 FLD.     Hawthorn                                 :   FIELD NAME
 LOC.     N/A                                      :   LOCATION
 PROV.    N/A                                      :   PROVINCE
 SRVC.    N/A                                      :   SERVICE COMPANY NAME
 DATE.    28 Aug 08                                :   DATE
 UWI.     N/A                                      :   UNIQUE WELL IDENTIFIER
~PARAMETER INFORMATION
#MNEMO.UNIT         VALUE                 DESCRIPTION OF MNEMONIC
#------------------------------------------------------------------------------
~OTHER INFORMATION SECTION
#------------------------------------------------------------------------------
 TCGS 1365
 Logged in low conductivity mode as starting readings were so low.
~CURVE INFORMATION
#MNEMO.UNIT         API CODE              CURVE DESCRIPTION
#------------------------------------------------------------------------------
 DEPTH.M                                 :   0     Depth
 TEMP.DegC                               :   1     Temperature
 CN25.uS/cm                              :   2     Conductivity@25DegC
 DELT.DegC                               :   3     Delta T
 DELC.uS/cm                              :   4     Delta C
 NGAM.CPS                                :   5     Natural Gamma
 COND.uS/cm                              :   6     Conductivity
#------------------------------------------------------------------------------
~A  DEPTH     TEMP      CN25      DELT      DELC      NGAM      COND      
# ...
   396.17     17.02  21568.76     -0.01      7.45      0.00  18127.04 
   396.18     17.02  21579.77     -0.02     20.94      0.00  18134.21 
   396.19     17.03  21556.48     -0.00      3.70      0.00  18120.89 
   396.20     17.02  21577.29     -0.01     13.50      0.00  18134.21 
   396.21     17.03  21566.27     -0.00      0.04      0.00  18127.04 
   396.22     17.03  21556.48     -0.01     -2.35      0.00  18120.89 
   396.23     17.02  21577.29     -0.02     18.46      0.00  18134.21 
   396.24     17.03  21557.74     -0.01     -3.57      0.00  18119.87 
   396.25     17.04  21563.75      0.00      2.44      0.00  18129.09 
   396.26     17.04  21561.31     -0.00      9.79      0.00  18127.04 
   396.27     17.05  21553.87      0.00     -2.48      0.00  18127.04 
   396.28     17.06  21553.83      0.01     -2.52      0.00  18129.09 
   396.29     17.05  21553.87      0.01     -4.96      0.00  18127.04 
   396.30     17.05  21556.31      0.01     -5.00      0.00  18129.09 
   396.31     17.04  21561.31      0.01     -7.40      0.00  18127.04 
   396.32     17.03  21563.79     -0.00      2.48      0.00  18127.04 
   396.33     17.03  21566.23     -0.01      7.40      0.00  18129.09 
   396.34     17.03  21563.79     -0.01      4.96      0.00  18127.04 
   396.35     17.04  21558.83      0.00      0.00      0.00  18127.04 
   396.36     17.05  21558.79      0.01     -5.00      0.00  18129.09 
   396.37     17.04  21567.36      0.00     13.36      0.00  18134.21 
   396.38     17.05  21546.56      0.02    -17.23      0.00  18120.89 
   396.39     17.04  21558.83      0.00      0.00      0.00  18127.04 
   396.40     17.04  21569.84     -0.00     11.01      0.00  18134.21 
   396.41     17.05  21558.79      0.01     -2.52      0.00  18129.09 
   396.42     17.05  21556.35      0.00     -4.92      0.00  18127.04 
   396.43     17.04  21558.83      0.00     -2.48      0.00  18127.04 
   396.44     17.05  21556.31      0.01      3.53      0.00  18129.09 
   396.45     17.05  21556.35      0.00      0.00      0.00  18127.04 
   396.46     17.04  21558.83      0.00     -2.44      0.00  18127.04 
   396.47     17.05  21558.79      0.00     -0.04      0.00  18129.09 
   396.48     17.05  21556.35      0.00     -2.48      0.00  18127.04 
   396.49     17.05  21558.79      0.01      4.79      0.00  18129.09 
   396.50     17.05  21545.34      0.02    -18.45      0.00  18119.87 
   396.51     17.05  21556.35      0.01    -13.49      0.00  18127.04 
   396.52     17.05  21556.31      0.01      4.79      0.00  18129.09 
   396.53     17.04  21558.83      0.00     -2.48      0.00  18127.04 
   396.54     17.04  21561.27     -0.00      2.48      0.00  18129.09 
   396.55     17.04  21558.83      0.00      0.00     14.00  18127.04 
   396.56     17.05  21558.79      0.01     -4.96      0.00  18129.09 
   396.57     17.05  21564.88      0.01      3.57      0.00  18134.21 
   396.58     17.04  21551.52      0.01    -12.27      0.00  18120.89 
   396.59     17.04  21567.36      0.00     15.84      0.00  18134.21 
   396.60     17.05  21556.35      0.01     -7.44      0.00  18127.04 
   396.61     17.06  21553.83      0.02     -9.92      0.00  18129.09 
   396.62     17.06  21551.39      0.02     -9.92      0.00  18127.04 
   396.63     17.05  21556.31      0.02     -7.48      0.00  18129.09 
   396.64     17.04  21558.83      0.00     -2.44      0.00  18127.04 
   396.65     17.04  21561.27     -0.00      4.92      0.00  18129.09 
   396.66     17.04  21561.31     -0.01     14.75      0.00  18127.04 
   396.67     17.04  21563.75     -0.01     -1.13      0.00  18129.09 
   396.68     17.04  21551.52      0.00      0.00      0.00  18120.89 
   396.69     17.04  21567.36      0.02     -1.40      0.00  18134.21 
   396.70     17.04  21551.52      0.02    -12.40      0.00  18120.89 
   396.71     17.05  21564.88      0.02     -3.88      0.00  18134.21 
   396.72     17.04  21551.52      0.01    -17.19      0.00  18120.89 
   396.73     17.04  21567.36      0.00      6.05      0.00  18134.21 
   396.74     17.04  21551.52      0.00     -9.75      0.00  18120.89 
   396.75     17.04  21567.36      0.00      6.05      0.00  18134.21 
   396.76     17.05  21549.04      0.01     -4.96      0.00  18120.89 
   396.77     17.04  21558.83      0.01    -15.98      0.00  18127.04 
   396.78     17.04  21551.52      0.01     -4.96      0.00  18120.89 
   396.79     17.05  21564.88      0.01      1.09      0.00  18134.21 
   396.80     17.05  21549.04      0.01    -14.71      0.00  18120.89 
   396.81     17.05  21564.88      0.01      1.09      0.00  18134.21 
   396.82     17.04  21551.52      0.00    -12.23      0.00  18120.89 
   396.83     17.04  21567.36      0.00      8.53      7.00  18134.21 
   396.84     17.04  21561.31      0.00      0.00      0.00  18127.04 
   396.85     17.04  21561.27     -0.00      2.48      0.00  18129.09 
   396.86     17.04  21558.83      0.00      0.00      0.00  18127.04 
   396.87     17.04  21554.00      0.00     -7.31      8.00  18120.89 
   396.88     17.03  21572.32     -0.01     13.54      0.00  18134.21 
   396.89     17.03  21563.79     -0.01      4.96      0.00  18127.04 
   396.90     17.04  21561.27      0.00      2.44      0.00  18129.09 
   396.91     17.04  21558.83     -0.00      9.79      0.00  18127.04 
   396.92     17.05  21553.87      0.01    -15.97      0.00  18127.04 
   396.93     17.05  21556.31      0.01     -2.52      0.00  18129.09 
   396.94     17.04  21558.83     -0.00      9.79      0.00  18127.04 
   396.95     17.05  21553.87      0.01    -13.49      0.00  18127.04 
   396.96     17.05  21556.31      0.00     -0.04      0.00  18129.09 
   396.97     17.05  21553.87      0.00      7.31      0.00  18127.04 
   396.98     17.06  21557.44      0.02     -1.39      0.00  18134.21 
   396.99     17.06  21553.83      0.02     -9.92      0.00  18129.09 
   397.00     17.05  21553.87      0.01     -7.44      0.00  18127.04 
   397.01     17.05  21556.31      0.02     -0.17      0.00  18129.09 
   397.02     17.05  21556.35      0.01    -13.49      0.00  18127.04 
   397.03     17.05  21547.82      0.00     -3.70      0.00  18119.87 
   397.04     17.05  21558.79      0.01    -13.54      0.00  18129.09 
   397.05     17.05  21556.35      0.01      2.35      0.00  18127.04 
   397.06     17.05  21558.79      0.01    -13.54      0.00  18129.09 
   397.07     17.04  21558.83      0.01      2.35      0.00  18127.04 
   397.08     17.04  21561.27      0.00     -8.57      8.00  18129.09 
   397.09     17.04  21558.83      0.00      4.83      0.00  18127.04 
   397.10     17.04  21563.75      0.00     -0.04      0.00  18129.09 
   397.11     17.05  21564.88      0.01      1.13      0.00  18134.21 
   397.12     17.04  21561.27      0.00     -0.04      0.00  18129.09 
   397.13     17.03  21563.79      0.00     -2.44      0.00  18127.04 
   397.14     17.03  21556.48      0.00     -7.31      0.00  18120.89 
   397.15     17.03  21574.81      0.00      6.09      0.00  18134.21 
   397.16     17.03  21556.48      0.01    -12.28      0.00  18120.89 
   397.17     17.04  21567.36      0.02    -12.41      0.00  18134.21 
   397.18     17.04  21561.27      0.01      4.79      0.00  18129.09 
   397.19     17.04  21558.83      0.02    -18.46      0.00  18127.04 
   397.20     17.04  21563.75      0.01     -2.53      8.00  18129.09 
   397.21     17.04  21561.31      0.00      4.83      0.00  18127.04 
   397.22     17.04  21561.31      0.01    -15.98      0.00  18127.04 
   397.23     17.04  21563.75      0.01      6.01      0.00  18129.09 
   397.24     17.04  21561.31      0.00     -2.44      0.00  18127.04 
   397.25     17.04  21561.31      0.00      0.00      0.00  18127.04 
   397.26     17.04  21563.75     -0.01      9.88      0.00  18129.09 
   397.27     17.03  21563.79     -0.02      9.96      0.00  18127.04 
   397.28     17.03  21572.32     -0.02     18.45      0.00  18134.21 
   397.29     17.04  21541.77     -0.01    -14.53      0.00  18112.70 
