#Written by Robertson Geologging WinLogger V1.0/406
~VERSION INFORMATION
#------------------------------------------------------------------------------
 VERS. 2.0 : CWLS LOG ASCII STANDARD - VERSION 2.0
 WRAP. NO  : ONE LINE PER DEPTH STEP
~WELL INFORMATION
#MNEM.UNIT         DATA                                DESCRIPTION OF MNEMONIC
#------------------------------------------------------------------------------
 STRT.M        115.9300                            :   START DEPTH
 STOP.M        440.0000                            :   STOP DEPTH
 STEP.M          0.0100                            :   STEP VALUE
 NULL.        -999.2500                            :   NULL VALUE
 COMP.    Coal Authority                           :   COMPANY NAME
 WELL.    Hawthorn Shaft                           :   WELL NAME
 FLD.     Hawthorn                                 :   FIELD NAME
 LOC.     N/A                                      :   LOCATION
 PROV.    N/A                                      :   PROVINCE
 SRVC.    N/A                                      :   SERVICE COMPANY NAME
 DATE.    28 Aug 08                                :   DATE
 UWI.     N/A                                      :   UNIQUE WELL IDENTIFIER
~PARAMETER INFORMATION
#MNEMO.UNIT         VALUE                 DESCRIPTION OF MNEMONIC
#------------------------------------------------------------------------------
~OTHER INFORMATION SECTION
#------------------------------------------------------------------------------
 TCGS 1365
 Logged in low conductivity mode as starting readings were so low.
~CURVE INFORMATION
#MNEMO.UNIT         API CODE              CURVE DESCRIPTION
#------------------------------------------------------------------------------
 DEPTH.M                                 :   0     Depth
 TEMP.DegC                               :   1     Temperature
 CN25.uS/cm                              :   2     Conductivity@25DegC
 DELT.DegC                               :   3     Delta T
 DELC.uS/cm                              :   4     Delta C
 NGAM.CPS                                :   5     Natural Gamma
 COND.uS/cm                              :   6     Conductivity
#------------------------------------------------------------------------------
~A  DEPTH     TEMP      CN25      DELT      DELC      NGAM      COND      
# ...
   158.87     12.97   1575.20     -0.02     -3.92      0.00   1192.28 
   158.88     12.97   1575.40     -0.00      0.20      0.00   1192.28 
   158.89     12.97   1579.94     -0.01      0.41      0.00   1195.88 
   158.90     12.97   1583.50     -0.01      8.71      0.00   1198.58 
   158.91     12.97   1575.20     -0.00      0.20      0.00   1192.28 
   158.92     12.98   1579.74     -0.01     -3.15      0.00   1195.88 
   158.93     12.97   1575.40     -0.00      6.13      0.00   1192.28 
   158.94     12.97   1579.94      0.00     -3.76      0.00   1195.88 
   158.95     12.98   1574.99      0.01      5.52      0.00   1192.28 
   158.96     12.97   1575.20      0.00     -8.30      0.00   1192.28 
   158.97     12.98   1583.29      0.00      8.30      7.00   1198.58 
   158.98     12.98   1569.07     -0.00    -10.47      0.00   1187.78 
   158.99     12.98   1583.09      0.00      8.30      0.00   1198.58 
   159.00     12.98   1574.99     -0.00     -4.54      0.00   1192.28 
   159.01     12.99   1574.59      0.00     -0.20      0.00   1192.28 
   159.02     12.98   1579.53      0.00      0.00      0.00   1195.88 
   159.03     12.99   1574.59      0.00     -0.20      0.00   1192.28 
   159.04     12.98   1583.29      0.00      3.56      0.00   1198.58 
   159.05     12.98   1569.07     -0.00     -5.72      0.00   1187.78 
   159.06     12.98   1583.09      0.00      0.00      0.00   1198.58 
   159.07     12.96   1575.61     -0.03      7.15      0.00   1192.28 
   159.08     12.97   1575.40     -0.03     -7.07      0.00   1192.28 
   159.09     12.95   1580.76     -0.05      6.79      0.00   1195.88 
   159.10     12.95   1576.43     -0.05     -2.49      0.00   1192.28 
   159.11     12.95   1580.76     -0.03      5.97      8.00   1195.88 
   159.12     12.95   1584.32     -0.02      9.12      0.00   1198.58 
   159.13     12.97   1575.40     -0.00     -4.54      0.00   1192.28 
   159.14     12.98   1579.74      0.01     -3.97      0.00   1195.88 
   159.15     12.98   1574.99      0.00      0.00      0.00   1192.28 
   159.16     12.99   1579.33      0.00      4.54      0.00   1195.88 
   159.17     12.97   1575.20      0.00     -4.74      0.00   1192.28 
   159.18     12.97   1579.94      0.00      4.74      8.00   1195.88 
   159.19     12.97   1575.20      0.00     -0.20      0.00   1192.28 
   159.20     12.97   1575.40      0.00     -4.95      0.00   1192.28 
   159.21     12.97   1579.94      0.02     -4.38      0.00   1195.88 
   159.22     12.97   1575.40      0.02     -0.82      0.00   1192.28 
   159.23     12.97   1580.15      0.00     -0.21      0.00   1195.88 
   159.24     12.97   1583.50      0.00      8.10      0.00   1198.58 
   159.25     12.98   1569.07      0.00     -5.93      0.00   1187.78 
   159.26     12.97   1583.50     -0.02      0.82      0.00   1198.58 
   159.27     12.98   1574.79     -0.01      6.33      0.00   1192.28 
   159.28     12.98   1579.53     -0.00     -3.35      0.00   1195.88 
   159.29     12.98   1574.99     -0.01      6.54      0.00   1192.28 
   159.30     12.98   1579.53     -0.01     -2.94      0.00   1195.88 
   159.31     12.98   1574.99     -0.01      0.41      0.00   1192.28 
   159.32     12.98   1579.74     -0.01      0.61      0.00   1195.88 
   159.33     12.98   1574.79      0.00     -0.20      7.00   1192.28 
   159.34     12.98   1583.29      0.00      8.10      7.00   1198.58 
   159.35     12.98   1569.07     -0.00    -10.47      0.00   1187.78 
   159.36     12.98   1583.29     -0.01      0.41      0.00   1198.58 
   159.37     12.97   1575.40     -0.02      1.02      0.00   1192.28 
   159.38     12.97   1579.94     -0.01      5.36      8.00   1195.88 
   159.39     12.98   1574.99     -0.00     -4.54      0.00   1192.28 
   159.40     12.97   1575.20     -0.00      0.20      0.00   1192.28 
   159.41     12.98   1583.29      0.00      8.10      0.00   1198.58 
   159.42     12.98   1568.86      0.01    -14.64      8.00   1187.78 
   159.43     12.98   1583.29     -0.00      3.76      0.00   1198.58 
   159.44     12.98   1574.99      0.00      0.00      7.00   1192.28 
   159.45     12.98   1574.99      0.01     -0.41      0.00   1192.28 
   159.46     12.98   1579.74      0.00      0.00      0.00   1195.88 
   159.47     12.98   1574.79      0.01     -0.41      0.00   1192.28 
   159.48     12.99   1582.88      0.01      7.89      0.00   1198.58 
   159.49     13.00   1568.25      0.01    -11.08      0.00   1187.78 
   159.50     12.99   1582.68      0.01     -0.41      0.00   1198.58 
   159.51     12.99   1574.59      0.01     -0.41      0.00   1192.28 
   159.52     12.99   1579.12      0.01      4.33      8.00   1195.88 
   159.53     12.98   1574.79      0.00     -4.74      0.00   1192.28 
   159.54     12.98   1574.79      0.00     -0.20      0.00   1192.28 
   159.55     12.98   1579.53      0.00      0.00      0.00   1195.88 
   159.56     12.98   1583.29      0.01      7.89      0.00   1198.58 
   159.57     12.98   1568.86      0.02    -15.05      0.00   1187.78 
   159.58     12.99   1582.88      0.02     13.41      0.00   1198.58 
   159.59     12.99   1574.59      0.02     -9.32      0.00   1192.28 
   159.60     12.99   1579.12      0.02      3.72      8.00   1195.88 
   159.61     12.99   1574.38      0.01     -0.61      0.00   1192.28 
   159.62     12.99   1574.59      0.01     -5.36      7.00   1192.28 
   159.63     13.00   1578.92      0.02      3.72      0.00   1195.88 
   159.64     12.98   1583.29     -0.00      3.76      0.00   1198.58 
   159.65     12.98   1574.99     -0.00      0.20      0.00   1192.28 
   159.66     12.98   1579.74     -0.01      0.41      0.00   1195.88 
   159.67     12.97   1575.40     -0.01     -7.69      0.00   1192.28 
   159.68     12.97   1575.20      0.00      0.00      0.00   1192.28 
   159.69     12.99   1579.12      0.02     -0.82      0.00   1195.88 
   159.70     12.99   1582.88      0.01      7.69      0.00   1198.58 
   159.71     12.98   1574.79      0.00     -4.95      0.00   1192.28 
   159.72     12.98   1579.53      0.00      4.74      0.00   1195.88 
   159.73     12.96   1575.81     -0.02     -3.93      0.00   1192.28 
   159.74     12.96   1580.35     -0.02      5.56      0.00   1195.88 
   159.75     12.97   1575.20     -0.01     -4.33      0.00   1192.28 
   159.76     12.97   1575.20     -0.01      0.41      0.00   1192.28 
   159.77     12.98   1579.53     -0.00      0.20      0.00   1195.88 
   159.78     12.98   1583.29     -0.01      8.71      0.00   1198.58 
   159.79     12.97   1569.27     -0.00    -14.02      0.00   1187.78 
   159.80     12.98   1583.29     -0.01     14.64      0.00   1198.58 
   159.81     12.98   1574.79      0.00     -8.30      0.00   1192.28 
   159.82     12.99   1579.12      0.01     -0.61      0.00   1195.88 
   159.83     12.99   1574.38      0.01     -0.41      0.00   1192.28 
   159.84     12.99   1582.68      0.02      7.48      0.00   1198.58 
   159.85     12.98   1568.86      0.00    -10.87      0.00   1187.78 
   159.86     12.97   1583.50      0.00      8.30      0.00   1198.58 
   159.87     12.98   1579.53      0.01      4.13      0.00   1195.88 
   159.88     12.98   1574.99      0.00     -4.95      0.00   1192.28 
   159.89     12.98   1574.99      0.00     -8.51      0.00   1192.28 
   159.90     12.98   1579.74      0.00      4.54      0.00   1195.88 
   159.91     12.97   1575.40     -0.01     -4.33      0.00   1192.28 
   159.92     12.97   1579.94      0.00      4.54      0.00   1195.88 
   159.93     12.98   1574.79      0.01     -5.15      0.00   1192.28 
   159.94     12.98   1583.29      0.00      8.30      0.00   1198.58 
   159.95     13.00   1578.92      0.02      3.72      0.00   1195.88 
   159.96     12.99   1574.38      0.01     -8.91      0.00   1192.28 
   159.97     12.98   1574.79      0.00      5.72      0.00   1192.28 
   159.98     12.99   1579.33      0.00     -3.76      0.00   1195.88 
   159.99     12.97   1575.20     -0.00      0.20      0.00   1192.28 
