#Written by Robertson Geologging WinLogger V1.0/370
~VERSION INFORMATION
#------------------------------------------------------------------------------
 VERS. 2.0 : CWLS LOG ASCII STANDARD - VERSION 2.0
 WRAP. NO  : ONE LINE PER DEPTH STEP
~WELL INFORMATION
#MNEM.UNIT         DATA                                DESCRIPTION OF MNEMONIC
#------------------------------------------------------------------------------
 STRT.M        118.0500                            :   START DEPTH
 STOP.M        420.0800                            :   STOP DEPTH
 STEP.M          0.0100                            :   STEP VALUE
 NULL.        -999.2500                            :   NULL VALUE
 COMP.    WHITE YOUN GREEN                         :   COMPANY NAME
 WELL.    HAWTHORN SHAFT                           :   WELL NAME
 FLD.     HAWTHORN                                 :   FIELD NAME
 LOC.     N/A                                      :   LOCATION
 PROV.    N/A                                      :   PROVINCE
 SRVC.    N/A                                      :   SERVICE COMPANY NAME
 DATE.    14 Dec 06                                :   DATE
 UWI.     N/A                                      :   UNIQUE WELL IDENTIFIER
~PARAMETER INFORMATION
#MNEMO.UNIT         VALUE                 DESCRIPTION OF MNEMONIC
#------------------------------------------------------------------------------
~OTHER INFORMATION SECTION
#------------------------------------------------------------------------------
 lLOGGING DOWN
~CURVE INFORMATION
#MNEMO.UNIT         API CODE              CURVE DESCRIPTION
#------------------------------------------------------------------------------
 DEPTH.M                                 :   0     Depth
 TEMP.DegC                               :   1     Temperature
 CN25.mS/cm                              :   2     Conductivity@25DegC
 COND.mS/cm                              :   3     Conductivity
 DELT.DegC                               :   4     Delta T
 DELC.mS/cm                              :   5     Delta C
 NGAM.CPS                                :   6     Natural Gamma
#------------------------------------------------------------------------------
~A  DEPTH     TEMP      CN25      COND      DELT      DELC      NGAM      
# ...
   198.28     12.53      7.83      1.54     -0.00      0.00      0.00 
   198.29     12.53      7.83      1.54     -0.01      0.01      0.00 
   198.30     12.53      7.83      1.54     -0.01      0.01      0.00 
   198.31     12.53      7.83      1.54     -0.01      0.01      0.00 
   198.32     12.53      7.83      1.54     -0.01      0.01      0.00 
   198.33     12.53      7.84      1.54     -0.01      0.02      0.41 
   198.34     12.53      7.83      1.54     -0.01      0.01      0.82 
   198.35     12.53      7.84      1.54     -0.01      0.02      0.82 
   198.36     12.52      7.84      1.54     -0.02      0.02      0.82 
   198.37     12.52      7.84      1.54     -0.02      0.02      0.82 
   198.38     12.52      7.84      1.54     -0.02      0.02      0.82 
   198.39     12.52      7.84      1.54     -0.02      0.02      0.82 
   198.40     12.53      7.84      1.54     -0.01      0.02      0.82 
   198.41     12.53      7.83      1.54     -0.01      0.01      0.82 
   198.42     12.53      7.83      1.54     -0.01      0.01      0.82 
   198.43     12.53      7.84      1.54     -0.00      0.01      0.82 
   198.44     12.53      7.83      1.54     -0.00      0.00      0.82 
   198.45     12.53      7.83      1.54     -0.01      0.01      0.82 
   198.46     12.53      7.83      1.54     -0.01      0.01      0.82 
   198.47     12.53      7.83      1.54     -0.01      0.01      0.82 
   198.48     12.53      7.84      1.54     -0.01      0.01      0.82 
   198.49     12.53      7.83      1.54     -0.01      0.01      0.82 
   198.50     12.53      7.84      1.54     -0.01      0.01      0.41 
   198.51     12.53      7.84      1.54     -0.01      0.01      0.00 
   198.52     12.53      7.83      1.54     -0.01      0.01      0.00 
   198.53     12.53      7.84      1.54     -0.01      0.01      0.00 
   198.54     12.53      7.83      1.54     -0.01      0.01      0.00 
   198.55     12.53      7.83      1.54     -0.01      0.01      0.00 
   198.56     12.53      7.83      1.54     -0.01      0.01      0.00 
   198.57     12.53      7.83      1.54     -0.01      0.01      0.00 
   198.58     12.53      7.83      1.54     -0.01      0.01      0.00 
   198.59     12.53      7.83      1.54     -0.00      0.00      0.00 
   198.60     12.53      7.83      1.54     -0.00      0.00      0.00 
   198.61     12.53      7.83      1.54     -0.00      0.00      0.00 
   198.62     12.53      7.83      1.54     -0.00      0.00      0.00 
   198.63     12.53      7.83      1.54     -0.00      0.00      0.00 
   198.64     12.53      7.83      1.54     -0.00      0.00      0.00 
   198.65     12.53      7.83      1.54     -0.00      0.00      0.00 
   198.66     12.53      7.83      1.54     -0.00      0.00      0.41 
   198.67     12.53      7.83      1.54     -0.00      0.00      0.41 
   198.68     12.53      7.84      1.54     -0.00      0.01      0.41 
   198.69     12.53      7.83      1.54      0.00     -0.00      1.24 
   198.70     12.53      7.83      1.54      0.00     -0.00      1.24 
   198.71     12.53      7.83      1.54      0.00     -0.00      1.24 
   198.72     12.53      7.83      1.54     -0.00     -0.00      1.24 
   198.73     12.53      7.83      1.54     -0.00      0.00      1.24 
   198.74     12.53      7.83      1.54     -0.00      0.00      1.24 
   198.75     12.53      7.83      1.54     -0.01      0.01      1.24 
   198.76     12.53      7.83      1.54     -0.01      0.01      1.24 
   198.77     12.54      7.83      1.54     -0.01      0.01      1.24 
   198.78     12.54      7.83      1.54     -0.01      0.01      1.24 
   198.79     12.54      7.82      1.54     -0.01      0.01      1.24 
   198.80     12.54      7.83      1.54     -0.01      0.01      1.24 
   198.81     12.54      7.83      1.54     -0.01      0.01      1.24 
   198.82     12.54      7.82      1.54     -0.01      0.01      1.24 
   198.83     12.54      7.83      1.54     -0.01      0.02      0.82 
   198.84     12.54      7.82      1.54     -0.01      0.01      0.82 
   198.85     12.54      7.82      1.54     -0.01      0.01      0.82 
   198.86     12.54      7.82      1.54     -0.01      0.01      0.00 
   198.87     12.54      7.82      1.54     -0.01      0.01      0.00 
   198.88     12.54      7.82      1.54     -0.01      0.01      0.00 
   198.89     12.54      7.82      1.54     -0.00      0.01      0.00 
   198.90     12.54      7.82      1.54     -0.00     -0.00      0.00 
   198.91     12.54      7.82      1.54      0.00     -0.00      0.00 
   198.92     12.54      7.82      1.54      0.01     -0.01      0.41 
   198.93     12.54      7.82      1.54      0.01     -0.01      0.41 
   198.94     12.54      7.82      1.54      0.01     -0.01      0.41 
   198.95     12.54      7.83      1.54      0.01     -0.01      0.41 
   198.96     12.53      7.83      1.54      0.00     -0.00      0.41 
   198.97     12.53      7.83      1.54      0.00      0.00      0.41 
   198.98     12.53      7.84      1.54     -0.00      0.01      0.41 
   198.99     12.53      7.83      1.54     -0.01      0.01      0.41 
   199.00     12.53      7.83      1.54     -0.01      0.00      0.41 
   199.01     12.53      7.83      1.54     -0.01      0.01      0.41 
   199.02     12.53      7.83      1.54     -0.01      0.01      0.41 
   199.03     12.53      7.83      1.54     -0.01      0.01      0.41 
   199.04     12.53      7.83      1.54     -0.01      0.01      0.41 
   199.05     12.53      7.83      1.54     -0.01      0.01      0.41 
   199.06     12.53      7.83      1.54     -0.01      0.01      0.41 
   199.07     12.53      7.83      1.54     -0.01      0.01      0.41 
   199.08     12.53      7.83      1.54     -0.00      0.01      0.41 
   199.09     12.53      7.83      1.54     -0.00      0.00      0.00 
   199.10     12.54      7.83      1.54      0.00     -0.00      0.00 
   199.11     12.54      7.82      1.54      0.00     -0.00      0.00 
   199.12     12.54      7.83      1.54      0.00     -0.00      0.00 
   199.13     12.53      7.83      1.54      0.00      0.00      0.00 
   199.14     12.53      7.83      1.54     -0.00      0.00      0.00 
   199.15     12.53      7.83      1.54     -0.00      0.00      0.00 
   199.16     12.53      7.83      1.54     -0.00     -0.00      0.00 
   199.17     12.53      7.83      1.54     -0.00      0.00      0.00 
   199.18     12.54      7.83      1.54      0.00      0.00      0.00 
   199.19     12.54      7.82      1.54      0.00     -0.00      0.00 
   199.20     12.54      7.82      1.54      0.01     -0.01      0.00 
   199.21     12.54      7.82      1.54      0.01     -0.01      0.00 
   199.22     12.54      7.82      1.54      0.01     -0.01      0.00 
   199.23     12.54      7.83      1.54      0.01     -0.00      0.00 
   199.24     12.54      7.82      1.54      0.01     -0.01      0.00 
   199.25     12.54      7.82      1.54      0.01     -0.01      0.00 
   199.26     12.54      7.82      1.54      0.01     -0.01      0.00 
   199.27     12.54      7.82      1.54      0.01     -0.01      0.00 
   199.28     12.54      7.82      1.54      0.01     -0.01      0.00 
   199.29     12.54      7.82      1.54      0.01     -0.01      0.00 
   199.30     12.55      7.81      1.54      0.02     -0.02      0.00 
   199.31     12.55      7.81      1.54      0.02     -0.02      0.00 
   199.32     12.55      7.82      1.54      0.02     -0.02      0.00 
   199.33     12.55      7.82      1.54      0.02     -0.02      0.00 
   199.34     12.55      7.81      1.54      0.02     -0.02      0.00 
   199.35     12.55      7.81      1.54      0.02     -0.02      0.00 
   199.36     12.55      7.81      1.54      0.02     -0.02      0.00 
   199.37     12.54      7.82      1.54      0.02     -0.02      0.00 
   199.38     12.54      7.82      1.54      0.02     -0.02      0.00 
   199.39     12.54      7.82      1.54      0.01     -0.02      0.00 
   199.40     12.54      7.82      1.54      0.01     -0.01      0.00 
