~Version Information
 VERS.                2.0:  CWLS LOG ASCII STANDARD -VERSION 2.0
 WRAP.                 NO:  ONE LINE PER DEPTH STEP
~WELL INFORMATION BLOCK
#MNEM.UNIT       DATA		            DESCRIPTION OF MNEMONIC
#---------    -------------            ------------------------
 STRT.M   0.200                          :START DEPTH
 STOP.M   429.320                        :STOP DEPTH
 STEP.M   0.020                          :STEP  DOWN_HOLE  
 NULL.    0                              :NULL VALUE
 COMP.                              IMC  :COMPANY
 WELL.                        Hawthorne  :WELL
 FLD .                           Durham  :FIELD
 LOC .    None  None  None               :LOCATION
 CNTY.                      Northumbria  :COUNTY
 STAT.                   None            :STATE
 SRVC.          TRANS                    :SERVICE COMPANY
 DATE.   01/26/00                        :LOG DATE
 UWI .                       	         :UNIQUE WELL ID
 LIC .                                   :LICENSE NUMBER
~Curve Information Block
#MNEM.UNIT      API CODE     Curve Description
#---------    -------------  ------------------------
 DEPT     .M         00 001 00 00          :  1  DEPTH   
 RES(FL)  .OHM-M     00 000 00 00          :  2              RES(FL)
 TEMP     .DEG C     00 660 00 00          :  3                 TEMP
 DEL TEMP .DEG C     00 000 00 00          :  4             DEL TEMP
 SP COND  .US/CM     00 000 00 00          :  5              SP COND
~Parameter Information Block
#MNEM.UNIT   Information     Description
#---------- ---------------  ------------------------
~Other Information
#MNEM.UNIT  Information      Description
#---------- ---------------  ------------------------
 FILE.      ORIGINAL           File Type
 FIID.      9042C              File Type Identifier
 VERS.      1.0                System Version
 SER .      1                  System Serial Number
 TRUK.      0.5                Truck Calibration Number
 TOOL.         870             Tool Serial Number
 TIME.      14:33:             Time
 LAT .          None           Latitude
 LON .          None           Longitude
 LMF .         T.G.L           Log Measured From
 DMF .          None           Driller Measured From
 PD  .          None           Permanent Data
 PDEV.          None           Elevation Permanent Data
 EKB .M         None           Elevation Kelly Bushing
 ELEV.DF        None           Elevation DF
 EGL .M         None           Elevation Ground Level
 DRDP.         36.00           Driller's Depth
 CASD.        11               Casing Diameter
 CASB.         25.00           Casing Bottom
 CASX.       PLASTIC           Casing Type
 CAST.       0.5               Casing Thickness
 TNOC.          None           Time Circulation Stopped
 LOGU.       CENT              Logging Unit
 RECB.             MS/DW       Recorded By
 OSR1.          none           Other Services
 OSR2.          None           Other Services
 OSR3.          None           Other Services
 BS  .MM       11.00           Bit Size
 MST .                         Mean Surface Temperature
 TGRD.        0                Temperature Gradiant
 MAGN.            -6           Magnetic Declination
 MDEN.      2.71               Density Matrix
 MATR.      Limestone          Neutron Matrix
 DTMT.           140           Delta T Matrix
 DTFL.                         Delta T Fluid
 MUDS.               0         Mud Sample Source
 MRS .           0             Mud Resistivity
 MTP .           0             Mud Temperature
 MFRS.                         Resistivity Mud Filtrate
 MFTP.                         Temperature Mud Filtrate
 MCRS.         0               Resistivity Mud Cake
 MCTP.                         Temperature Mud Cake
 FTYP.           H20           Fluid Type
 FD  .K/M3                     Fluid Density
 DFV .S                        Fluid Viscosity
 FPH .                         Fuild PH
 ELCO.        2500             Electron Cutoff
# -------------------------- 
~A DEPTH  RES(FL) TEMP  DEL TEMP SP COND  
# ...
 172.240  111.27  10.4  0.00        89.9  
 172.260  111.27  10.4  0.00        89.9  
 172.280  111.27  10.4  0.00        89.9  
 172.300  111.27  10.4  0.00        89.9  
 172.320  111.27  10.4  0.00        89.9  
 172.340  111.27  10.4  0.00        89.9  
 172.360  111.27  10.4  0.00        89.9  
 172.380  111.27  10.4  0.00        89.9  
 172.400  111.27  10.4  0.00        89.9  
 172.420  111.27  10.4  0.00        89.9  
 172.440  111.27  10.4  0.00        89.9  
 172.460  111.27  10.4  0.00        89.9  
 172.480  111.27  10.4  0.00        89.9  
 172.500  111.27  10.4  0.00        89.9  
 172.520  111.28  10.4  0.00        89.9  
 172.540  111.27  10.4  0.00        89.9  
 172.560  111.27  10.4  0.00        89.9  
 172.580  111.28  10.4  0.00        89.9  
 172.600  111.28  10.4  0.00        89.9  
 172.620  111.27  10.4  0.00        89.9  
 172.640  111.27  10.4  0.00        89.9  
 172.660  111.27  10.4  -0.00       89.9  
 172.680  111.27  10.4  0.00        89.9  
 172.700  111.27  10.4  0.00        89.9  
 172.720  111.27  10.4  0.00        89.9  
 172.740  111.27  10.4  0.00        89.9  
 172.760  111.27  10.4  0.00        89.9  
 172.780  111.27  10.4  0.00        89.9  
 172.800  111.28  10.4  0.00        89.9  
 172.820  111.28  10.4  0.00        89.9  
 172.840  111.27  10.4  0.00        89.9  
 172.860  111.27  10.4  0.00        89.9  
 172.880  111.28  10.4  0.00        89.9  
 172.900  111.28  10.4  0.00        89.9  
 172.920  111.27  10.4  -0.00       89.9  
 172.940  111.27  10.4  0.00        89.9  
 172.960  111.27  10.4  0.00        89.9  
 172.980  111.27  10.4  0.00        89.9  
 173.000  111.28  10.4  0.00        89.9  
 173.020  111.28  10.4  0.00        89.9  
 173.040  111.27  10.4  0.00        89.9  
 173.060  111.27  10.4  0.00        89.9  
 173.080  111.27  10.4  0.00        89.9  
 173.100  111.27  10.4  -0.00       89.9  
 173.120  111.27  10.4  0.00        89.9  
 173.140  111.27  10.4  0.00        89.9  
 173.160  111.27  10.4  0.00        89.9  
 173.180  111.27  10.4  0.00        89.9  
 173.200  111.27  10.4  0.00        89.9  
 173.220  111.27  10.4  0.00        89.9  
 173.240  111.27  10.4  0.00        89.9  
 173.260  111.28  10.4  0.00        89.9  
 173.280  111.28  10.4  0.00        89.9  
 173.300  111.28  10.4  0.00        89.9  
 173.320  111.28  10.5  0.11        89.9  
 173.340  111.28  10.5  0.00        89.9  
 173.360  111.28  10.4  -0.11       89.9  
 173.380  111.27  10.4  0.00        89.9  
 173.400  111.28  10.4  0.00        89.9  
 173.420  111.28  10.4  0.00        89.9  
 173.440  111.28  10.4  0.00        89.9  
 173.460  111.28  10.4  0.00        89.9  
 173.480  111.28  10.4  0.00        89.9  
 173.500  111.28  10.4  0.00        89.9  
 173.520  111.28  10.4  0.00        89.9  
 173.540  111.28  10.4  0.00        89.9  
 173.560  111.28  10.4  0.00        89.9  
 173.580  111.28  10.4  0.00        89.9  
 173.600  111.28  10.4  0.00        89.9  
 173.620  111.28  10.4  0.00        89.9  
 173.640  111.27  10.4  0.00        89.9  
 173.660  111.28  10.4  0.00        89.9  
 173.680  111.28  10.4  0.00        89.9  
 173.700  111.27  10.4  0.00        89.9  
 173.720  111.27  10.4  0.00        89.9  
 173.740  111.27  10.4  0.00        89.9  
 173.760  111.27  10.4  0.00        89.9  
 173.780  111.28  10.4  0.00        89.9  
 173.800  111.28  10.4  0.00        89.9  
 173.820  111.28  10.4  0.00        89.9  
 173.840  111.28  10.4  -0.01       89.9  
 173.860  111.27  10.4  0.00        89.9  
 173.880  111.27  10.4  0.00        89.9  
 173.900  111.28  10.4  0.00        89.9  
 173.920  111.28  10.4  0.00        89.9  
 173.940  111.27  10.4  0.00        89.9  
 173.960  111.28  10.4  -0.00       89.9  
 173.980  111.28  10.4  0.00        89.9  
 174.000  111.27  10.4  -0.00       89.9  
 174.020  111.27  10.4  0.00        89.9  
 174.040  111.28  10.4  0.00        89.9  
 174.060  111.28  10.4  0.00        89.9  
 174.080  111.27  10.4  0.00        89.9  
 174.100  111.27  10.4  -0.00       89.9  
 174.120  111.27  10.4  0.00        89.9  
 174.140  111.27  10.4  -0.00       89.9  
 174.160  111.27  10.4  0.00        89.9  
 174.180  111.27  10.4  0.00        89.9  
 174.200  111.27  10.4  0.00        89.9  
 174.220  111.27  10.4  0.00        89.9  
 174.240  111.27  10.4  0.00        89.9  
 174.260  111.27  10.4  -0.00       89.9  
 174.280  111.27  10.4  0.00        89.9  
 174.300  111.27  10.4  0.00        89.9  
 174.320  111.27  10.4  0.00        89.9  
 174.340  111.27  10.4  0.00        89.9  
 174.360  111.27  10.4  0.00        89.9  
 174.380  111.27  10.4  0.00        89.9  
 174.400  111.27  10.4  0.00        89.9  
 174.420  111.27  10.4  0.00        89.9  
 174.440  111.27  10.4  -0.00       89.9  
 174.460  111.27  10.4  0.00        89.9  
 174.480  111.27  10.4  0.00        89.9  
 174.500  111.27  10.4  0.00        89.9  
 174.520  111.28  10.4  0.00        89.9  
 174.540  111.28  10.4  0.00        89.9  
 174.560  111.27  10.4  0.00        89.9  
 174.580  111.27  10.4  0.00        89.9  
 174.600  111.27  10.4  0.00        89.9  
 174.620  111.27  10.4  0.00        89.9  
 174.640  111.27  10.4  0.00        89.9  
 174.660  111.27  10.4  -0.00       89.9  
 174.680  111.28  10.4  0.00        89.9  
 174.700  111.28  10.4  0.00        89.9  
 174.720  111.27  10.4  0.00        89.9  
 174.740  111.27  10.4  0.00        89.9  
 174.760  111.27  10.4  0.00        89.9  
 174.780  111.27  10.4  0.00        89.9  
 174.800  111.27  10.4  0.00        89.9  
 174.820  111.27  10.4  0.00        89.9  
 174.840  111.27  10.4  0.00        89.9  
 174.860  111.27  10.4  0.00        89.9  
 174.880  111.27  10.4  0.00        89.9  
 174.900  111.28  10.4  0.00        89.9  
 174.920  111.28  10.4  0.00        89.9  
 174.940  111.28  10.4  0.00        89.9  
 174.960  111.28  10.4  0.01        89.9  
 174.980  111.27  10.4  0.00        89.9  
 175.000  111.27  10.4  0.00        89.9  
 175.020  111.27  10.4  0.00        89.9  
 175.040  111.27  10.4  0.00        89.9  
 175.060  111.27  10.4  0.00        89.9  
 175.080  111.28  10.4  0.00        89.9  
 175.100  111.28  10.4  0.00        89.9  
 175.120  111.28  10.4  0.00        89.9  
 175.140  111.28  10.4  0.00        89.9  
 175.160  111.28  10.4  0.00        89.9  
 175.180  111.28  10.4  0.00        89.9  
 175.200  111.28  10.4  0.00        89.9  
 175.220  111.28  10.4  0.00        89.9  
 175.240  111.28  10.4  0.00        89.9  
 175.260  111.28  10.4  0.00        89.9  
 175.280  111.28  10.4  0.00        89.9  
 175.300  111.28  10.4  0.00        89.9  
 175.320  111.28  10.4  0.00        89.9  
 175.340  111.28  10.4  0.00        89.9  
 175.360  111.28  10.4  0.00        89.9  
 175.380  111.28  10.4  0.00        89.9  
 175.400  111.28  10.4  0.00        89.9  
 175.420  111.27  10.5  0.01        89.9  
 175.440  111.27  10.5  0.00        89.9  
 175.460  111.27  10.5  0.00        89.9  
 175.480  111.27  10.5  0.00        89.9  
 175.500  111.28  10.5  0.00        89.9  
 175.520  111.28  10.5  0.00        89.9  
 175.540  111.27  10.5  0.00        89.9  
 175.560  111.27  10.5  0.00        89.9  
 175.580  111.27  10.5  0.00        89.9  
 175.600  111.27  10.5  0.00        89.9  
 175.620  111.27  10.5  0.00        89.9  
 175.640  111.27  10.5  0.00        89.9  
 175.660  111.27  10.5  0.00        89.9  
 175.680  111.27  10.5  0.00        89.9  
 175.700  111.27  10.5  0.00        89.9  
 175.720  111.28  10.5  0.00        89.9  
 175.740  111.28  10.5  0.00        89.9  
 175.760  111.28  10.5  0.00        89.9  
 175.780  111.28  10.5  0.00        89.9  
 175.800  111.28  10.5  0.00        89.9  
 175.820  111.28  10.5  0.00        89.9  
 175.840  111.28  10.5  0.00        89.9  
 175.860  111.28  10.5  0.00        89.9  
 175.880  111.27  10.5  0.00        89.9  
 175.900  111.28  10.5  0.00        89.9  
 175.920  111.28  10.5  0.00        89.9  
 175.940  111.28  10.5  0.00        89.9  
 175.960  111.28  10.5  0.00        89.9  
