#Written by Robertson Geologging WinLogger V1.0/406
~VERSION INFORMATION
#------------------------------------------------------------------------------
 VERS. 2.0 : CWLS LOG ASCII STANDARD - VERSION 2.0
 WRAP. NO  : ONE LINE PER DEPTH STEP
~WELL INFORMATION
#MNEM.UNIT         DATA                                DESCRIPTION OF MNEMONIC
#------------------------------------------------------------------------------
 STRT.M        115.9300                            :   START DEPTH
 STOP.M        440.0000                            :   STOP DEPTH
 STEP.M          0.0100                            :   STEP VALUE
 NULL.        -999.2500                            :   NULL VALUE
 COMP.    Coal Authority                           :   COMPANY NAME
 WELL.    Hawthorn Shaft                           :   WELL NAME
 FLD.     Hawthorn                                 :   FIELD NAME
 LOC.     N/A                                      :   LOCATION
 PROV.    N/A                                      :   PROVINCE
 SRVC.    N/A                                      :   SERVICE COMPANY NAME
 DATE.    28 Aug 08                                :   DATE
 UWI.     N/A                                      :   UNIQUE WELL IDENTIFIER
~PARAMETER INFORMATION
#MNEMO.UNIT         VALUE                 DESCRIPTION OF MNEMONIC
#------------------------------------------------------------------------------
~OTHER INFORMATION SECTION
#------------------------------------------------------------------------------
 TCGS 1365
 Logged in low conductivity mode as starting readings were so low.
~CURVE INFORMATION
#MNEMO.UNIT         API CODE              CURVE DESCRIPTION
#------------------------------------------------------------------------------
 DEPTH.M                                 :   0     Depth
 TEMP.DegC                               :   1     Temperature
 CN25.uS/cm                              :   2     Conductivity@25DegC
 DELT.DegC                               :   3     Delta T
 DELC.uS/cm                              :   4     Delta C
 NGAM.CPS                                :   5     Natural Gamma
 COND.uS/cm                              :   6     Conductivity
#------------------------------------------------------------------------------
~A  DEPTH     TEMP      CN25      DELT      DELC      NGAM      COND      
# ...
   137.40     12.98   1574.99      0.00     -0.20      0.00   1192.28 
   137.41     12.99   1579.12      0.02      3.92      0.00   1195.88 
   137.42     12.99   1574.59      0.01     -0.41      0.00   1192.28 
   137.43     12.99   1574.38      0.01     -5.36      0.00   1192.28 
   137.44     13.00   1574.18      0.02     -0.82      0.00   1192.28 
   137.45     12.98   1579.53     -0.00      4.95      0.00   1195.88 
   137.46     12.98   1574.79      0.00     -8.30      0.00   1192.28 
   137.47     12.98   1583.29     -0.01      8.71      0.00   1198.58 
   137.48     12.98   1574.79     -0.00      0.20      0.00   1192.28 
   137.49     12.98   1568.86     -0.00     -5.72      0.00   1187.78 
   137.50     12.98   1583.09      0.00      8.30      0.00   1198.58 
   137.51     12.99   1574.59      0.00     -8.30      0.00   1192.28 
   137.52     12.99   1574.59     -0.00      6.13      0.00   1192.28 
   137.53     13.00   1578.92      0.00     -3.76      0.00   1195.88 
   137.54     12.99   1574.38      0.00      0.00      0.00   1192.28 
   137.55     12.99   1574.59     -0.01      0.41      0.00   1192.28 
   137.56     12.98   1574.99     -0.01      0.41      7.00   1192.28 
   137.57     12.98   1583.29     -0.00      8.50      0.00   1198.58 
   137.58     12.98   1568.86     -0.00    -14.02      0.00   1187.78 
   137.59     12.99   1574.38      0.00      5.72      0.00   1192.28 
   137.60     12.99   1582.68      0.00      8.09      0.00   1198.58 
   137.61     12.98   1574.79     -0.01     -7.89      0.00   1192.28 
   137.62     12.98   1574.99     -0.01      0.61      0.00   1192.28 
   137.63     12.97   1575.20     -0.02      0.82      0.00   1192.28 
   137.64     12.97   1575.20     -0.02      0.82      7.00   1192.28 
   137.65     12.98   1579.53     -0.00      4.95      0.00   1195.88 
   137.66     12.99   1574.38      0.00     -8.50      0.00   1192.28 
   137.67     13.00   1582.27      0.01     13.61      0.00   1198.58 
   137.68     13.01   1573.77      0.01     -8.70      0.00   1192.28 
   137.69     13.00   1574.18     -0.00      0.20      0.00   1192.28 
   137.70     12.99   1574.38     -0.00      0.20      0.00   1192.28 
   137.71     12.98   1574.99     -0.02      0.82      0.00   1192.28 
   137.72     12.98   1579.74     -0.01      5.36      0.00   1195.88 
   137.73     12.99   1574.59      0.00     -4.74      0.00   1192.28 
   137.74     12.99   1582.88     -0.00      8.50      0.00   1198.58 
   137.75     12.99   1574.38      0.00     -8.50      0.00   1192.28 
   137.76     12.99   1574.59      0.00     -0.20      0.00   1192.28 
   137.77     12.98   1574.79     -0.00      6.13      0.00   1192.28 
   137.78     12.98   1579.53     -0.01     -3.15      0.00   1195.88 
   137.79     12.99   1574.38     -0.00      0.20      0.00   1192.28 
   137.80     13.00   1574.18     -0.00      0.20      0.00   1192.28 
   137.81     12.99   1582.68      0.00      8.09      0.00   1198.58 
   137.82     12.98   1574.79      0.00      0.00      0.00   1192.28 
   137.83     12.97   1575.40     -0.02     -3.92      0.00   1192.28 
   137.84     12.95   1576.02     -0.04      1.63      0.00   1192.28 
   137.85     12.96   1575.81     -0.03     -6.87      7.00   1192.28 
   137.86     12.96   1580.35     -0.02      5.77      8.00   1195.88 
   137.87     12.97   1575.20     -0.00      0.20      0.00   1192.28 
   137.88     12.98   1583.09      0.00      3.35      0.00   1198.58 
   137.89     12.98   1574.79      0.00     -0.20      0.00   1192.28 
   137.90     12.99   1574.59      0.01     -0.61      0.00   1192.28 
   137.91     12.98   1574.99     -0.00      0.20      0.00   1192.28 
   137.92     12.98   1574.99      0.00      0.00      0.00   1192.28 
   137.93     12.98   1583.29      0.00     -0.21      0.00   1198.58 
   137.94     12.97   1575.40     -0.01      6.54      0.00   1192.28 
   137.95     12.98   1579.74      0.00     -3.56      0.00   1195.88 
   137.96     12.97   1575.20      0.00      0.00      0.00   1192.28 
   137.97     12.98   1574.99      0.00      0.00      0.00   1192.28 
   137.98     12.98   1574.79      0.00     -4.95      0.00   1192.28 
   137.99     12.98   1566.69     -0.00     -8.10      0.00   1185.98 
   138.00     12.98   1583.09     -0.01      8.91      0.00   1198.58 
   138.01     12.99   1574.59     -0.00      0.20      0.00   1192.28 
   138.02     12.98   1574.79      0.00     -8.30      0.00   1192.28 
   138.03     12.99   1574.38      0.00      5.72      0.00   1192.28 
   138.04     13.00   1578.92      0.01      4.13      0.00   1195.88 
   138.05     12.99   1574.38      0.02     -9.12      0.00   1192.28 
   138.06     13.00   1573.97      0.02     -0.82      0.00   1192.28 
   138.07     13.00   1582.47      0.02      7.48      0.00   1198.58 
   138.08     12.98   1574.79      0.01     -0.41      0.00   1192.28 
   138.09     12.99   1574.59      0.00     -4.74      0.00   1192.28 
   138.10     12.98   1579.53     -0.00      4.95      0.00   1195.88 
   138.11     12.98   1574.99     -0.01      0.41      0.00   1192.28 
   138.12     12.99   1574.59     -0.00     -8.09      0.00   1192.28 
   138.13     12.98   1574.99     -0.01      0.41      0.00   1192.28 
   138.14     12.97   1583.50     -0.01      8.71      0.00   1198.58 
   138.15     12.98   1569.07     -0.01    -10.26      0.00   1187.78 
   138.16     12.98   1574.99     -0.00      0.20      0.00   1192.28 
   138.17     12.98   1583.29     -0.01      8.71      0.00   1198.58 
   138.18     12.97   1575.40     -0.02      1.02      0.00   1192.28 
   138.19     12.97   1580.15     -0.02     -2.74      8.00   1195.88 
   138.20     12.97   1575.20     -0.02      1.02      0.00   1192.28 
   138.21     12.97   1575.20     -0.02      6.95      0.00   1192.28 
   138.22     12.98   1574.99     -0.02     -7.27      0.00   1192.28 
   138.23     12.98   1574.79     -0.02      1.02      0.00   1192.28 
   138.24     12.99   1579.33     -0.00      4.95      8.00   1195.88 
   138.25     13.00   1574.18      0.01     -0.61      0.00   1192.28 
   138.26     13.00   1582.27      0.02      7.27      0.00   1198.58 
   138.27     12.99   1574.59      0.01     -8.91      0.00   1192.28 
   138.28     12.98   1574.79      0.00     -0.20      0.00   1192.28 
   138.29     12.96   1575.61     -0.02      0.82      0.00   1192.28 
   138.30     12.97   1575.40     -0.02     -3.92      0.00   1192.28 
   138.31     12.98   1579.74     -0.01      5.36      8.00   1195.88 
   138.32     12.98   1574.79     -0.01      0.61      0.00   1192.28 
   138.33     12.99   1582.88     -0.01      8.71      0.00   1198.58 
   138.34     12.98   1574.79     -0.01     -7.89      0.00   1192.28 
   138.35     12.98   1574.99     -0.00      6.13      7.00   1192.28 
   138.36     12.98   1579.74      0.00      4.54      0.00   1195.88 
   138.37     12.99   1574.38      0.01     -8.91      0.00   1192.28 
   138.38     13.00   1574.18      0.02     -0.82      0.00   1192.28 
   138.39     13.00   1574.18      0.02     -0.82      0.00   1192.28 
   138.40     12.99   1582.88     -0.00      3.76      0.00   1198.58 
   138.41     12.98   1574.99     -0.01      0.41      0.00   1192.28 
   138.42     12.97   1575.20     -0.02      0.82      0.00   1192.28 
   138.43     12.98   1574.99     -0.02      0.82      0.00   1192.28 
   138.44     12.98   1574.79      0.00     -4.74      0.00   1192.28 
   138.45     12.99   1579.33      0.00      4.54      0.00   1195.88 
   138.46     12.99   1574.38      0.01     -8.91      0.00   1192.28 
   138.47     13.00   1574.18      0.01     -0.61      0.00   1192.28 
   138.48     12.99   1582.68      0.01     13.82      0.00   1198.58 
   138.49     13.00   1573.97      0.02     -9.12      0.00   1192.28 
   138.50     13.00   1574.18      0.01     -0.41      0.00   1192.28 
   138.51     13.00   1574.18      0.01     -0.41      0.00   1192.28 
   138.52     12.99   1582.68     -0.00      3.76      0.00   1198.58 
