#Written by Robertson Geologging WinLogger V1.0/311
~VERSION INFORMATION
#------------------------------------------------------------------------------
 VERS. 2.0 : CWLS LOG ASCII STANDARD - VERSION 2.0
 WRAP. NO  : ONE LINE PER DEPTH STEP
~WELL INFORMATION
#MNEM.UNIT         DATA                                DESCRIPTION OF MNEMONIC
#------------------------------------------------------------------------------
 STRT.M        146.1000                            :   START DEPTH
 STOP.M        425.1000                            :   STOP DEPTH
 STEP.M          0.1000                            :   STEP VALUE
 NULL.        -999.2500                            :   NULL VALUE
 COMP.    IMC                                      :   COMPANY NAME
 WELL.    HAWTHORN SHAFT                           :   WELL NAME
 FLD.     HAWTHORN                                 :   FIELD NAME
 LOC.     N/A                                      :   LOCATION
 PROV.    N/A                                      :   PROVINCE
 SRVC.    N/A                                      :   SERVICE COMPANY NAME
 DATE.    03 Oct 03                                :   DATE
 UWI.     N/A                                      :   UNIQUE WELL IDENTIFIER
~PARAMETER INFORMATION
#MNEMO.UNIT         VALUE                 DESCRIPTION OF MNEMONIC
#------------------------------------------------------------------------------
~OTHER INFORMATION SECTION
#------------------------------------------------------------------------------
 TCDS 2822
~CURVE INFORMATION
#MNEMO.UNIT         API CODE              CURVE DESCRIPTION
#------------------------------------------------------------------------------
 DEPTH.M                                 :   0     Depth
 TEMP.DegC                               :   1     Temperature
 COND.uS/cm                              :   2     Conductivity
 DELT.DegC                               :   3     Delta T
 DELC.uS/cm                              :   4     Delta C
 NGAM.API                                :   5     Natural Gamma
#------------------------------------------------------------------------------
~A  DEPTH     TEMP      COND      DELT      DELC      NGAM      
   146.10   -999.25   -999.25      0.00      0.00   -999.25 
   146.20   -999.25   -999.25      0.00      0.00   -999.25 
   146.30   -999.25   -999.25      0.00      0.00   -999.25 
   146.40   -999.25   -999.25      0.00      0.00   -999.25 
   146.50   -999.25   -999.25      0.00      0.00   -999.25 
   146.60   -999.25   -999.25      0.00      0.00   -999.25 
   146.70   -999.25   -999.25      0.00      0.00   -999.25 
   146.80   -999.25   -999.25      0.00      0.00   -999.25 
   146.90   -999.25   -999.25      0.00      0.00   -999.25 
   147.00   -999.25   -999.25      0.00      0.00   -999.25 
   147.10   -999.25   -999.25      0.00      0.00   -999.25 
   147.20   -999.25   -999.25      0.00      0.00   -999.25 
   147.30   -999.25   -999.25      0.00      0.00   -999.25 
   147.40   -999.25   -999.25      0.00      0.00   -999.25 
   147.50   -999.25   -999.25      0.00      0.00   -999.25 
   147.60   -999.25   -999.25      0.00      0.00   -999.25 
   147.70   -999.25   -999.25      0.00      0.00   -999.25 
   147.80   -999.25   -999.25      0.00      0.00   -999.25 
   147.90   -999.25   -999.25      0.00      0.00  12850.00 
   148.00   -999.25   -999.25      0.00      0.00   6066.06 
   148.10   -999.25   -999.25      0.00      0.00     35.35 
   148.20     52.89  11898.60   1052.14  12897.85     37.47 
   148.30     38.96   3253.90   1038.21   4253.15     45.18 
   148.40     15.36     12.13   1014.61   1011.38     39.29 
   148.50     15.44     12.13   1014.69   1011.38     37.88 
   148.60     15.43     12.13   1014.68   1011.38     41.29 
   148.70     15.43     12.13   1014.68   1011.38     48.59 
   148.80     15.42     12.13   1014.67   1011.38     44.53 
   148.90     15.43     12.13   1014.68   1011.38     47.47 
   149.00     15.42     12.13   1014.67   1011.38     44.18 
   149.10     15.41     12.13   1014.66   1011.38     30.94 
   149.20     15.41     12.13    -37.48 -11886.47     28.29 
   149.30     15.38     12.13    -20.15  -2161.18     39.53 
   149.40     15.40     12.13     -0.01      0.00     47.71 
   149.50     15.38     12.13     -0.05      0.00     41.82 
   149.60     15.38     12.13     -0.05      0.00     44.29 
   149.70     15.37     12.13     -0.05      0.00     40.47 
   149.80     15.37     12.13     -0.05      0.00     38.47 
   149.90     15.35     12.13     -0.07      0.00     41.00 
   150.00     15.37     12.13     -0.05      0.00     39.94 
   150.10     15.34     12.13     -0.07      0.00     36.65 
   150.20     15.34     12.13     -0.07      0.00     31.94 
   150.30     15.33     12.13     -0.06      0.00     37.12 
   150.40     15.31     12.13     -0.09      0.00     47.76 
   150.50     15.32     12.13     -0.06      0.00     46.00 
   150.60     15.31     12.13     -0.08      0.00     46.88 
   150.70     15.31     12.13     -0.06      0.00     51.65 
   150.80     15.29     12.13     -0.08      0.00     43.65 
   150.90     15.29     12.13     -0.06      0.00     49.18 
   151.00     15.29     12.13     -0.08      0.00     53.24 
   151.10     15.28     12.13     -0.06      0.00     45.24 
   151.20     15.26     12.13     -0.08      0.00     42.88 
   151.30     15.26     12.13     -0.07      0.00     51.47 
   151.40     15.25     12.13     -0.06      0.00     46.82 
   151.50     15.25     12.13     -0.07      0.00     52.35 
   151.60     15.23     12.13     -0.08      0.00     61.71 
   151.70     15.21     12.13     -0.09      0.00     67.76 
   151.80     15.21     12.13     -0.09      0.00     68.47 
   151.90     15.19    109.22     -0.10     97.09     50.65 
   152.00     15.19    672.86     -0.10    660.73     33.24 
   152.10     14.73    694.00     -0.55    681.87     21.00 
   152.20     14.00    693.27     -1.26    681.14     11.59 
   152.30     13.48    693.43     -1.78    681.30     11.53 
   152.40     13.08    693.59     -2.17    681.46      7.41 
   152.50     12.87    695.29     -2.38    683.16      5.65 
   152.60     12.71    692.86     -2.52    680.73      3.94 
   152.70     12.60    688.58     -2.62    676.45      2.59 
   152.80     12.50    688.58     -2.70    676.45      4.76 
   152.90     12.43    689.39     -2.76    518.63      2.59 
   153.00     12.39    689.15     -2.79    -10.26      4.71 
   153.10     12.34    689.71     -2.31     -3.55      4.71 
   153.20     12.32    689.71     -1.62     -3.55      1.76 
   153.30     12.30    689.07     -1.14     -4.36      2.24 
   153.40     12.27    686.56     -0.78     -7.03      4.71 
   153.50     12.27    685.35     -0.58    -10.66      6.41 
   153.60     12.27    685.03     -0.43     -7.27      4.06 
   153.70     12.27    683.82     -0.32     -4.77      3.94 
   153.80     12.26    683.25     -0.24     -5.33      3.47 
   153.90     12.23    682.61     -0.20     -6.62      2.53 
   154.00     12.23    680.67     -0.15     -8.48      4.29 
   154.10     12.22    679.13     -0.11    -10.58      4.82 
   154.20     12.22    678.97     -0.10    -10.74      5.12 
   154.30     12.19    679.46     -0.10     -9.61      4.65 
   154.40     12.18    678.89     -0.09     -8.16      2.53 
   154.50     12.17    677.76     -0.10     -8.32      3.00 
   154.60     12.18    677.20     -0.09     -7.92      3.53 
   154.70     12.17    677.20     -0.10     -6.62      3.00 
   154.80     12.16    676.63     -0.10     -6.54      2.94 
   154.90     12.15    675.98     -0.07     -6.62      2.59 
   155.00     12.15    675.98     -0.08     -4.77      3.18 
   155.10     12.16    675.98     -0.07     -3.15      3.12 
   155.20     12.15    674.61     -0.06     -4.36      4.76 
   155.30     12.15    674.69     -0.04     -4.20      4.35 
   155.40     12.15    673.96     -0.03     -4.36      3.00 
   155.50     12.14    674.61     -0.03     -2.58      2.12 
   155.60     12.16    673.24     -0.02     -3.96      2.53 
   155.70     12.16    673.32     -0.00     -3.31      1.24 
   155.80     12.16    672.59      0.01     -4.04      5.12 
   155.90     12.15    671.78     -0.01     -4.20      5.53 
   156.00     12.14    671.86     -0.01     -4.12      4.94 
   156.10     12.13    671.22     -0.02     -4.12      2.65 
   156.20     12.13    671.22     -0.02     -3.39      2.94 
   156.30     12.14    670.41     -0.01     -4.28      5.06 
   156.40     12.13    670.41     -0.02     -4.20      4.18 
   156.50     12.13    670.41     -0.00     -3.55      2.06 
   156.60     12.12    669.85     -0.04     -3.39      2.94 
   156.70     12.12    669.68     -0.04     -3.63      2.59 
   156.80     12.11    669.85     -0.05     -3.39      1.29 
   156.90     12.10    669.93     -0.04     -2.50      2.18 
   157.00     12.11    669.93     -0.03     -2.02      3.41 
   157.10     12.12    669.20     -0.02     -2.02      3.47 
   157.20     12.11    670.09     -0.03     -1.13      1.76 
   157.30     12.11    670.41     -0.04     -0.73      1.76 
   157.40     12.10    668.15     -0.02     -2.34      3.00 
   157.50     12.09    668.47     -0.04     -2.02      6.59 
   157.60     12.11    668.63     -0.01     -1.21      3.88 
   157.70     12.11    668.55     -0.02     -1.21      1.82 
   157.80     12.11    668.47      0.00     -1.37      4.00 
   157.90     12.11    668.55      0.01     -1.29      5.35 
   158.00     12.09    667.91     -0.02     -2.02      3.88 
   158.10     12.09    667.99     -0.02     -1.21      2.94 
   158.20     12.09    667.99     -0.02     -2.10      3.00 
   158.30     12.09    667.42     -0.02     -2.26      2.12 
   158.40     12.10    667.58     -0.00     -0.57      2.59 
   158.50     12.10    667.50      0.01     -1.62      7.41 
   158.60     12.10    667.42     -0.01     -1.13      4.82 
   158.70     12.09    667.50     -0.02     -1.05      2.65 
   158.80     12.09    667.18     -0.02     -1.37      3.47 
   158.90     12.10    666.86     -0.01     -1.21      1.35 
   159.00     12.08    666.86     -0.01     -1.13      2.12 
   159.10     12.07    666.13     -0.02     -1.94      3.35 
   159.20     12.07    666.13     -0.01     -1.29      3.06 
