#Written by Robertson Geologging WinLogger V1.0/311
~VERSION INFORMATION
#------------------------------------------------------------------------------
 VERS. 2.0 : CWLS LOG ASCII STANDARD - VERSION 2.0
 WRAP. NO  : ONE LINE PER DEPTH STEP
~WELL INFORMATION
#MNEM.UNIT         DATA                                DESCRIPTION OF MNEMONIC
#------------------------------------------------------------------------------
 STRT.M        146.1000                            :   START DEPTH
 STOP.M        425.1000                            :   STOP DEPTH
 STEP.M          0.1000                            :   STEP VALUE
 NULL.        -999.2500                            :   NULL VALUE
 COMP.    IMC                                      :   COMPANY NAME
 WELL.    HAWTHORN SHAFT                           :   WELL NAME
 FLD.     HAWTHORN                                 :   FIELD NAME
 LOC.     N/A                                      :   LOCATION
 PROV.    N/A                                      :   PROVINCE
 SRVC.    N/A                                      :   SERVICE COMPANY NAME
 DATE.    03 Oct 03                                :   DATE
 UWI.     N/A                                      :   UNIQUE WELL IDENTIFIER
~PARAMETER INFORMATION
#MNEMO.UNIT         VALUE                 DESCRIPTION OF MNEMONIC
#------------------------------------------------------------------------------
~OTHER INFORMATION SECTION
#------------------------------------------------------------------------------
 TCDS 2822
~CURVE INFORMATION
#MNEMO.UNIT         API CODE              CURVE DESCRIPTION
#------------------------------------------------------------------------------
 DEPTH.M                                 :   0     Depth
 TEMP.DegC                               :   1     Temperature
 COND.uS/cm                              :   2     Conductivity
 DELT.DegC                               :   3     Delta T
 DELC.uS/cm                              :   4     Delta C
 NGAM.API                                :   5     Natural Gamma
#------------------------------------------------------------------------------
~A  DEPTH     TEMP      COND      DELT      DELC      NGAM      
# ...
   251.70     14.16  46736.85     -0.01    128.70      4.53 
   251.80     14.16  46750.11      0.00    130.42      3.71 
   251.90     14.16  46760.05      0.01    132.56      2.88 
   252.00     14.16  46776.20      0.01    144.01      1.24 
   252.10     14.16  46790.21     -0.00    147.76      1.18 
   252.20     14.16  46803.90      0.01    147.77      2.00 
   252.30     14.16  46813.96     -0.01    143.39      4.12 
   252.40     14.17  46825.30     -0.00    141.26      8.24 
   252.50     14.18  46836.53      0.02    133.25      6.18 
   252.60     14.18  46841.77      0.02    120.64      2.12 
   252.70     14.18  46845.51      0.02    107.92      2.53 
   252.80     14.18  46846.16      0.02     95.30      2.88 
   252.90     14.18  46850.11      0.03     88.46      4.06 
   253.00     14.19  46851.18      0.03     73.48      4.47 
   253.10     14.18  46850.76      0.02     59.79      2.47 
   253.20     14.18  46849.79      0.02     45.14      2.06 
   253.30     14.20  46853.43      0.04     38.72      2.06 
   253.40     14.19  46859.74      0.02     32.84      2.88 
   253.50     14.20  46867.66      0.02     31.13      2.47 
   253.60     14.20  46873.97      0.02     31.45      2.47 
   253.70     14.21  46877.72      0.03     31.45      4.12 
   253.80     14.21  46882.42      0.03     35.52      1.65 
   253.90     14.20  46887.56      0.02     37.34      1.65 
   254.00     14.20  46890.77      0.01     40.34      3.29 
   254.10     14.20  46893.87      0.02     43.12      3.24 
   254.20     14.21  46896.12      0.02     46.33      3.24 
   254.30     14.20  46902.01      0.00     48.58      4.12 
   254.40     14.21  46909.28      0.02     48.79      3.24 
   254.50     14.20  46916.77     -0.00     49.11      2.41 
   254.60     14.20  46920.52     -0.00     46.55      3.76 
   254.70     14.20  46924.16     -0.00     46.44      3.65 
   254.80     14.20  46926.83     -0.00     43.66      4.41 
   254.90     14.19  46928.12     -0.01     40.56      3.29 
   255.00     14.20  46928.33      0.00     37.56      2.88 
   255.10     14.21  46931.54      0.01     38.42      6.18 
   255.20     14.21  46941.39     -0.00     44.52      3.71 
   255.30     14.22  46951.88      0.01     49.12      1.24 
   255.40     14.23  46960.23      0.02     50.19      2.47 
   255.50     14.21  46962.58      0.01     45.81      2.06 
   255.60     14.22  46968.90      0.02     47.63      5.65 
   255.70     14.22  46974.14      0.02     49.23      6.47 
   255.80     14.22  46978.96      0.02     52.13      4.53 
   255.90     14.23  46983.78      0.03     56.41      2.88 
   256.00     14.22  46988.70      0.01     61.12      2.47 
   256.10     14.21  46993.84      0.00     61.76      3.29 
   256.20     14.22  46998.33      0.02     55.34      3.71 
   256.30     14.24  47006.04      0.02     53.31      5.06 
   256.40     14.24  47011.61      0.01     51.38      5.88 
   256.50     14.23  47018.36      0.02     54.60      2.88 
   256.60     14.21  47019.85     -0.00     50.21      2.41 
   256.70     14.23  47016.86      0.01     42.71      1.59 
   256.80     14.23  47010.65      0.01     30.94      3.24 
   256.90     14.24  47001.01      0.00     16.49      2.82 
   257.00     14.24  46993.95      0.02      4.50      4.94 
   257.10     14.24  46986.02      0.02     -7.81      4.94 
   257.20     14.25  46975.96      0.02    -22.48      3.71 
   257.30     14.24  46972.21      0.00    -34.68      2.47 
   257.40     14.26  46975.21      0.02    -37.15      3.29 
   257.50     14.26  46982.71      0.03    -37.15      5.82 
   257.60     14.25  46988.70      0.04    -31.90      4.59 
   257.70     14.26  46993.20      0.03    -22.80      4.94 
   257.80     14.26  46994.59      0.03    -14.45      3.12 
   257.90     14.26  46998.33      0.01     -1.18      1.59 
   258.00     14.27  47004.33      0.04     11.88      2.88 
   258.10     14.27  47014.39      0.03     30.62      2.06 
   258.20     14.28  47023.49      0.03     48.28      2.88 
   258.30     14.26  47035.27      0.02     63.06      3.71 
   258.40     14.25  47047.05     -0.01     71.84      2.88 
   258.50     14.26  47058.40      0.01     75.70      2.12 
   258.60     14.28  47068.15      0.02     79.45      3.35 
   258.70     14.27  47076.50      0.01     83.30      2.88 
   258.80     14.27  47086.46      0.01     91.87      3.29 
   258.90     14.28  47094.92      0.02     96.48      2.47 
   259.00     14.28  47103.27      0.00     98.94      4.12 
   259.10     14.25  47108.63     -0.02     92.74      4.88 
   259.20     14.26  47118.81     -0.02     94.56      3.65 
   259.30     14.27  47130.91      0.01     94.89      2.41 
   259.40     14.26  47142.69      0.01     94.89      1.65 
   259.50     14.27  47153.09      0.00     93.83      4.18 
   259.60     14.26  47160.48     -0.02     91.58      5.41 
   259.70     14.26  47169.91     -0.01     92.66      2.47 
   259.80     14.26  47173.66     -0.01     86.45      5.35 
   259.90     14.25  47176.87     -0.03     81.20      5.82 
   260.00     14.27  47176.87     -0.00     72.85      5.00 
   260.10     14.27  47181.91      0.02     71.78      4.94 
   260.20     14.27  47188.34      0.02     68.67      5.29 
   260.30     14.27  47192.09      0.00     59.68      2.41 
   260.40     14.25  47197.34     -0.01     53.14      2.47 
   260.50     14.27  47203.77     -0.00     49.93      1.24 
   260.60     14.26  47213.52     -0.00     52.29      2.00 
   260.70     14.27  47219.09      0.01     48.43      2.88 
   260.80     14.27  47223.59      0.01     50.68      3.29 
   260.90     14.29  47227.45      0.04     51.33      4.18 
   261.00     14.29  47231.95      0.01     54.12      3.71 
   261.10     14.27  47239.99     -0.00     56.47      1.65 
   261.20     14.28  47244.17      0.00     55.83      2.53 
   261.30     14.29  47246.42      0.02     54.33      2.12 
   261.40     14.29  47249.42      0.03     51.33      2.88 
   261.50     14.27  47257.14      0.00     52.62      3.65 
   261.60     14.29  47261.53      0.03     47.26      2.82 
   261.70     14.29  47270.21      0.02     50.37      4.12 
   261.80     14.29  47276.54      0.01     51.45      3.71 
   261.90     14.30  47284.36      0.02     56.91      4.94 
   262.00     14.29  47293.15      0.01     59.70      4.53 
   262.10     14.28  47301.41      0.01     60.67      1.65 
   262.20     14.30  47308.48      0.01     65.17      4.88 
   262.30     14.30  47311.49      0.01     66.68      4.88 
   262.40     14.30  47318.46      0.01     69.04      2.06 
   262.50     14.30  47322.42      0.03     66.04      4.24 
   262.60     14.28  47326.50     -0.01     63.79      3.71 
   262.70     14.29  47325.42      0.00     54.46      2.06 
   262.80     14.29  47321.46      0.00     44.60      3.65 
   262.90     14.29  47318.24     -0.02     32.38      4.47 
   263.00     14.30  47315.67      0.01     20.91      5.76 
   263.10     14.29  47313.52      0.01     11.26      5.76 
   263.20     14.29  47312.24     -0.01      3.75      4.12 
   263.30     14.30  47311.38      0.00     -0.86      3.29 
   263.40     14.28  47307.63     -0.02    -11.58      2.06 
   263.50     14.28  47302.27     -0.02    -20.91      3.35 
   263.60     14.28  47294.01      0.00    -32.91      4.59 
   263.70     14.29  47286.29     -0.01    -38.38      3.24 
   263.80     14.30  47283.08      0.01    -37.63      2.41 
   263.90     14.30  47280.83      0.02    -37.41      3.71 
   264.00     14.30  47279.75     -0.00    -35.91      4.12 
   264.10     14.29  47279.97     -0.00    -33.55      3.71 
   264.20     14.31  47284.36      0.02    -27.12      5.35 
   264.30     14.29  47288.76     -0.01    -21.87      3.71 
   264.40     14.29  47294.87      0.02    -12.76      1.24 
   264.50     14.29  47302.27      0.01     -0.00      2.12 
   264.60     14.30  47307.73      0.01     14.47      3.76 
   264.70     14.29  47310.74     -0.00     25.19      4.53 
   264.80     14.28  47311.59     -0.02     28.52      4.12 
