#Written by Robertson Geologging WinLogger V1.0/370
~VERSION INFORMATION
#------------------------------------------------------------------------------
 VERS. 2.0 : CWLS LOG ASCII STANDARD - VERSION 2.0
 WRAP. NO  : ONE LINE PER DEPTH STEP
~WELL INFORMATION
#MNEM.UNIT         DATA                                DESCRIPTION OF MNEMONIC
#------------------------------------------------------------------------------
 STRT.M        118.0500                            :   START DEPTH
 STOP.M        420.0800                            :   STOP DEPTH
 STEP.M          0.0100                            :   STEP VALUE
 NULL.        -999.2500                            :   NULL VALUE
 COMP.    WHITE YOUN GREEN                         :   COMPANY NAME
 WELL.    HAWTHORN SHAFT                           :   WELL NAME
 FLD.     HAWTHORN                                 :   FIELD NAME
 LOC.     N/A                                      :   LOCATION
 PROV.    N/A                                      :   PROVINCE
 SRVC.    N/A                                      :   SERVICE COMPANY NAME
 DATE.    14 Dec 06                                :   DATE
 UWI.     N/A                                      :   UNIQUE WELL IDENTIFIER
~PARAMETER INFORMATION
#MNEMO.UNIT         VALUE                 DESCRIPTION OF MNEMONIC
#------------------------------------------------------------------------------
~OTHER INFORMATION SECTION
#------------------------------------------------------------------------------
 lLOGGING DOWN
~CURVE INFORMATION
#MNEMO.UNIT         API CODE              CURVE DESCRIPTION
#------------------------------------------------------------------------------
 DEPTH.M                                 :   0     Depth
 TEMP.DegC                               :   1     Temperature
 CN25.mS/cm                              :   2     Conductivity@25DegC
 COND.mS/cm                              :   3     Conductivity
 DELT.DegC                               :   4     Delta T
 DELC.mS/cm                              :   5     Delta C
 NGAM.CPS                                :   6     Natural Gamma
#------------------------------------------------------------------------------
~A  DEPTH     TEMP      CN25      COND      DELT      DELC      NGAM      
# ...
   177.94     12.52      7.84      1.54     -0.02      0.02      0.00 
   177.95     12.52      7.84      1.54     -0.02      0.02      0.00 
   177.96     12.52      7.84      1.54     -0.01      0.01      0.00 
   177.97     12.52      7.84      1.54     -0.01      0.01      0.00 
   177.98     12.52      7.84      1.54     -0.01      0.01      0.00 
   177.99     12.52      7.84      1.54     -0.01      0.01      0.00 
   178.00     12.53      7.84      1.54     -0.00      0.00      0.00 
   178.01     12.53      7.83      1.54     -0.00     -0.00      0.00 
   178.02     12.53      7.84      1.54      0.00     -0.00      0.00 
   178.03     12.53      7.83      1.54      0.00     -0.00      0.00 
   178.04     12.53      7.83      1.54      0.01     -0.01      0.00 
   178.05     12.53      7.83      1.54      0.01     -0.01      0.00 
   178.06     12.53      7.83      1.54      0.00     -0.00      0.00 
   178.07     12.53      7.83      1.54      0.00     -0.00      0.00 
   178.08     12.53      7.83      1.54     -0.00      0.01      0.00 
   178.09     12.53      7.84      1.54     -0.01      0.01      0.00 
   178.10     12.52      7.84      1.54     -0.01      0.01      0.00 
   178.11     12.52      7.84      1.54     -0.01      0.01      0.00 
   178.12     12.52      7.84      1.54     -0.01      0.02      0.00 
   178.13     12.52      7.84      1.54     -0.02      0.02      0.00 
   178.14     12.52      7.84      1.54     -0.02      0.02      0.00 
   178.15     12.52      7.84      1.54     -0.02      0.02      0.00 
   178.16     12.52      7.85      1.54     -0.02      0.02      0.00 
   178.17     12.52      7.84      1.54     -0.02      0.02      0.00 
   178.18     12.52      7.84      1.54     -0.02      0.02      0.00 
   178.19     12.52      7.84      1.54     -0.01      0.01      0.00 
   178.20     12.52      7.84      1.54     -0.01      0.00      0.00 
   178.21     12.53      7.84      1.54     -0.01      0.01      0.00 
   178.22     12.53      7.83      1.54     -0.00      0.01      0.00 
   178.23     12.53      7.84      1.54     -0.01      0.01      0.00 
   178.24     12.53      7.84      1.54     -0.00      0.01      0.00 
   178.25     12.53      7.84      1.54     -0.00      0.00      0.00 
   178.26     12.53      7.84      1.54     -0.00      0.01      0.00 
   178.27     12.53      7.83      1.54     -0.00      0.00      0.00 
   178.28     12.53      7.83      1.54     -0.00      0.00      0.00 
   178.29     12.53      7.83      1.54     -0.00      0.00      0.00 
   178.30     12.53      7.83      1.54     -0.00      0.00      0.00 
   178.31     12.53      7.83      1.54     -0.00      0.01      0.41 
   178.32     12.53      7.83      1.54     -0.00      0.00      0.41 
   178.33     12.53      7.83      1.54     -0.00      0.00      0.41 
   178.34     12.54      7.83      1.54      0.00     -0.00      0.41 
   178.35     12.54      7.82      1.54      0.00     -0.01      0.41 
   178.36     12.54      7.83      1.54      0.00     -0.00      0.82 
   178.37     12.54      7.82      1.54      0.01     -0.01      1.24 
   178.38     12.54      7.82      1.54      0.01     -0.01      1.24 
   178.39     12.54      7.82      1.54      0.01     -0.02      1.24 
   178.40     12.54      7.82      1.54      0.01     -0.01      1.24 
   178.41     12.54      7.82      1.54      0.01     -0.01      1.24 
   178.42     12.54      7.82      1.54      0.01     -0.01      1.24 
   178.43     12.53      7.83      1.54      0.01     -0.01      1.24 
   178.44     12.53      7.83      1.54      0.01     -0.01      1.24 
   178.45     12.53      7.83      1.54      0.01     -0.00      1.24 
   178.46     12.53      7.83      1.54      0.01     -0.00      1.24 
   178.47     12.53      7.83      1.54      0.00     -0.00      1.24 
   178.48     12.52      7.84      1.54     -0.00     -0.00      0.82 
   178.49     12.52      7.84      1.54     -0.01      0.00      0.82 
   178.50     12.52      7.85      1.54     -0.01      0.01      0.82 
   178.51     12.51      7.85      1.54     -0.01      0.01      0.82 
   178.52     12.51      7.85      1.54     -0.01      0.01      0.82 
   178.53     12.52      7.85      1.54     -0.01      0.01      0.41 
   178.54     12.52      7.85      1.54     -0.01      0.01      0.00 
   178.55     12.52      7.84      1.54     -0.01      0.01      0.00 
   178.56     12.52      7.84      1.54     -0.01      0.01      0.00 
   178.57     12.52      7.84      1.54     -0.01      0.01      0.00 
   178.58     12.53      7.84      1.54     -0.01      0.00      0.00 
   178.59     12.53      7.84      1.54     -0.00      0.01      0.00 
   178.60     12.53      7.83      1.54      0.00      0.00      0.00 
   178.61     12.53      7.83      1.54      0.01     -0.01      0.00 
   178.62     12.53      7.83      1.54      0.01     -0.01      0.00 
   178.63     12.53      7.83      1.54      0.01     -0.01      0.00 
   178.64     12.53      7.84      1.54      0.01     -0.00      0.00 
   178.65     12.53      7.83      1.54      0.01     -0.01      0.00 
   178.66     12.53      7.84      1.54      0.01     -0.01      0.00 
   178.67     12.53      7.83      1.54      0.01     -0.01      0.00 
   178.68     12.53      7.84      1.54      0.01     -0.01      0.00 
   178.69     12.53      7.84      1.54      0.01     -0.00      0.00 
   178.70     12.52      7.84      1.54      0.01     -0.01      0.00 
   178.71     12.53      7.84      1.54      0.01     -0.01      0.00 
   178.72     12.53      7.83      1.54      0.01     -0.01      0.00 
   178.73     12.53      7.83      1.54      0.01     -0.01      0.00 
   178.74     12.53      7.83      1.54      0.01     -0.01      0.00 
   178.75     12.54      7.83      1.54      0.01     -0.01      0.00 
   178.76     12.54      7.83      1.54      0.01     -0.01      0.00 
   178.77     12.54      7.83      1.54      0.01     -0.01      0.00 
   178.78     12.53      7.83      1.54      0.00     -0.00      0.00 
   178.79     12.53      7.83      1.54      0.00     -0.00      0.00 
   178.80     12.53      7.83      1.54      0.00     -0.00      0.00 
   178.81     12.53      7.83      1.54      0.00     -0.00      0.00 
   178.82     12.53      7.83      1.54     -0.00     -0.00      0.00 
   178.83     12.53      7.83      1.54     -0.00      0.00      0.00 
   178.84     12.53      7.83      1.54     -0.00      0.01      0.00 
   178.85     12.53      7.83      1.54     -0.00      0.00      0.00 
   178.86     12.53      7.83      1.54     -0.00      0.00      0.00 
   178.87     12.53      7.83      1.54     -0.00     -0.00      0.00 
   178.88     12.53      7.84      1.54     -0.00      0.01      0.41 
   178.89     12.53      7.84      1.54     -0.00      0.00      0.41 
   178.90     12.52      7.84      1.54     -0.00      0.00      0.41 
   178.91     12.52      7.84      1.54     -0.00     -0.00      0.41 
   178.92     12.52      7.84      1.54     -0.00     -0.00      0.41 
   178.93     12.52      7.85      1.54     -0.00      0.00      0.41 
   178.94     12.52      7.84      1.54     -0.00      0.00      0.41 
   178.95     12.52      7.84      1.54     -0.00      0.00      0.41 
   178.96     12.52      7.84      1.54     -0.00     -0.00      0.41 
   178.97     12.52      7.84      1.54     -0.00      0.00      0.41 
   178.98     12.52      7.84      1.54     -0.00      0.01      0.41 
   178.99     12.52      7.84      1.54     -0.01      0.01      0.41 
   179.00     12.52      7.84      1.54     -0.01      0.01      0.41 
   179.01     12.52      7.84      1.54     -0.01      0.00      0.41 
   179.02     12.53      7.84      1.54     -0.00      0.01      0.41 
   179.03     12.53      7.84      1.54     -0.01      0.01      0.41 
   179.04     12.53      7.83      1.54     -0.00      0.00      0.41 
   179.05     12.53      7.83      1.54     -0.00      0.00      0.00 
   179.06     12.53      7.83      1.54     -0.00     -0.00      0.00 
