#Written by Robertson Geologging WinLogger V1.0/406
~VERSION INFORMATION
#------------------------------------------------------------------------------
 VERS. 2.0 : CWLS LOG ASCII STANDARD - VERSION 2.0
 WRAP. NO  : ONE LINE PER DEPTH STEP
~WELL INFORMATION
#MNEM.UNIT         DATA                                DESCRIPTION OF MNEMONIC
#------------------------------------------------------------------------------
 STRT.M        115.9300                            :   START DEPTH
 STOP.M        440.0000                            :   STOP DEPTH
 STEP.M          0.0100                            :   STEP VALUE
 NULL.        -999.2500                            :   NULL VALUE
 COMP.    Coal Authority                           :   COMPANY NAME
 WELL.    Hawthorn Shaft                           :   WELL NAME
 FLD.     Hawthorn                                 :   FIELD NAME
 LOC.     N/A                                      :   LOCATION
 PROV.    N/A                                      :   PROVINCE
 SRVC.    N/A                                      :   SERVICE COMPANY NAME
 DATE.    28 Aug 08                                :   DATE
 UWI.     N/A                                      :   UNIQUE WELL IDENTIFIER
~PARAMETER INFORMATION
#MNEMO.UNIT         VALUE                 DESCRIPTION OF MNEMONIC
#------------------------------------------------------------------------------
~OTHER INFORMATION SECTION
#------------------------------------------------------------------------------
 TCGS 1365
 Logged in low conductivity mode as starting readings were so low.
~CURVE INFORMATION
#MNEMO.UNIT         API CODE              CURVE DESCRIPTION
#------------------------------------------------------------------------------
 DEPTH.M                                 :   0     Depth
 TEMP.DegC                               :   1     Temperature
 CN25.uS/cm                              :   2     Conductivity@25DegC
 DELT.DegC                               :   3     Delta T
 DELC.uS/cm                              :   4     Delta C
 NGAM.CPS                                :   5     Natural Gamma
 COND.uS/cm                              :   6     Conductivity
#------------------------------------------------------------------------------
~A  DEPTH     TEMP      CN25      DELT      DELC      NGAM      COND      
# ...
   439.11     19.59  54816.32      0.04    -94.52      0.00  48888.29 
   439.12     19.59  54806.76      0.04   -108.18      0.00  48879.76 
   439.13     19.59  54822.26      0.04    -81.74      0.00  48888.29 
   439.14     19.60  54810.38      0.05   -100.45      0.00  48888.29 
   439.15     19.59  54806.76      0.05   -116.87      0.00  48879.76 
   439.16     19.59  54816.32      0.05   -100.47      0.00  48888.29 
   439.17     19.60  54804.44      0.05   -106.39      0.00  48888.29 
   439.18     19.60  54794.89      0.05   -105.89      0.00  48879.76 
   439.19     19.60  54804.44      0.05   -101.80      0.00  48888.29 
   439.20     19.59  54806.76      0.04    -91.29      0.00  48879.76 
   439.21     19.60  54799.46      0.05   -100.44      0.00  48878.55 
   439.22     19.59  54806.76      0.05   -109.15      0.00  48879.76 
   439.23     19.60  54810.38      0.07   -117.45      0.00  48888.29 
   439.24     19.61  54798.51      0.08   -135.28      7.00  48888.29 
   439.25     19.61  54781.65      0.09   -152.14      7.00  48878.55 
   439.26     19.62  54777.08      0.09   -150.74      0.00  48879.76 
   439.27     19.61  54781.65      0.07   -134.26      0.00  48878.55 
   439.28     19.61  54798.51      0.06    -95.92      0.00  48888.29 
   439.29     19.60  54799.46      0.03    -74.38      0.00  48878.55 
   439.30     19.60  54800.82      0.02    -73.42      0.00  48879.76 
   439.31     19.60  54783.96      0.04    -92.61      0.00  48870.02 
   439.32     19.60  54804.44      0.05    -93.60      0.00  48888.29 
   439.33     19.61  54774.83      0.06   -119.60      6.00  48872.46 
   439.34     19.61  54792.57      0.06   -101.86      0.00  48888.29 
   439.35     19.61  54781.65      0.05    -98.14      0.00  48878.55 
   439.36     19.61  54788.95      0.05   -103.14      0.00  48879.76 
   439.37     19.61  54781.65      0.05    -94.92      0.00  48878.55 
   439.38     19.61  54788.95      0.03    -66.16      6.00  48879.76 
   439.39     19.62  54777.08      0.05    -99.49      6.00  48879.76 
   439.40     19.63  54758.40      0.06   -112.22      0.00  48873.67 
   439.41     19.63  54767.95      0.06    -94.48      0.00  48882.20 
   439.42     19.63  54767.95      0.07   -120.52      0.00  48882.20 
   439.43     19.62  54786.64      0.05    -81.74      4.00  48888.29 
   439.44     19.62  54786.64      0.05    -89.94      4.00  48888.29 
   439.45     19.62  54792.10      0.06    -90.43      0.00  48893.16 
   439.46     19.63  54774.77      0.07   -105.50      0.00  48888.29 
   439.47     19.63  54772.94      0.09   -111.04      0.00  48891.94 
   439.48     19.63  54782.96      0.08   -111.47      0.00  48895.60 
   439.49     19.62  54794.35      0.08    -97.83      0.00  48900.47 
   439.50     19.63  54786.58      0.09   -111.55      3.00  48904.12 
   439.51     19.63  54782.96      0.07    -97.31      3.00  48895.60 
   439.52     19.63  54790.68      0.08    -92.33      4.00  48907.77 
   439.53     19.63  54786.58      0.06    -75.84      0.00  48904.12 
   439.54     19.62  54794.35      0.04    -42.04      0.00  48900.47 
   439.55     19.62  54804.38      0.04    -60.30      0.00  48904.12 
   439.56     19.61  54804.86      0.04    -35.23      0.00  48899.25 
   439.57     19.62  54792.99      0.06    -75.39      4.00  48899.25 
   439.58     19.63  54788.42      0.06    -79.95      0.00  48900.47 
   439.59     19.63  54786.58      0.07    -81.79      0.00  48904.12 
   439.60     19.64  54769.27      0.07    -93.16      4.00  48899.25 
   439.61     19.64  54777.45      0.07    -78.14      0.00  48906.56 
   439.62     19.63  54787.06      0.06    -75.37      0.00  48899.25 
   439.63     19.63  54792.51      0.05    -55.77      4.00  48904.12 
   439.64     19.62  54787.53      0.05    -74.90      0.00  48894.38 
   439.65     19.61  54810.79      0.04    -35.24      0.00  48899.25 
   439.66     19.62  54794.35      0.06    -74.02      5.00  48900.47 
   439.67     19.63  54787.06      0.05    -62.59      4.00  48899.25 
   439.68     19.63  54788.42      0.05    -59.86      0.00  48900.47 
   439.69     19.64  54769.27      0.06    -68.49      9.00  48899.25 
   439.70     19.63  54781.12      0.04    -51.58      0.00  48899.25 
   439.71     19.63  54778.40      0.05    -58.00      3.00  48896.81 
   439.72     19.63  54779.29      0.05    -58.47      0.00  48902.90 
   439.73     19.64  54774.72      0.07    -73.56      4.00  48904.12 
   439.74     19.65  54768.32      0.09    -83.65      5.00  48908.99 
   439.75     19.64  54787.00      0.07    -68.59      0.00  48915.08 
   439.76     19.64  54787.00      0.07    -67.23      0.00  48915.08 
   439.77     19.64  54787.00      0.07    -62.65      0.00  48915.08 
   439.78     19.64  54787.00      0.06    -49.39      0.00  48915.08 
   439.79     19.64  54787.00      0.05    -35.26      0.00  48915.08 
   439.80     19.64  54787.00      0.05    -44.82      0.00  48915.08 
   439.81     19.64  54787.00      0.06    -49.39      0.00  48915.08 
   439.82     19.64  54787.00      0.05    -38.88      0.00  48915.08 
   439.83     19.64  54787.00      0.06    -41.20      0.00  48915.08 
   439.84     19.64  54787.00      0.05    -29.32      0.00  48915.08 
   439.85     19.64  54787.00      0.05    -43.45      0.00  48915.08 
   439.86     19.64  54787.00      0.05    -35.26      0.00  48915.08 
   439.87     19.64  54787.00      0.05    -44.82      0.00  48915.08 
   439.88     19.64  54787.00      0.07    -53.08      0.00  48915.08 
   439.89     19.64  54787.00      0.06    -50.76      0.00  48915.08 
   439.90     19.64  54787.00      0.06    -41.20      0.00  48915.08 
   439.91     19.64  54787.00      0.05    -35.26      0.00  48915.08 
   439.92     19.64  54787.00      0.05    -29.32      0.00  48915.08 
   439.93     19.64  54787.00      0.05    -35.26      0.00  48915.08 
   439.94     19.64  54787.00      0.05    -29.32      0.00  48915.08 
   439.95     19.64  54787.00      0.06    -55.34      0.00  48915.08 
   439.96     19.64  54787.00      0.06    -41.20      0.00  48915.08 
   439.97     19.64  54787.00      0.06    -41.20      0.00  48915.08 
   439.98     19.64  54787.00      0.06    -41.20      0.00  48915.08 
   439.99     19.64  54787.00      0.05    -29.32      0.00  48915.08 
   440.00     19.64  54787.00      0.04    -23.38      0.00  48915.08 
