#Written by Robertson Geologging WinLogger V1.0/406
~VERSION INFORMATION
#------------------------------------------------------------------------------
 VERS. 2.0 : CWLS LOG ASCII STANDARD - VERSION 2.0
 WRAP. NO  : ONE LINE PER DEPTH STEP
~WELL INFORMATION
#MNEM.UNIT         DATA                                DESCRIPTION OF MNEMONIC
#------------------------------------------------------------------------------
 STRT.M        115.9300                            :   START DEPTH
 STOP.M        440.0000                            :   STOP DEPTH
 STEP.M          0.0100                            :   STEP VALUE
 NULL.        -999.2500                            :   NULL VALUE
 COMP.    Coal Authority                           :   COMPANY NAME
 WELL.    Hawthorn Shaft                           :   WELL NAME
 FLD.     Hawthorn                                 :   FIELD NAME
 LOC.     N/A                                      :   LOCATION
 PROV.    N/A                                      :   PROVINCE
 SRVC.    N/A                                      :   SERVICE COMPANY NAME
 DATE.    28 Aug 08                                :   DATE
 UWI.     N/A                                      :   UNIQUE WELL IDENTIFIER
~PARAMETER INFORMATION
#MNEMO.UNIT         VALUE                 DESCRIPTION OF MNEMONIC
#------------------------------------------------------------------------------
~OTHER INFORMATION SECTION
#------------------------------------------------------------------------------
 TCGS 1365
 Logged in low conductivity mode as starting readings were so low.
~CURVE INFORMATION
#MNEMO.UNIT         API CODE              CURVE DESCRIPTION
#------------------------------------------------------------------------------
 DEPTH.M                                 :   0     Depth
 TEMP.DegC                               :   1     Temperature
 CN25.uS/cm                              :   2     Conductivity@25DegC
 DELT.DegC                               :   3     Delta T
 DELC.uS/cm                              :   4     Delta C
 NGAM.CPS                                :   5     Natural Gamma
 COND.uS/cm                              :   6     Conductivity
#------------------------------------------------------------------------------
~A  DEPTH     TEMP      CN25      DELT      DELC      NGAM      COND      
# ...
   353.23     17.03  21539.46     -0.00      2.48      0.00  18104.50 
   353.24     17.02  21551.69     -0.00     12.23      0.00  18112.70 
   353.25     17.02  21540.72     -0.00      9.79      0.00  18103.48 
   353.26     17.02  21541.94      0.00     -2.48      7.00  18104.50 
   353.27     17.03  21539.46      0.01     -3.74      0.00  18104.50 
   353.28     17.03  21546.73      0.01     -4.96      0.00  18112.70 
   353.29     17.03  21535.76      0.01     -6.18      0.00  18103.48 
   353.30     17.03  21536.98      0.01     -4.96      0.00  18104.50 
   353.31     17.03  21536.98      0.01     -3.74      0.00  18104.50 
   353.32     17.04  21544.25      0.00      7.27      0.00  18112.70 
   353.33     17.03  21536.98     -0.00      2.48      0.00  18104.50 
   353.34     17.03  21539.46     -0.00      2.48      0.00  18104.50 
   353.35     17.02  21551.69     -0.00     20.76      7.00  18112.70 
   353.36     17.01  21546.90     -0.00      2.48      0.00  18104.50 
   353.37     17.02  21544.42      0.00      0.00      7.00  18104.50 
   353.38     17.02  21530.97      0.00    -12.23      0.00  18095.28 
   353.39     17.03  21549.21     -0.00     11.01      0.00  18112.70 
   353.40     17.03  21539.46     -0.00      3.70      0.00  18104.50 
   353.41     17.03  21539.46     -0.00      2.48      0.00  18104.50 
   353.42     17.02  21551.69     -0.01     17.19      7.00  18112.70 
   353.43     17.02  21541.94     -0.00     -7.27      0.00  18104.50 
   353.44     17.03  21538.24      0.00     -1.22      0.00  18103.48 
   353.45     17.03  21539.46     -0.00      2.48      0.00  18104.50 
   353.46     17.03  21546.73      0.00      7.27      0.00  18112.70 
   353.47     17.03  21536.98      0.00      1.22      0.00  18104.50 
   353.48     17.02  21541.94     -0.01      4.96      0.00  18104.50 
   353.49     17.02  21551.69     -0.01     14.71      0.00  18112.70 
   353.50     17.02  21541.94     -0.01      7.44      0.00  18104.50 
   353.51     17.02  21541.94     -0.01      4.96      0.00  18104.50 
   353.52     17.03  21546.73      0.00      7.27      0.00  18112.70 
   353.53     17.03  21536.98      0.00     -2.48      7.00  18104.50 
   353.54     17.03  21536.98      0.01    -17.19      0.00  18104.50 
   353.55     17.03  21539.46      0.01     -4.96      0.00  18104.50 
   353.56     17.01  21556.65     -0.01     14.71      0.00  18112.70 
   353.57     17.01  21549.38     -0.01      7.44      0.00  18104.50 
   353.58     17.01  21545.68     -0.00      2.48      0.00  18103.48 
   353.59     17.02  21551.69      0.00      7.27      0.00  18112.70 
   353.60     17.03  21539.46      0.01      3.57      0.00  18104.50 
   353.61     17.03  21539.46      0.01     -3.74      0.00  18104.50 
   353.62     17.03  21539.46      0.00      0.00      0.00  18104.50 
   353.63     17.02  21541.94     -0.01      4.96      7.00  18104.50 
   353.64     17.03  21535.76      0.00    -10.97      8.00  18103.48 
   353.65     17.03  21549.21     -0.01     15.92      0.00  18112.70 
   353.66     17.03  21539.46     -0.00      2.48      0.00  18104.50 
   353.67     17.03  21538.24      0.00     -3.70      0.00  18103.48 
   353.68     17.02  21544.42     -0.01      6.18      0.00  18104.50 
   353.69     17.02  21551.69      0.00      9.75      0.00  18112.70 
   353.70     17.03  21538.24      0.00     -3.70      0.00  18103.48 
   353.71     17.03  21536.98      0.00    -12.23      0.00  18104.50 
   353.72     17.04  21544.25      0.01      4.79      0.00  18112.70 
   353.73     17.04  21533.29      0.01     -6.18      0.00  18103.48 
   353.74     17.04  21534.50      0.01     -4.96      0.00  18104.50 
   353.75     17.03  21546.73      0.01      2.31      0.00  18112.70 
   353.76     17.04  21534.50      0.02     -9.92      7.00  18104.50 
   353.77     17.04  21530.81      0.02    -23.36      0.00  18103.48 
   353.78     17.04  21544.25      0.02     -0.17      0.00  18112.70 
   353.79     17.04  21534.50      0.01     -7.44      0.00  18104.50 
   353.80     17.04  21534.50      0.01     -7.44      7.00  18104.50 
   353.81     17.04  21544.25      0.01      2.31      0.00  18112.70 
   353.82     17.04  21534.50      0.02     -9.92      0.00  18104.50 
   353.83     17.04  21534.50      0.01     -4.96      0.00  18104.50 
   353.84     17.03  21549.21     -0.01      4.96      0.00  18112.70 
   353.85     17.02  21541.94     -0.02      9.91      0.00  18104.50 
   353.86     17.02  21544.42     -0.03     23.40      0.00  18104.50 
   353.87     17.02  21554.17     -0.03     24.62      0.00  18112.70 
   353.88     17.03  21539.46     -0.01      7.43      0.00  18104.50 
   353.89     17.04  21523.54      0.00    -23.19      0.00  18095.28 
   353.90     17.04  21541.77      0.01      4.79      0.00  18112.70 
   353.91     17.05  21527.07      0.02    -12.39      0.00  18104.50 
   353.92     17.05  21529.55      0.02    -12.39      0.00  18104.50 
   353.93     17.04  21544.25      0.01      4.79      0.00  18112.70 
   353.94     17.02  21541.94     -0.00      3.70      7.00  18104.50 
   353.95     17.01  21546.90     -0.01      7.44      0.00  18104.50 
   353.96     17.01  21556.65     -0.02      9.92      0.00  18112.70 
   353.97     17.02  21544.42     -0.01      4.96      0.00  18104.50 
   353.98     17.02  21541.94     -0.01      4.96      0.00  18104.50 
   353.99     17.03  21549.21      0.00      9.75      0.00  18112.70 
   354.00     17.03  21536.98      0.01     -4.96      0.00  18104.50 
   354.01     17.03  21536.98      0.01    -17.19      0.00  18104.50 
   354.02     17.04  21544.25      0.01      6.01      0.00  18112.70 
   354.03     17.03  21536.98      0.00      0.00      0.00  18104.50 
   354.04     17.03  21536.98     -0.00      2.48      0.00  18104.50 
   354.05     17.03  21546.73      0.00      9.75      0.00  18112.70 
   354.06     17.03  21536.98      0.01    -14.71      0.00  18104.50 
   354.07     17.04  21534.50      0.03    -14.88      0.00  18104.50 
   354.08     17.03  21546.73      0.02     -2.65      0.00  18112.70 
   354.09     17.03  21535.76      0.02     -9.92      0.00  18103.48 
   354.10     17.03  21536.98      0.01     -4.96      0.00  18104.50 
   354.11     17.03  21546.73     -0.01     14.70      0.00  18112.70 
   354.12     17.04  21534.50     -0.01      4.95      0.00  18104.50 
   354.13     17.02  21541.94     -0.01      7.44      0.00  18104.50 
   354.14     17.01  21546.90     -0.01      7.44      0.00  18104.50 
   354.15     17.01  21546.90     -0.02      2.65      0.00  18104.50 
   354.16     17.02  21543.20     -0.01      7.44      0.00  18103.48 
   354.17     17.03  21549.21     -0.01     17.18      0.00  18112.70 
   354.18     17.04  21534.50     -0.00      2.48      0.00  18104.50 
   354.19     17.04  21534.50      0.01    -14.71      0.00  18104.50 
   354.20     17.03  21549.21      0.00     10.97      0.00  18112.70 
   354.21     17.02  21544.42     -0.01      4.96      0.00  18104.50 
   354.22     17.02  21544.42     -0.01      4.96      0.00  18104.50 
   354.23     17.02  21551.69      0.00      0.00      0.00  18112.70 
   354.24     17.02  21541.94      0.00      1.22      0.00  18104.50 
   354.25     17.03  21549.21      0.00      7.27      0.00  18112.70 
   354.26     17.02  21541.94     -0.00      2.48      0.00  18104.50 
   354.27     17.02  21541.94     -0.01     -4.79      0.00  18104.50 
   354.28     17.03  21549.21     -0.00     13.45      0.00  18112.70 
   354.29     17.03  21539.46     -0.00      2.48      0.00  18104.50 
   354.30     17.03  21549.21     -0.00     12.23      0.00  18112.70 
   354.31     17.03  21539.46     -0.01     -4.79      0.00  18104.50 
   354.32     17.03  21538.24     -0.00      1.26      0.00  18103.48 
   354.33     17.03  21549.21      0.00      9.75      0.00  18112.70 
   354.34     17.02  21541.94      0.00     -9.75      0.00  18104.50 
   354.35     17.02  21554.17      0.00      7.27      0.00  18112.70 
