#Written by Robertson Geologging WinLogger V1.0/311
~VERSION INFORMATION
#------------------------------------------------------------------------------
 VERS. 2.0 : CWLS LOG ASCII STANDARD - VERSION 2.0
 WRAP. NO  : ONE LINE PER DEPTH STEP
~WELL INFORMATION
#MNEM.UNIT         DATA                                DESCRIPTION OF MNEMONIC
#------------------------------------------------------------------------------
 STRT.M        146.1000                            :   START DEPTH
 STOP.M        425.1000                            :   STOP DEPTH
 STEP.M          0.1000                            :   STEP VALUE
 NULL.        -999.2500                            :   NULL VALUE
 COMP.    IMC                                      :   COMPANY NAME
 WELL.    HAWTHORN SHAFT                           :   WELL NAME
 FLD.     HAWTHORN                                 :   FIELD NAME
 LOC.     N/A                                      :   LOCATION
 PROV.    N/A                                      :   PROVINCE
 SRVC.    N/A                                      :   SERVICE COMPANY NAME
 DATE.    03 Oct 03                                :   DATE
 UWI.     N/A                                      :   UNIQUE WELL IDENTIFIER
~PARAMETER INFORMATION
#MNEMO.UNIT         VALUE                 DESCRIPTION OF MNEMONIC
#------------------------------------------------------------------------------
~OTHER INFORMATION SECTION
#------------------------------------------------------------------------------
 TCDS 2822
~CURVE INFORMATION
#MNEMO.UNIT         API CODE              CURVE DESCRIPTION
#------------------------------------------------------------------------------
 DEPTH.M                                 :   0     Depth
 TEMP.DegC                               :   1     Temperature
 COND.uS/cm                              :   2     Conductivity
 DELT.DegC                               :   3     Delta T
 DELC.uS/cm                              :   4     Delta C
 NGAM.API                                :   5     Natural Gamma
#------------------------------------------------------------------------------
~A  DEPTH     TEMP      COND      DELT      DELC      NGAM      
# ...
   159.30     12.06    666.70     -0.03     -0.81      2.65 
   159.40     12.07    666.05     -0.03     -1.53      3.88 
   159.50     12.06    666.29     -0.04     -1.78      5.12 
   159.60     12.07    666.29     -0.02     -1.21      5.12 
   159.70     12.06    666.37     -0.03     -0.97      3.06 
   159.80     12.06    666.29     -0.04     -0.32      3.76 
   159.90     12.05    665.81     -0.05     -1.05      4.18 
   160.00     12.05    665.57     -0.03     -1.29      5.88 
   160.10     12.04    666.21     -0.04     -0.00      7.59 
   160.20     12.05    666.21     -0.02     -0.65      5.24 
   160.30     12.04    666.13     -0.03      0.08      5.24 
   160.40     12.05    666.21     -0.02      0.16      4.06 
   160.50     12.04    666.37     -0.02     -0.08      4.88 
   160.60     12.05    666.05     -0.03      0.24      4.88 
   160.70     12.04    666.29     -0.02      0.65      3.47 
   160.80     12.04    666.29     -0.02      0.08      2.59 
   160.90     12.03    665.73     -0.02     -0.57      2.47 
   161.00     12.03    665.73     -0.01     -0.32      3.82 
   161.10     12.03    665.81     -0.01     -0.40      2.06 
   161.20     12.04    666.29     -0.02      0.00      3.00 
   161.30     12.05    666.21      0.01      0.08      4.24 
   161.40     12.05    666.13      0.01      0.48      5.06 
   161.50     12.04    666.21      0.01     -0.08      3.94 
   161.60     12.04    666.21     -0.00      0.16      4.82 
   161.70     12.04    666.05     -0.00      0.40      3.18 
   161.80     12.03    665.97     -0.00     -0.32      3.35 
   161.90     12.01    666.05     -0.02     -0.16      5.18 
   162.00     12.02    665.48     -0.01     -0.81      6.18 
   162.10     12.02    665.73     -0.01     -0.57      3.47 
   162.20     12.01    665.73     -0.03     -0.57      3.06 
   162.30     12.01    665.73     -0.04      0.08      2.65 
   162.40     12.01    665.81     -0.04      0.32      4.71 
   162.50     12.00    665.57     -0.05     -0.08      5.24 
   162.60     12.00    665.24     -0.05     -0.24      3.47 
   162.70     12.00    665.73     -0.04      0.24      4.41 
   162.80     12.00    665.73     -0.03      0.24      3.53 
   162.90     12.00    665.73     -0.01      0.40      3.82 
   163.00     11.99    665.73     -0.03      0.32      1.71 
   163.10     12.00    665.48     -0.02     -0.24      2.59 
   163.20     11.99    665.97     -0.02      0.73      5.94 
   163.30     11.99    665.57     -0.02      0.57      2.88 
   163.40     11.98    665.65     -0.03      0.57      3.76 
   163.50     12.00    665.81     -0.00      0.81      4.71 
   163.60     12.00    665.81      0.00      0.08      4.82 
   163.70     11.99    665.65     -0.01     -0.08      4.00 
   163.80     11.99    665.65     -0.01     -0.08      4.71 
   163.90     11.99    665.73     -0.01      0.00      3.82 
   164.00     11.99    666.21      0.00      0.40      3.00 
   164.10     11.99    665.73     -0.01      0.40      2.59 
   164.20     11.99    664.84      0.01     -0.57      5.18 
   164.30     11.99    665.73     -0.00      0.08      2.94 
   164.40     11.98    665.73     -0.01     -0.08      2.59 
   164.50     11.98    665.65     -0.01     -0.16      3.53 
   164.60     11.98    665.40     -0.03     -0.24      2.18 
   164.70     11.98    665.57     -0.01     -0.08      3.76 
   164.80     11.98    665.73     -0.01     -0.40      4.59 
   164.90     11.98    665.65     -0.01     -0.08      4.82 
   165.00     11.98    665.57     -0.01      0.00      5.76 
   165.10     11.97    665.73     -0.02      0.08      4.82 
   165.20     11.97    665.57     -0.02      0.16      3.00 
   165.30     11.98    665.40     -0.01     -0.32      1.71 
   165.40     11.97    665.73     -0.01      0.08      2.53 
   165.50     11.97    665.73     -0.01     -0.48      1.65 
   165.60     11.97    665.57     -0.01      0.00      2.53 
   165.70     11.97    665.32     -0.01     -0.24      3.82 
   165.80     11.97    665.57     -0.01      0.00      3.35 
   165.90     11.96    665.40     -0.02     -0.24      5.47 
   166.00     11.96    665.73     -0.03     -0.00      5.18 
   166.10     11.95    665.65     -0.02     -0.08      5.71 
   166.20     11.95    665.65     -0.02     -0.48      3.06 
   166.30     11.95    665.24     -0.03     -0.32      3.12 
   166.40     11.96    665.65     -0.01     -0.08      6.12 
   166.50     11.96    665.57     -0.02     -0.73      7.00 
   166.60     11.94    665.73     -0.03      0.16      3.06 
   166.70     11.94    665.57     -0.03      0.16      5.88 
   166.80     11.94    665.73     -0.03      0.16      4.41 
   166.90     11.96    665.81     -0.00      0.40      4.24 
   167.00     11.95    665.89     -0.00      0.16      3.76 
   167.10     11.94    666.05     -0.01      0.97      2.76 
   167.20     11.94    665.73     -0.01      0.57      4.12 
   167.30     11.94    665.73     -0.01      0.00      6.06 
   167.40     11.94    665.24     -0.02     -0.97      3.88 
   167.50     11.95    665.81     -0.01      0.08      4.88 
   167.60     11.94    665.73      0.00      0.00      5.82 
   167.70     11.94    665.73      0.00     -0.32      3.94 
   167.80     11.94    665.40     -0.00     -0.81      0.82 
   167.90     11.93    665.32     -0.02     -0.32      0.82 
   168.00     11.93    665.40     -0.02      0.24      5.65 
   168.10     11.94    665.57     -0.01      0.08      8.06 
   168.20     11.93    665.24     -0.01      0.16      5.71 
   168.30     11.94    665.73     -0.00      0.08      2.94 
   168.40     11.93    665.65     -0.01     -0.08      4.29 
   168.50     11.92    665.73     -0.03     -0.08      2.59 
   168.60     11.94    665.65     -0.00     -0.08      1.76 
   168.70     11.93    665.08     -0.00     -0.48      4.29 
   168.80     11.93    665.65     -0.00      0.24      3.47 
   168.90     11.93    665.73     -0.01     -0.24      2.53 
   169.00     11.93    665.57     -0.00      0.32      2.94 
   169.10     11.92    665.32     -0.02     -0.16      4.24 
   169.20     11.93    665.57     -0.00     -0.16      3.59 
   169.30     11.92    665.24     -0.02     -1.05      3.94 
   169.40     11.92    665.16     -0.01     -0.32      4.76 
   169.50     11.92    665.57     -0.00      0.57      4.71 
   169.60     11.92    665.40     -0.02      0.32      3.47 
   169.70     11.91    665.57     -0.02     -0.16      1.29 
   169.80     11.92    665.57     -0.02     -0.08      1.71 
   169.90     11.91    665.00     -0.02     -0.24      3.00 
   170.00     11.91    665.73     -0.02      0.08      3.47 
   170.10     11.92    665.65     -0.00      0.16      2.65 
   170.20     11.91    665.00     -0.02      0.00      2.18 
   170.30     11.91    665.73     -0.01      0.00      3.41 
   170.40     11.92    665.65     -0.00      0.00      3.82 
   170.50     11.91    665.57     -0.00      0.16      2.18 
   170.60     11.91    665.73     -0.01      0.32      1.41 
   170.70     11.92    665.97      0.00      0.57      3.29 
   170.80     11.91    665.57     -0.00      0.57      3.88 
   170.90     11.91    664.68     -0.00     -0.89      3.35 
   171.00     11.91    665.40      0.00     -0.32      3.47 
   171.10     11.91    665.81     -0.01      0.16      4.71 
   171.20     11.91    665.24      0.00     -0.40      4.24 
   171.30     11.90    665.73     -0.01     -0.48      3.47 
   171.40     11.90    665.73     -0.02      0.24      3.41 
   171.50     11.89    665.65     -0.02      0.16      3.00 
   171.60     11.90    666.29     -0.00      0.73      3.06 
   171.70     11.90    666.70     -0.02      1.29      1.71 
   171.80     11.89    666.13     -0.02      0.57      0.47 
   171.90     11.90    666.13     -0.01      0.89      1.71 
   172.00     11.89    666.29     -0.02      0.73      2.18 
   172.10     11.88    666.21     -0.02      0.48      2.24 
   172.20     11.89    666.13     -0.02      0.40      2.59 
   172.30     11.90    666.13     -0.01      0.40      4.29 
   172.40     11.89    665.73     -0.01     -0.08      5.18 
