#Written by Robertson Geologging WinLogger V1.0/370
~VERSION INFORMATION
#------------------------------------------------------------------------------
 VERS. 2.0 : CWLS LOG ASCII STANDARD - VERSION 2.0
 WRAP. NO  : ONE LINE PER DEPTH STEP
~WELL INFORMATION
#MNEM.UNIT         DATA                                DESCRIPTION OF MNEMONIC
#------------------------------------------------------------------------------
 STRT.M        118.0500                            :   START DEPTH
 STOP.M        420.0800                            :   STOP DEPTH
 STEP.M          0.0100                            :   STEP VALUE
 NULL.        -999.2500                            :   NULL VALUE
 COMP.    WHITE YOUN GREEN                         :   COMPANY NAME
 WELL.    HAWTHORN SHAFT                           :   WELL NAME
 FLD.     HAWTHORN                                 :   FIELD NAME
 LOC.     N/A                                      :   LOCATION
 PROV.    N/A                                      :   PROVINCE
 SRVC.    N/A                                      :   SERVICE COMPANY NAME
 DATE.    14 Dec 06                                :   DATE
 UWI.     N/A                                      :   UNIQUE WELL IDENTIFIER
~PARAMETER INFORMATION
#MNEMO.UNIT         VALUE                 DESCRIPTION OF MNEMONIC
#------------------------------------------------------------------------------
~OTHER INFORMATION SECTION
#------------------------------------------------------------------------------
 lLOGGING DOWN
~CURVE INFORMATION
#MNEMO.UNIT         API CODE              CURVE DESCRIPTION
#------------------------------------------------------------------------------
 DEPTH.M                                 :   0     Depth
 TEMP.DegC                               :   1     Temperature
 CN25.mS/cm                              :   2     Conductivity@25DegC
 COND.mS/cm                              :   3     Conductivity
 DELT.DegC                               :   4     Delta T
 DELC.mS/cm                              :   5     Delta C
 NGAM.CPS                                :   6     Natural Gamma
#------------------------------------------------------------------------------
~A  DEPTH     TEMP      CN25      COND      DELT      DELC      NGAM      
   118.05      0.00     15.89      0.00      0.00      0.00      0.00 
   118.06      0.00     15.89      0.00      0.00      0.00      0.00 
   118.07      0.00     15.89      0.00      0.00      0.00      0.00 
   118.08      0.00     15.89      0.00      0.00      0.00      0.00 
   118.09      0.00     15.89      0.00      0.00      0.00      0.00 
   118.10      0.00     15.89      0.00      0.00      0.00      0.00 
   118.11      0.00     15.89      0.00      0.00      0.00      0.00 
   118.12      0.00     15.89      0.00      0.00      0.00      0.00 
   118.13      0.00     15.89      0.00      0.00      0.00      0.00 
   118.14      0.00     15.89      0.00      0.00      0.00      0.00 
   118.15      0.00     15.89      0.00      0.00      0.00      0.00 
   118.16      0.00     15.89      0.00      0.00      0.00      0.00 
   118.17      0.00     15.89      0.00      0.00      0.00      0.00 
   118.18      0.00     15.89      0.00      0.00      0.00      0.00 
   118.19      0.00     15.89      0.00      0.00      0.00      0.00 
   118.20      0.00     15.89      0.00      0.00      0.00      0.00 
   118.21      0.00     15.89      0.00      0.00      0.00      0.00 
   118.22      0.00     15.89      0.00      0.00      0.00      0.00 
   118.23      0.00     15.89      0.00      0.00      0.00      0.00 
   118.24      0.00     15.89      0.00      0.00      0.00      0.00 
   118.25      0.00     15.89      0.00      0.00      0.00      0.00 
   118.26      0.00     15.89      0.00      0.00      0.00      0.00 
   118.27      0.00     15.89      0.00      0.00      0.00      0.00 
   118.28      0.00     15.89      0.00      0.00      0.00      0.00 
   118.29      0.00     15.89      0.00      0.00      0.00      0.00 
   118.30      0.00     15.89      0.00      0.00      0.00      0.00 
   118.31      0.00     15.89      0.00      0.00      0.00      0.00 
   118.32      0.00     15.89      0.00      0.00      0.00      0.00 
   118.33      0.00     15.89      0.00      0.00      0.00      0.00 
   118.34      0.00     15.89      0.00      0.00      0.00      0.00 
   118.35      0.00     15.89      0.00      0.00      0.00      0.00 
   118.36      0.00     15.89      0.00      0.00      0.00      0.00 
   118.37      0.00     15.89      0.00      0.00      0.00      0.00 
   118.38      0.00     15.89      0.00      0.00      0.00      0.00 
   118.39      0.00     15.89      0.00      0.00      0.00      0.00 
   118.40      0.00     15.89      0.00      0.00      0.00      0.00 
   118.41      0.00     15.89      0.00      0.00      0.00      0.00 
   118.42      0.00     15.89      0.00      0.00      0.00      0.00 
   118.43      0.00     15.89      0.00      0.00      0.00      0.00 
   118.44      0.00     15.89      0.00      0.00      0.00      0.00 
   118.45      0.00     15.89      0.00      0.00      0.00      0.00 
   118.46      0.00     15.89      0.00      0.00      0.00      0.00 
   118.47      0.00     15.89      0.00      0.00      0.00      0.00 
   118.48      0.00     15.89      0.00      0.00      0.00      0.00 
   118.49      0.00     15.89      0.00      0.00      0.00      0.00 
   118.50      0.00     15.89      0.00      0.00      0.00      0.00 
   118.51      0.00     15.89      0.00      0.00      0.00      0.00 
   118.52      0.00     15.89      0.00      0.00      0.00      0.00 
   118.53      0.00     15.89      0.00      0.00      0.00      0.00 
   118.54      0.00     15.89      0.00      0.00      0.00      0.00 
   118.55      0.00     15.89      0.00      0.00      0.00      0.00 
   118.56      0.00     15.89      0.00      0.00      0.00      0.00 
   118.57      0.00     15.89      0.00      0.00      0.00      0.00 
   118.58      0.00     15.89      0.00      0.00      0.00      0.00 
   118.59      0.00     15.89      0.00      0.00      0.00      0.00 
   118.60      0.00     15.89      0.00      0.00      0.00      0.00 
   118.61      0.00     15.89      0.00      0.00      0.00      0.00 
   118.62      0.00     15.89      0.00      0.00      0.00      0.00 
   118.63      0.00     15.89      0.00      0.00      0.00      0.00 
   118.64      0.00     15.89      0.00      0.00      0.00      0.00 
   118.65      0.00     15.89      0.00      0.00      0.00      0.00 
   118.66      0.00     15.89      0.00      0.00      0.00      0.00 
   118.67      0.00     15.89      0.00      0.00      0.00      0.00 
   118.68      0.00     15.89      0.00      0.00      0.00      0.00 
   118.69      0.00     15.89      0.00      0.00      0.00      0.00 
   118.70      0.00     15.89      0.00      0.00      0.00      0.00 
   118.71      0.00     15.89      0.00      0.00      0.00      0.00 
   118.72      0.00     15.89      0.00      0.00      0.00      0.00 
   118.73      0.00     15.89      0.00      0.00      0.00      0.00 
   118.74      0.00     15.89      0.00      0.00      0.00      0.00 
   118.75      0.00     15.89      0.00      0.00      0.00      0.00 
   118.76      0.00     15.89      0.00      0.00      0.00      0.00 
   118.77      0.00     15.89      0.00      0.00      0.00      0.00 
   118.78      0.00     15.89      0.00      0.00      0.00      0.00 
   118.79      0.00     15.89      0.00      0.00      0.00      0.00 
   118.80      0.00     15.89      0.00      0.00      0.00      0.00 
   118.81      0.00     15.89      0.00      0.00      0.00      0.00 
   118.82      0.00     15.89      0.00      0.00      0.00      0.00 
   118.83      0.00     15.89      0.00      0.00      0.00      0.00 
   118.84      0.00     15.89      0.00      0.00      0.00      0.00 
   118.85      0.00     15.89      0.00      0.00      0.00      0.00 
   118.86      0.00     15.89      0.00      0.00      0.00      0.00 
   118.87      0.00     15.89      0.00      0.00      0.00      0.00 
   118.88      0.00     15.89      0.00      0.00      0.00      0.00 
   118.89      0.00     15.89      0.00      0.00      0.00      0.00 
   118.90      0.00     15.89      0.00      0.00      0.00      0.00 
   118.91      0.00     15.89      0.00      0.00      0.00      0.00 
   118.92      0.00     15.89      0.00      0.00      0.00      0.00 
   118.93      0.00     15.89      0.00      0.00      0.00      0.00 
   118.94      0.00     15.89      0.00      0.00      0.00      0.00 
   118.95      0.00     15.89      0.00      0.00      0.00      0.00 
   118.96      0.00     15.89      0.00      0.00      0.00      0.00 
   118.97      0.00     15.89      0.00      0.00      0.00      0.00 
   118.98      0.00     15.89      0.00      0.00      0.00      0.00 
   118.99      0.00     15.89      0.00      0.00      0.00      0.00 
   119.00      0.00     15.89      0.00      0.00      0.00      0.00 
   119.01      0.00     15.89      0.00      0.00      0.00      0.00 
   119.02      0.00     15.89      0.00      0.00      0.00      0.00 
   119.03      0.00     15.89      0.00      0.00      0.00      0.00 
   119.04      0.00     15.89      0.00      0.00      0.00      0.00 
   119.05      0.00     15.89      0.00      0.00      0.00      0.00 
   119.06      0.00     15.89      0.00      0.00      0.00      0.00 
   119.07      0.00     15.89      0.00      0.00      0.00      0.00 
   119.08      0.00     15.89      0.00      0.00      0.00      0.00 
   119.09      0.00     15.89      0.00      0.00      0.00      0.00 
   119.10      0.00     15.89      0.00      0.00      0.00      0.00 
   119.11      0.00     15.89      0.00      0.00      0.00      0.00 
   119.12      0.00     15.89      0.00      0.00      0.00      0.00 
   119.13      0.00     15.89      0.00      0.00      0.00      0.00 
   119.14      0.00     15.89      0.00      0.00      0.00      0.00 
   119.15      0.00     15.89      0.00      0.00      0.00      0.00 
   119.16      0.00     15.89      0.00      0.00      0.00      0.00 
   119.17      0.00     15.89      0.00      0.00      0.00      0.00 
