#Written by Robertson Geologging WinLogger V1.0/311
~VERSION INFORMATION
#------------------------------------------------------------------------------
 VERS. 2.0 : CWLS LOG ASCII STANDARD - VERSION 2.0
 WRAP. NO  : ONE LINE PER DEPTH STEP
~WELL INFORMATION
#MNEM.UNIT         DATA                                DESCRIPTION OF MNEMONIC
#------------------------------------------------------------------------------
 STRT.M        146.1000                            :   START DEPTH
 STOP.M        425.1000                            :   STOP DEPTH
 STEP.M          0.1000                            :   STEP VALUE
 NULL.        -999.2500                            :   NULL VALUE
 COMP.    IMC                                      :   COMPANY NAME
 WELL.    HAWTHORN SHAFT                           :   WELL NAME
 FLD.     HAWTHORN                                 :   FIELD NAME
 LOC.     N/A                                      :   LOCATION
 PROV.    N/A                                      :   PROVINCE
 SRVC.    N/A                                      :   SERVICE COMPANY NAME
 DATE.    03 Oct 03                                :   DATE
 UWI.     N/A                                      :   UNIQUE WELL IDENTIFIER
~PARAMETER INFORMATION
#MNEMO.UNIT         VALUE                 DESCRIPTION OF MNEMONIC
#------------------------------------------------------------------------------
~OTHER INFORMATION SECTION
#------------------------------------------------------------------------------
 TCDS 2822
~CURVE INFORMATION
#MNEMO.UNIT         API CODE              CURVE DESCRIPTION
#------------------------------------------------------------------------------
 DEPTH.M                                 :   0     Depth
 TEMP.DegC                               :   1     Temperature
 COND.uS/cm                              :   2     Conductivity
 DELT.DegC                               :   3     Delta T
 DELC.uS/cm                              :   4     Delta C
 NGAM.API                                :   5     Natural Gamma
#------------------------------------------------------------------------------
~A  DEPTH     TEMP      COND      DELT      DELC      NGAM      
# ...
   317.70     17.43  49113.46     -0.01      2.92      3.59 
   317.80     17.44  49113.78      0.00      2.92      1.88 
   317.90     17.43  49114.21     -0.01      2.92      3.00 
   318.00     17.43  49113.67     -0.01      2.16      1.82 
   318.10     17.44  49113.89     -0.01      2.16      2.71 
   318.20     17.43  49115.30     -0.01      3.57      3.59 
   318.30     17.44  49115.62     -0.00      3.89      2.76 
   318.40     17.44  49115.40      0.01      3.78      3.24 
   318.50     17.44  49114.21      0.01      2.27      2.82 
   318.60     17.43  49114.65     -0.00      2.38      3.65 
   318.70     17.43  49114.54      0.00      1.41      3.18 
   318.80     17.43  49115.19     -0.01      1.41      3.65 
   318.90     17.43  49115.30      0.01      1.51      2.82 
   319.00     17.44  49115.62      0.01      1.95      2.76 
   319.10     17.44  49115.84     -0.00      1.19      5.18 
   319.20     17.43  49116.59      0.00      2.05      3.65 
   319.30     17.43  49117.35     -0.00      2.81      2.47 
   319.40     17.44  49118.21     -0.00      3.57      2.00 
   319.50     17.45  49120.05      0.01      4.76      3.18 
   319.60     17.44  49120.48      0.01      5.84      6.41 
   319.70     17.44  49120.92      0.01      6.05      4.82 
   319.80     17.45  49121.57      0.01      6.70      2.88 
   319.90     17.45  49121.78      0.01      6.49      3.24 
   320.00     17.44  49121.57      0.00      5.95      3.12 
   320.10     17.44  49120.70     -0.00      4.86      2.71 
   320.20     17.45  49119.19      0.01      1.62      2.76 
   320.30     17.43  49119.19      0.00      1.08      4.00 
   320.40     17.44  49119.08     -0.00      0.11      2.82 
   320.50     17.45  49119.84     -0.01     -0.43      2.29 
   320.60     17.44  49119.73      0.00     -0.76      1.18 
   320.70     17.44  49118.00      0.00     -2.92      2.35 
   320.80     17.44  49117.46     -0.01     -2.92      3.88 
   320.90     17.44  49116.27     -0.01     -4.76      2.29 
   321.00     17.44  49117.03      0.00     -4.54      3.71 
   321.10     17.43  49116.16     -0.01     -4.54      4.47 
   321.20     17.43  49115.94     -0.02     -2.49      4.00 
   321.30     17.45  49115.73      0.01     -3.24      2.82 
   321.40     17.44  49113.57      0.00     -6.70      2.29 
   321.50     17.43  49112.92     -0.01     -6.59      3.12 
   321.60     17.44  49111.51      0.01     -7.13      4.06 
   321.70     17.45  49109.67      0.01     -7.35      4.12 
   321.80     17.45  49107.19      0.01    -10.59      4.47 
   321.90     17.45  49105.24      0.00    -11.03      3.18 
   322.00     17.44  49100.70     -0.00    -15.57      1.53 
   322.10     17.44  49097.78      0.01    -18.16      1.65 
   322.20     17.45  49095.95      0.01    -20.43      2.00 
   322.30     17.44  49094.76     -0.02    -20.65      2.71 
   322.40     17.44  49093.35     -0.00    -20.54      1.53 
   322.50     17.44  49092.59      0.01    -20.65      1.65 
   322.60     17.44  49092.49      0.00    -19.03      2.88 
   322.70     17.43  49091.62     -0.02    -17.73      2.35 
   322.80     17.45  49090.32     -0.00    -16.86      3.18 
   322.90     17.43  49089.57     -0.01    -14.92      3.94 
   323.00     17.44  49089.03     -0.00    -11.67      2.24 
   323.10     17.43  49088.92     -0.01     -9.30      1.94 
   323.20     17.44  49088.27     -0.00     -7.67      3.06 
   323.30     17.45  49088.16      0.01     -6.59      3.88 
   323.40     17.44  49086.76      0.01     -6.59      3.65 
   323.50     17.44  49086.65      0.00     -5.19      3.06 
   323.60     17.43  49084.49     -0.01     -8.00      4.94 
   323.70     17.45  49083.73      0.02     -6.38      3.53 
   323.80     17.43  49082.87     -0.02     -7.35      1.94 
   323.90     17.45  49082.43      0.02     -6.38      2.76 
   324.00     17.44  49083.19      0.01     -5.73      3.59 
   324.10     17.45  49082.33      0.02     -6.59      2.82 
   324.20     17.45  49082.33      0.00     -5.94      3.24 
   324.30     17.45  49081.35     -0.00     -6.81      3.59 
   324.40     17.44  49081.57     -0.00     -5.30      4.00 
   324.50     17.45  49081.68      0.01     -4.97      4.94 
   324.60     17.45  49080.92      0.01     -3.68      4.06 
   324.70     17.44  49080.81     -0.01     -3.57      2.76 
   324.80     17.45  49079.41      0.01     -4.22      2.88 
   324.90     17.44  49078.43     -0.01     -4.76      4.47 
   325.00     17.44  49078.54      0.00     -4.65      4.41 
   325.10     17.45  49077.89      0.00     -3.67      2.76 
   325.20     17.45  49076.81     -0.00     -4.86      3.71 
   325.30     17.46  49075.19      0.01     -6.16      2.88 
   325.40     17.44  49071.95     -0.00    -10.38      3.59 
   325.50     17.44  49068.82     -0.01    -12.86      3.12 
   325.60     17.44  49066.65     -0.00    -14.27      2.82 
   325.70     17.45  49062.76      0.01    -18.05      3.18 
   325.80     17.44  49060.71     -0.01    -18.70      4.47 
   325.90     17.44  49059.09     -0.00    -19.35      4.00 
   326.00     17.45  49057.36      0.00    -19.78      4.35 
   326.10     17.44  49055.20     -0.01    -21.83      2.82 
   326.20     17.44  49053.68     -0.01    -22.26      2.35 
   326.30     17.44  49054.01     -0.02    -20.32      4.65 
   326.40     17.44  49054.98      0.00    -17.08      5.53 
   326.50     17.44  49055.63      0.00    -14.05      1.53 
   326.60     17.45  49058.01      0.01     -7.89      1.53 
   326.70     17.46  49058.87      0.00     -3.89      0.41 
   326.80     17.45  49060.49      0.01     -0.22      1.41 
   326.90     17.46  49061.25      0.03      2.38      1.12 
   327.00     17.47  49060.93      0.03      3.24      1.18 
   327.10     17.48  49062.65      0.04      8.21      1.65 
   327.20     17.50  49063.52      0.06     10.59      1.88 
   327.30     17.50  49064.49      0.06     10.81      1.18 
   327.40     17.51  49065.36      0.07     11.13      1.59 
   327.50     17.52  49065.90      0.08      9.62      4.29 
   327.60     17.51  49066.44      0.06      7.67      3.12 
   327.70     17.52  49067.30      0.07      8.21      4.00 
   327.80     17.52  49067.84      0.07      8.11      5.18 
   327.90     17.51  49067.95      0.05      7.46      3.29 
   328.00     17.54  49067.30      0.06      5.62      1.65 
   328.10     17.53  49067.95      0.05      5.08      3.12 
   328.20     17.53  49067.95      0.03      3.67      2.35 
   328.30     17.54  49068.49      0.04      4.65      1.59 
   328.40     17.54  49068.60      0.03      3.03      0.82 
   328.50     17.54  49070.44      0.02      4.43      2.00 
   328.60     17.53  49071.19      0.01      3.89      2.35 
   328.70     17.54  49070.98      0.02      2.92      3.71 
   328.80     17.53  49071.41      0.00      4.22      5.35 
   328.90     17.53  49072.81      0.02      5.62      3.65 
   329.00     17.52  49073.68     -0.02      6.38      3.18 
   329.10     17.52  49074.44     -0.01      6.38      2.82 
   329.20     17.52  49075.52     -0.02      7.57      4.47 
   329.30     17.51  49077.79     -0.03      9.30      2.88 
   329.40     17.51  49079.30     -0.03     10.70      2.88 
   329.50     17.50  49080.92     -0.04     10.48      3.24 
   329.60     17.50  49082.22     -0.03     11.89      2.29 
   329.70     17.51  49083.62     -0.04     12.54      2.82 
   329.80     17.50  49082.87     -0.03     10.59      1.65 
   329.90     17.50  49082.76     -0.04      9.94      2.41 
   330.00     17.50  49083.73     -0.02     10.92      4.41 
   330.10     17.49  49086.00     -0.02     11.57      6.12 
   330.20     17.49  49085.24     -0.02      8.97      6.35 
   330.30     17.49  49086.00     -0.02      8.21      4.29 
   330.40     17.49  49085.89     -0.01      6.59      3.59 
   330.50     17.49  49086.87     -0.01      5.19      2.71 
   330.60     17.50  49085.89     -0.00      4.54      2.71 
   330.70     17.49  49085.24     -0.01      3.03      3.18 
   330.80     17.48  49084.49     -0.01      1.62      2.82 
