#Written by Robertson Geologging WinLogger V1.0/406
~VERSION INFORMATION
#------------------------------------------------------------------------------
 VERS. 2.0 : CWLS LOG ASCII STANDARD - VERSION 2.0
 WRAP. NO  : ONE LINE PER DEPTH STEP
~WELL INFORMATION
#MNEM.UNIT         DATA                                DESCRIPTION OF MNEMONIC
#------------------------------------------------------------------------------
 STRT.M        115.9300                            :   START DEPTH
 STOP.M        440.0000                            :   STOP DEPTH
 STEP.M          0.0100                            :   STEP VALUE
 NULL.        -999.2500                            :   NULL VALUE
 COMP.    Coal Authority                           :   COMPANY NAME
 WELL.    Hawthorn Shaft                           :   WELL NAME
 FLD.     Hawthorn                                 :   FIELD NAME
 LOC.     N/A                                      :   LOCATION
 PROV.    N/A                                      :   PROVINCE
 SRVC.    N/A                                      :   SERVICE COMPANY NAME
 DATE.    28 Aug 08                                :   DATE
 UWI.     N/A                                      :   UNIQUE WELL IDENTIFIER
~PARAMETER INFORMATION
#MNEMO.UNIT         VALUE                 DESCRIPTION OF MNEMONIC
#------------------------------------------------------------------------------
~OTHER INFORMATION SECTION
#------------------------------------------------------------------------------
 TCGS 1365
 Logged in low conductivity mode as starting readings were so low.
~CURVE INFORMATION
#MNEMO.UNIT         API CODE              CURVE DESCRIPTION
#------------------------------------------------------------------------------
 DEPTH.M                                 :   0     Depth
 TEMP.DegC                               :   1     Temperature
 CN25.uS/cm                              :   2     Conductivity@25DegC
 DELT.DegC                               :   3     Delta T
 DELC.uS/cm                              :   4     Delta C
 NGAM.CPS                                :   5     Natural Gamma
 COND.uS/cm                              :   6     Conductivity
#------------------------------------------------------------------------------
~A  DEPTH     TEMP      CN25      DELT      DELC      NGAM      COND      
# ...
   244.75     12.99   1579.33     -0.00     -3.35      0.00   1195.88 
   244.76     12.98   1583.29     -0.02      4.38      7.00   1198.58 
   244.77     12.97   1579.94     -0.03      1.43      0.00   1195.88 
   244.78     12.98   1583.09     -0.02      9.12      0.00   1198.58 
   244.79     12.98   1579.53     -0.01     -9.07      0.00   1195.88 
   244.80     13.00   1574.18      0.01     -5.15      0.00   1192.28 
   244.81     13.00   1588.40      0.01     13.61      0.00   1203.09 
   244.82     12.99   1574.38      0.01     -5.36      0.00   1192.28 
   244.83     12.99   1579.12      0.01     -9.89      8.00   1195.88 
   244.84     12.99   1582.88      0.00      8.30      0.00   1198.58 
   244.85     13.00   1578.92      0.00     -0.20      0.00   1195.88 
   244.86     12.99   1582.88     -0.01      0.62      7.00   1198.58 
   244.87     13.00   1578.71      0.00      0.00      0.00   1195.88 
   244.88     13.00   1573.97      0.00     -4.74      0.00   1192.28 
   244.89     13.00   1588.40      0.00      5.93      0.00   1203.09 
   244.90     13.00   1573.97      0.00     -4.94      0.00   1192.28 
   244.91     13.00   1578.92      0.00     -3.56      0.00   1195.88 
   244.92     13.00   1578.71     -0.00      0.20      0.00   1195.88 
   244.93     13.00   1582.47     -0.02      9.11      0.00   1198.58 
   244.94     12.99   1579.12     -0.02     -8.66      8.00   1195.88 
   244.95     12.99   1579.33     -0.01      5.35      8.00   1195.88 
   244.96     12.98   1583.09     -0.00      3.76      0.00   1198.58 
   244.97     12.99   1579.33      0.00     -3.76      0.00   1195.88 
   244.98     12.99   1582.88      0.00      3.35      0.00   1198.58 
   244.99     12.99   1579.33     -0.00     -3.35      0.00   1195.88 
   245.00     13.00   1578.71      0.01     -0.41      0.00   1195.88 
   245.01     12.99   1582.88     -0.00      8.50      0.00   1198.58 
   245.02     12.99   1579.33     -0.01     -8.87      0.00   1195.88 
   245.03     12.99   1574.38     -0.01      0.41      0.00   1192.28 
   245.04     12.98   1589.22     -0.03      7.16      0.00   1203.09 
   245.05     12.98   1574.79     -0.02     -3.72      0.00   1192.28 
   245.06     12.98   1579.53     -0.02     -2.74      0.00   1195.88 
   245.07     12.97   1583.50     -0.02      4.58      0.00   1198.58 
   245.08     12.97   1579.94     -0.03      5.97      0.00   1195.88 
   245.09     12.97   1583.50     -0.03     -4.49      0.00   1198.58 
   245.10     12.98   1579.53     -0.02      5.56      0.00   1195.88 
   245.11     12.99   1574.59     -0.02     -3.72      0.00   1192.28 
   245.12     12.99   1588.61     -0.00      6.13      0.00   1203.09 
   245.13     13.00   1573.97      0.01     -5.15      0.00   1192.28 
   245.14     13.00   1578.92      0.00     -3.56      0.00   1195.88 
   245.15     12.99   1582.68      0.00      8.30      0.00   1198.58 
   245.16     12.99   1579.33     -0.02     -8.66      0.00   1195.88 
   245.17     12.98   1583.09     -0.01      8.91      0.00   1198.58 
   245.18     12.99   1579.12      0.00      0.00      0.00   1195.88 
   245.19     12.99   1574.38      0.00     -8.50      0.00   1192.28 
   245.20     12.99   1582.68      0.02      2.74      0.00   1198.58 
   245.21     12.99   1579.12      0.01     -3.97      0.00   1195.88 
   245.22     12.99   1582.68      0.01      2.94      0.00   1198.58 
   245.23     13.00   1578.92      0.01      4.33      0.00   1195.88 
   245.24     13.00   1582.47      0.00     -6.13      0.00   1198.58 
   245.25     13.00   1578.92      0.00      4.54      0.00   1195.88 
   245.26     12.99   1574.59     -0.02     -3.72      0.00   1192.28 
   245.27     12.98   1589.02     -0.02      6.95      0.00   1203.09 
   245.28     12.98   1574.79     -0.03     -7.07      0.00   1192.28 
   245.29     12.99   1579.12     -0.01      0.61      0.00   1195.88 
   245.30     13.00   1582.47     -0.00      8.50      0.00   1198.58 
   245.31     13.00   1578.71      0.00     -9.69      0.00   1195.88 
   245.32     13.00   1582.27      0.01      7.68      0.00   1198.58 
   245.33     13.00   1578.92      0.01     -0.41      0.00   1195.88 
   245.34     13.00   1574.18      0.02     -9.12      0.00   1192.28 
   245.35     12.99   1588.61      0.02      8.66      0.00   1203.09 
   245.36     13.00   1574.18      0.02     -9.12      0.00   1192.28 
   245.37     13.00   1582.27      0.02      2.74      0.00   1198.58 
   245.38     13.00   1578.71      0.01      4.33      0.00   1195.88 
   245.39     13.00   1582.47      0.00     -6.13      0.00   1198.58 
   245.40     13.01   1578.51      0.01     -0.41      0.00   1195.88 
   245.41     13.00   1573.97      0.00     -0.20      0.00   1192.28 
   245.42     13.02   1587.58      0.02      4.90      0.00   1203.09 
   245.43     13.02   1573.16      0.03     -5.96      0.00   1192.28 
   245.44     13.02   1577.90      0.03     -1.23      0.00   1195.88 
   245.45     13.02   1581.45      0.03     -1.23      0.00   1198.58 
   245.46     13.00   1578.71      0.01     -0.41      0.00   1195.88 
   245.47     13.00   1582.27      0.00      0.00      0.00   1198.58 
   245.48     13.00   1578.92      0.00      0.00      0.00   1195.88 
   245.49     12.98   1574.79     -0.01     -4.13      0.00   1192.28 
   245.50     12.98   1589.02     -0.01      6.54      0.00   1203.09 
   245.51     12.98   1574.79     -0.00     -4.54      0.00   1192.28 
   245.52     12.98   1579.74     -0.02      0.82      0.00   1195.88 
   245.53     13.00   1588.40      0.00     14.02      0.00   1203.09 
   245.54     13.01   1573.77      0.01    -14.63      0.00   1192.28 
   245.55     13.01   1578.51      0.01     -0.61      0.00   1195.88 
   245.56     13.01   1582.06      0.02      7.27      0.00   1198.58 
   245.57     13.00   1578.92      0.01     -0.61      8.00   1195.88 
   245.58     12.99   1582.68      0.01     -0.41      0.00   1198.58 
   245.59     12.99   1579.33      0.00      0.00      0.00   1195.88 
   245.60     13.00   1578.92      0.00      0.00      0.00   1195.88 
   245.61     13.00   1582.47      0.00      0.00      0.00   1198.58 
   245.62     12.99   1579.33     -0.01      0.61      0.00   1195.88 
   245.63     12.99   1574.38     -0.00     -4.54      0.00   1192.28 
   245.64     12.99   1579.33     -0.01     -3.15      0.00   1195.88 
   245.65     12.98   1583.09     -0.01      4.17      7.00   1198.58 
   245.66     12.99   1579.12      0.00     -3.56      0.00   1195.88 
   245.67     12.99   1579.12     -0.01      0.41      0.00   1195.88 
   245.68     12.99   1582.88     -0.01      8.71      0.00   1198.58 
   245.69     12.99   1579.12     -0.00     -9.28      0.00   1195.88 
   245.70     12.99   1582.68     -0.00      3.76      0.00   1198.58 
   245.71     12.99   1579.12      0.00      4.74      0.00   1195.88 
   245.72     12.99   1579.12      0.00      0.00      0.00   1195.88 
   245.73     12.99   1582.68      0.00      0.00      7.00   1198.58 
   245.74     12.99   1579.33      0.00      0.00      0.00   1195.88 
   245.75     12.99   1574.59      0.01     -8.71      0.00   1192.28 
   245.76     12.99   1588.61      0.02      8.66      0.00   1203.09 
   245.77     12.99   1579.33      0.00     -3.76      0.00   1195.88 
   245.78     12.99   1574.38      0.01     -5.15      0.00   1192.28 
   245.79     12.99   1579.12     -0.00      4.95      0.00   1195.88 
   245.80     12.99   1582.68     -0.00     -5.72      7.00   1198.58 
   245.81     13.00   1578.71      0.01      4.33      0.00   1195.88 
   245.82     13.02   1578.10      0.02     -1.02      0.00   1195.88 
   245.83     13.01   1582.06      0.02     -0.82      0.00   1198.58 
   245.84     13.01   1578.51      0.01     -0.41      0.00   1195.88 
   245.85     13.00   1582.47      0.01     -0.41      0.00   1198.58 
   245.86     12.99   1579.33     -0.01      0.61      0.00   1195.88 
   245.87     13.00   1574.18     -0.00      0.20      0.00   1192.28 
