~Version Information
 VERS.                2.0:  CWLS LOG ASCII STANDARD -VERSION 2.0
 WRAP.                 NO:  ONE LINE PER DEPTH STEP
~WELL INFORMATION BLOCK
#MNEM.UNIT       DATA		            DESCRIPTION OF MNEMONIC
#---------    -------------            ------------------------
 STRT.M   0.200                          :START DEPTH
 STOP.M   429.320                        :STOP DEPTH
 STEP.M   0.020                          :STEP  DOWN_HOLE  
 NULL.    0                              :NULL VALUE
 COMP.                              IMC  :COMPANY
 WELL.                        Hawthorne  :WELL
 FLD .                           Durham  :FIELD
 LOC .    None  None  None               :LOCATION
 CNTY.                      Northumbria  :COUNTY
 STAT.                   None            :STATE
 SRVC.          TRANS                    :SERVICE COMPANY
 DATE.   01/26/00                        :LOG DATE
 UWI .                       	         :UNIQUE WELL ID
 LIC .                                   :LICENSE NUMBER
~Curve Information Block
#MNEM.UNIT      API CODE     Curve Description
#---------    -------------  ------------------------
 DEPT     .M         00 001 00 00          :  1  DEPTH   
 RES(FL)  .OHM-M     00 000 00 00          :  2              RES(FL)
 TEMP     .DEG C     00 660 00 00          :  3                 TEMP
 DEL TEMP .DEG C     00 000 00 00          :  4             DEL TEMP
 SP COND  .US/CM     00 000 00 00          :  5              SP COND
~Parameter Information Block
#MNEM.UNIT   Information     Description
#---------- ---------------  ------------------------
~Other Information
#MNEM.UNIT  Information      Description
#---------- ---------------  ------------------------
 FILE.      ORIGINAL           File Type
 FIID.      9042C              File Type Identifier
 VERS.      1.0                System Version
 SER .      1                  System Serial Number
 TRUK.      0.5                Truck Calibration Number
 TOOL.         870             Tool Serial Number
 TIME.      14:33:             Time
 LAT .          None           Latitude
 LON .          None           Longitude
 LMF .         T.G.L           Log Measured From
 DMF .          None           Driller Measured From
 PD  .          None           Permanent Data
 PDEV.          None           Elevation Permanent Data
 EKB .M         None           Elevation Kelly Bushing
 ELEV.DF        None           Elevation DF
 EGL .M         None           Elevation Ground Level
 DRDP.         36.00           Driller's Depth
 CASD.        11               Casing Diameter
 CASB.         25.00           Casing Bottom
 CASX.       PLASTIC           Casing Type
 CAST.       0.5               Casing Thickness
 TNOC.          None           Time Circulation Stopped
 LOGU.       CENT              Logging Unit
 RECB.             MS/DW       Recorded By
 OSR1.          none           Other Services
 OSR2.          None           Other Services
 OSR3.          None           Other Services
 BS  .MM       11.00           Bit Size
 MST .                         Mean Surface Temperature
 TGRD.        0                Temperature Gradiant
 MAGN.            -6           Magnetic Declination
 MDEN.      2.71               Density Matrix
 MATR.      Limestone          Neutron Matrix
 DTMT.           140           Delta T Matrix
 DTFL.                         Delta T Fluid
 MUDS.               0         Mud Sample Source
 MRS .           0             Mud Resistivity
 MTP .           0             Mud Temperature
 MFRS.                         Resistivity Mud Filtrate
 MFTP.                         Temperature Mud Filtrate
 MCRS.         0               Resistivity Mud Cake
 MCTP.                         Temperature Mud Cake
 FTYP.           H20           Fluid Type
 FD  .K/M3                     Fluid Density
 DFV .S                        Fluid Viscosity
 FPH .                         Fuild PH
 ELCO.        2500             Electron Cutoff
# -------------------------- 
~A DEPTH  RES(FL) TEMP  DEL TEMP SP COND  
# ...
 370.460    0.11  17.7  0.00     90909.1  
 370.480    0.10  17.7  0.00     100000.0 
 370.500    0.11  17.7  0.00     90909.1  
 370.520    0.11  17.7  0.00     90909.1  
 370.540    0.10  17.7  0.00     95238.1  
 370.560    0.11  17.7  0.00     90909.1  
 370.580    0.10  17.7  0.00     100000.0 
 370.600    0.11  17.7  0.00     90909.1  
 370.620    0.10  17.7  0.00     100000.0 
 370.640    0.11  17.7  0.00     90909.1  
 370.660    0.11  17.7  0.00     90909.1  
 370.680    0.11  17.7  0.00     90909.1  
 370.700    0.11  17.7  0.00     90909.1  
 370.720    0.10  17.7  0.00     100000.0 
 370.740    0.11  17.7  0.00     90909.1  
 370.760    0.11  17.7  0.00     90909.1  
 370.780    0.10  17.7  0.00     95238.1  
 370.800    0.11  17.7  0.00     90909.1  
 370.820    0.10  17.7  0.00     100000.0 
 370.840    0.10  17.7  0.00     100000.0 
 370.860    0.10  17.7  0.00     100000.0 
 370.880    0.11  17.7  0.00     90909.1  
 370.900    0.11  17.7  0.00     90909.1  
 370.920    0.10  17.7  0.00     95238.1  
 370.940    0.11  17.7  0.00     90909.1  
 370.960    0.10  17.7  0.00     100000.0 
 370.980    0.11  17.7  0.00     90909.1  
 371.000    0.11  17.7  0.00     90909.1  
 371.020    0.10  17.7  -0.00    100000.0 
 371.040    0.10  17.7  0.00     100000.0 
 371.060    0.10  17.7  0.00     100000.0 
 371.080    0.11  17.7  0.00     90909.1  
 371.100    0.11  17.7  0.00     90909.1  
 371.120    0.10  17.7  0.00     100000.0 
 371.140    0.11  17.7  -0.00    90909.1  
 371.160    0.11  17.7  0.00     90909.1  
 371.180    0.10  17.7  0.00     95238.1  
 371.200    0.11  17.7  0.00     90909.1  
 371.220    0.11  17.7  0.00     90909.1  
 371.240    0.11  17.7  0.00     90909.1  
 371.260    0.11  17.7  0.00     90909.1  
 371.280    0.10  17.7  0.00     100000.0 
 371.300    0.11  17.7  0.00     90909.1  
 371.320    0.10  17.7  -0.00    100000.0 
 371.340    0.11  17.7  0.00     90909.1  
 371.360    0.11  17.7  0.00     90909.1  
 371.380    0.10  17.7  0.00     100000.0 
 371.400    0.11  17.7  0.00     90909.1  
 371.420    0.11  17.7  0.00     90909.1  
 371.440    0.11  17.7  -0.00    90909.1  
 371.460    0.11  17.7  0.00     90909.1  
 371.480    0.10  17.7  0.00     100000.0 
 371.500    0.11  17.7  0.00     90909.1  
 371.520    0.11  17.7  0.00     90909.1  
 371.540    0.11  17.7  -0.00    90909.1  
 371.560    0.10  17.7  0.00     95238.1  
 371.580    0.11  17.7  0.00     90909.1  
 371.600    0.10  17.7  0.00     100000.0 
 371.620    0.11  17.7  0.00     90909.1  
 371.640    0.11  17.7  -0.00    90909.1  
 371.660    0.10  17.7  0.00     100000.0 
 371.680    0.11  17.7  0.00     90909.1  
 371.700    0.11  17.7  0.00     90909.1  
 371.720    0.10  17.7  0.00     100000.0 
 371.740    0.11  17.7  -0.00    90909.1  
 371.760    0.11  17.7  0.00     90909.1  
 371.780    0.10  17.7  0.00     100000.0 
 371.800    0.11  17.7  0.00     90909.1  
 371.820    0.11  17.7  0.00     90909.1  
 371.840    0.11  17.7  0.00     90909.1  
 371.860    0.11  17.7  -0.00    90909.1  
 371.880    0.11  17.7  0.00     90909.1  
 371.900    0.10  17.7  0.00     100000.0 
 371.920    0.11  17.7  0.00     90909.1  
 371.940    0.10  17.7  0.00     95238.1  
 371.960    0.11  17.7  0.00     90909.1  
 371.980    0.11  17.7  -0.00    90909.1  
 372.000    0.11  17.7  0.00     90909.1  
 372.020    0.11  17.7  0.00     90909.1  
 372.040    0.11  17.7  0.00     90909.1  
 372.060    0.10  17.7  -0.00    100000.0 
 372.080    0.11  17.7  0.00     90909.1  
 372.100    0.10  17.7  0.00     100000.0 
 372.120    0.11  17.7  -0.00    90909.1  
 372.140    0.11  17.7  0.00     90909.1  
 372.160    0.10  17.7  0.00     100000.0 
 372.180    0.11  17.7  0.00     90909.1  
 372.200    0.11  17.7  -0.00    90909.1  
 372.220    0.11  17.7  0.00     90909.1  
 372.240    0.11  17.7  0.00     90909.1  
 372.260    0.10  17.7  0.00     100000.0 
 372.280    0.11  17.7  -0.00    90909.1  
 372.300    0.11  17.7  0.00     90909.1  
 372.320    0.10  17.7  0.00     95238.1  
 372.340    0.11  17.7  0.00     90909.1  
 372.360    0.11  17.7  0.00     90909.1  
 372.380    0.11  17.7  0.00     90909.1  
 372.400    0.11  17.7  0.00     90909.1  
 372.420    0.11  17.7  0.00     90909.1  
 372.440    0.10  17.7  -0.00    100000.0 
 372.460    0.11  17.7  0.00     90909.1  
 372.480    0.10  17.7  0.00     100000.0 
 372.500    0.11  17.7  -0.00    90909.1  
 372.520    0.11  17.7  0.00     90909.1  
 372.540    0.11  17.7  0.00     90909.1  
 372.560    0.10  17.7  0.00     100000.0 
 372.580    0.10  17.7  -0.00    100000.0 
 372.600    0.10  17.7  0.00     100000.0 
 372.620    0.11  17.7  0.00     90909.1  
 372.640    0.11  17.7  -0.00    90909.1  
 372.660    0.10  17.7  0.00     100000.0 
 372.680    0.11  17.7  0.00     90909.1  
 372.700    0.11  17.7  0.00     90909.1  
 372.720    0.10  17.7  0.00     95238.1  
 372.740    0.11  17.7  -0.00    90909.1  
 372.760    0.10  17.7  0.00     100000.0 
 372.780    0.11  17.7  -0.00    90909.1  
 372.800    0.11  17.7  0.00     90909.1  
 372.820    0.11  17.7  0.00     90909.1  
 372.840    0.10  17.7  0.00     95238.1  
 372.860    0.11  17.7  -0.00    90909.1  
 372.880    0.10  17.7  0.00     100000.0 
 372.900    0.11  17.7  -0.00    90909.1  
 372.920    0.11  17.7  0.00     90909.1  
 372.940    0.10  17.7  0.00     100000.0 
 372.960    0.11  17.7  -0.00    90909.1  
 372.980    0.11  17.7  0.00     90909.1  
 373.000    0.11  17.7  -0.00    90909.1  
 373.020    0.11  17.7  0.00     90909.1  
 373.040    0.10  17.7  0.00     100000.0 
 373.060    0.11  17.7  0.00     90909.1  
 373.080    0.11  17.7  -0.00    90909.1  
 373.100    0.10  17.7  0.00     95238.1  
 373.120    0.11  17.7  0.00     90909.1  
 373.140    0.10  17.7  0.00     100000.0 
 373.160    0.10  17.7  0.00     100000.0 
 373.180    0.10  17.7  0.00     100000.0 
 373.200    0.11  17.7  -0.00    90909.1  
 373.220    0.10  17.7  0.00     95238.1  
 373.240    0.11  17.7  -0.00    90909.1  
 373.260    0.10  17.7  -0.00    100000.0 
 373.280    0.11  17.7  0.00     90909.1  
 373.300    0.11  17.7  0.00     90909.1  
 373.320    0.10  17.7  0.00     100000.0 
 373.340    0.11  17.7  0.00     90909.1  
 373.360    0.11  17.7  -0.00    90909.1  
 373.380    0.11  17.7  0.00     90909.1  
 373.400    0.11  17.7  -0.00    90909.1  
 373.420    0.11  17.7  0.00     90909.1  
 373.440    0.10  17.7  0.00     100000.0 
 373.460    0.11  17.7  -0.00    90909.1  
 373.480    0.10  17.7  0.00     95238.1  
 373.500    0.11  17.7  0.00     90909.1  
 373.520    0.11  17.7  0.00     90909.1  
 373.540    0.11  17.7  0.00     90909.1  
 373.560    0.11  17.7  -0.00    90909.1  
 373.580    0.11  17.7  0.00     90909.1  
 373.600    0.11  17.7  0.00     90909.1  
 373.620    0.10  17.7  -0.00    95238.1  
 373.640    0.11  17.7  0.00     90909.1  
 373.660    0.10  17.7  -0.00    100000.0 
 373.680    0.11  17.7  0.00     90909.1  
 373.700    0.11  17.7  0.00     90909.1  
 373.720    0.11  17.7  0.00     90909.1  
 373.740    0.11  17.7  0.00     90909.1  
 373.760    0.11  17.7  0.00     90909.1  
 373.780    0.10  17.7  -0.00    100000.0 
 373.800    0.11  17.7  0.00     90909.1  
 373.820    0.11  17.7  0.00     90909.1  
 373.840    0.10  17.7  -0.00    100000.0 
 373.860    0.11  17.7  0.00     90909.1  
 373.880    0.10  17.7  0.00     100000.0 
 373.900    0.11  17.7  0.00     90909.1  
 373.920    0.11  17.7  0.00     90909.1  
 373.940    0.11  17.7  0.00     90909.1  
 373.960    0.10  17.7  -0.00    100000.0 
 373.980    0.11  17.7  0.00     90909.1  
 374.000    0.10  17.7  0.00     95238.1  
 374.020    0.11  17.7  0.00     90909.1  
 374.040    0.11  17.7  -0.00    90909.1  
 374.060    0.10  17.7  0.00     100000.0 
 374.080    0.11  17.7  0.00     90909.1  
 374.100    0.11  17.7  0.00     90909.1  
 374.120    0.10  17.7  -0.00    95238.1  
 374.140    0.11  17.7  0.00     90909.1  
 374.160    0.10  17.7  0.00     100000.0 
 374.180    0.11  17.7  -0.00    90909.1  
