#Written by Robertson Geologging WinLogger V1.0/311
~VERSION INFORMATION
#------------------------------------------------------------------------------
 VERS. 2.0 : CWLS LOG ASCII STANDARD - VERSION 2.0
 WRAP. NO  : ONE LINE PER DEPTH STEP
~WELL INFORMATION
#MNEM.UNIT         DATA                                DESCRIPTION OF MNEMONIC
#------------------------------------------------------------------------------
 STRT.M        146.1000                            :   START DEPTH
 STOP.M        425.1000                            :   STOP DEPTH
 STEP.M          0.1000                            :   STEP VALUE
 NULL.        -999.2500                            :   NULL VALUE
 COMP.    IMC                                      :   COMPANY NAME
 WELL.    HAWTHORN SHAFT                           :   WELL NAME
 FLD.     HAWTHORN                                 :   FIELD NAME
 LOC.     N/A                                      :   LOCATION
 PROV.    N/A                                      :   PROVINCE
 SRVC.    N/A                                      :   SERVICE COMPANY NAME
 DATE.    03 Oct 03                                :   DATE
 UWI.     N/A                                      :   UNIQUE WELL IDENTIFIER
~PARAMETER INFORMATION
#MNEMO.UNIT         VALUE                 DESCRIPTION OF MNEMONIC
#------------------------------------------------------------------------------
~OTHER INFORMATION SECTION
#------------------------------------------------------------------------------
 TCDS 2822
~CURVE INFORMATION
#MNEMO.UNIT         API CODE              CURVE DESCRIPTION
#------------------------------------------------------------------------------
 DEPTH.M                                 :   0     Depth
 TEMP.DegC                               :   1     Temperature
 COND.uS/cm                              :   2     Conductivity
 DELT.DegC                               :   3     Delta T
 DELC.uS/cm                              :   4     Delta C
 NGAM.API                                :   5     Natural Gamma
#------------------------------------------------------------------------------
~A  DEPTH     TEMP      COND      DELT      DELC      NGAM      
# ...
   410.10     17.90  48932.13      0.03    -12.64      1.76 
   410.20     17.91  48930.73      0.04    -14.69      2.94 
   410.30     17.90  48927.17      0.03    -17.50      4.47 
   410.40     17.91  48922.95      0.04    -19.44      3.82 
   410.50     17.92  48916.58      0.04    -22.47      3.06 
   410.60     17.92  48911.94      0.04    -25.27      3.12 
   410.70     17.93  48907.94      0.05    -27.54      2.00 
   410.80     17.94  48903.08      0.05    -29.92      3.12 
   410.90     17.94  48900.27      0.05    -31.75      3.12 
   411.00     17.95  48898.65      0.05    -33.48      1.65 
   411.10     17.96  48895.52      0.06    -36.61      3.18 
   411.20     17.96  48893.79      0.06    -35.53      1.94 
   411.30     17.97  48893.36      0.08    -33.05      2.06 
   411.40     17.98  48890.88      0.08    -32.08      2.88 
   411.50     17.98  48885.80      0.05    -30.78      2.29 
   411.60     17.99  48881.48      0.07    -31.10      3.76 
   411.70     17.98  48875.33      0.04    -31.86      2.00 
   411.80     17.98  48871.55      0.04    -31.64      1.18 
   411.90     17.99  48867.34      0.04    -32.94      1.12 
   412.00     18.00  48862.69      0.04    -34.34      1.53 
   412.10     18.01  48859.45      0.05    -36.07      1.88 
   412.20     18.00  48856.32      0.03    -39.09      1.12 
   412.30     18.00  48854.38      0.03    -38.98      1.47 
   412.40     18.00  48850.60      0.02    -40.39      3.12 
   412.50     17.98  48848.01      0.00    -38.55      3.82 
   412.60     17.99  48844.88      0.00    -36.17      3.59 
   412.70     17.99  48842.29      0.02    -33.04      1.76 
   412.80     18.00  48833.76      0.02    -37.36      2.65 
   412.90     18.01  48827.17      0.02    -39.41      3.06 
   413.00     18.02  48822.53      0.02    -39.84      2.29 
   413.10     18.03  48818.43      0.03    -40.06      3.18 
   413.20     18.06  48817.99      0.06    -37.68      1.59 
   413.30     18.06  48817.56      0.05    -35.95      2.29 
   413.40     18.06  48815.62      0.06    -35.09      3.00 
   413.50     18.07  48813.35      0.09    -34.66      2.18 
   413.60     18.07  48810.98      0.09    -33.25      2.71 
   413.70     18.09  48807.95      0.09    -32.93      3.53 
   413.80     18.08  48805.26      0.08    -26.88      3.88 
   413.90     18.10  48802.77      0.09    -23.53      1.88 
   414.00     18.10  48802.77      0.08    -18.78      1.94 
   414.10     18.12  48805.47      0.08    -13.60      3.18 
   414.20     18.11  48804.82      0.06    -13.17      3.06 
   414.30     18.11  48803.53      0.05    -14.03      2.65 
   414.40     18.10  48801.26      0.05    -14.36      0.41 
   414.50     18.12  48800.40      0.05    -12.95      2.41 
   414.60     18.12  48797.70      0.04    -12.95      3.12 
   414.70     18.12  48793.49      0.03    -14.47      2.41 
   414.80     18.12  48787.98      0.03    -17.27      1.88 
   414.90     18.12  48781.61      0.02    -21.91      1.47 
   415.00     18.11  48775.25      0.01    -27.85      2.71 
   415.10     18.13  48769.20      0.01    -35.84      4.29 
   415.20     18.13  48765.86      0.02    -38.64      3.76 
   415.30     18.12  48761.97      0.01    -41.23      2.29 
   415.40     18.12  48757.33      0.02    -43.50      2.35 
   415.50     18.12  48752.47      0.01    -47.28      2.71 
   415.60     18.13  48742.54      0.01    -53.64      1.06 
   415.70     18.13  48776.22      0.01    -16.73      1.82 
   415.80     18.13  48807.74      0.01     20.29      0.76 
   415.90     18.16  48804.61      0.04     23.86      0.76 
   416.00     18.25  48779.24      0.13      4.64      2.24 
   416.10     18.37  48776.65      0.24      7.34      2.65 
   416.20     18.47  48776.76      0.34     10.15      2.24 
   416.30     18.54  48778.38      0.42     17.05      3.00 
   416.40     18.59  48781.61      0.47     24.29      3.00 
   416.50     18.64  48783.02      0.51     31.95      3.41 
   416.60     18.66  48787.01      0.53     44.47      1.53 
   416.70     18.71  48791.33      0.58     10.15      2.41 
   416.80     18.72  48794.35      0.60    -13.71      3.12 
   416.90     18.75  48798.24      0.58     -4.10      2.65 
   417.00     18.77  48801.15      0.51     23.53      3.71 
   417.10     18.76  48803.42      0.38     27.63      2.71 
   417.20     18.78  48805.69      0.31     29.79      2.35 
   417.30     18.79  48810.44      0.24     31.30      2.29 
   417.40     18.79  48813.03      0.19     31.41      1.18 
   417.50     18.80  48814.86      0.16     31.84      1.53 
   417.60     18.80  48816.37      0.13     28.61      3.35 
   417.70     18.80  48817.99      0.09     26.66      1.88 
   417.80     18.81  48821.88      0.08     26.99      2.29 
   417.90     18.80  48823.82      0.05     25.59      2.24 
   418.00     18.80  48825.98      0.03     24.51      1.59 
   418.10     18.81  48826.74      0.05     22.99      1.53 
   418.20     18.81  48827.17      0.02     20.73      2.24 
   418.30     18.82  48826.52      0.03     15.33      3.35 
   418.40     18.83  48823.93      0.04     11.23      3.00 
   418.50     18.83  48823.18      0.03      7.99      3.88 
   418.60     18.82  48822.85      0.02      6.80      3.06 
   418.70     18.82  48820.58      0.02      1.62      1.94 
   418.80     18.80  48819.72     -0.01     -2.91      2.29 
   418.90     18.81  48818.53      0.01     -5.72      2.29 
   419.00     18.80  48814.11     -0.00    -11.66      3.12 
   419.10     18.80  48812.27     -0.01    -15.01      3.35 
   419.20     18.79  48810.98     -0.02    -16.73      3.06 
   419.30     18.78  48811.62     -0.04    -14.90      2.35 
   419.40     18.78  48809.90     -0.04    -14.03      2.59 
   419.50     18.78  48808.28     -0.05    -14.90      3.47 
   419.60     18.78  48803.10     -0.04    -19.76      2.71 
   419.70     18.77  48791.55     -0.05    -28.28      3.76 
   419.80     18.78  48772.01     -0.03    -48.14      3.00 
   419.90     18.78  48744.16     -0.03    -72.97      1.94 
   420.00     18.77  48704.24     -0.03   -109.87      2.06 
   420.10     18.77  48657.74     -0.03   -154.97      2.29 
   420.20     18.78  48606.82     -0.01   -205.34      3.65 
   420.30     18.77  48551.93     -0.01   -259.69      2.94 
   420.40     18.77  48493.28     -0.01   -316.18      2.53 
   420.50     18.77  48427.64     -0.01   -380.96      4.65 
   420.60     18.77  48358.69     -0.01   -443.01      2.82 
   420.70     18.77  48286.63     -0.00   -503.41      1.88 
   420.80     18.77  48212.33     -0.00   -556.33      1.47 
   420.90     18.77  48136.01     -0.01   -604.37      1.94 
   421.00     18.77  48060.58      0.00   -639.55      0.35 
   421.10     18.78  47998.19      0.01   -654.90      3.06 
   421.20     18.78  47937.01      0.00   -663.99      3.12 
   421.30     18.78  47887.55      0.01   -657.91      2.00 
   421.40     18.78  47838.00      0.00   -649.57      2.00 
   421.50     18.78  47807.91      0.01   -613.27      3.47 
   421.60     18.79  47779.43      0.02   -573.00      3.12 
   421.70     18.79  47754.83      0.02   -524.15      3.41 
   421.80     18.78  47721.10      0.00   -483.48      4.88 
   421.90     18.79  47698.12      0.01   -430.26      2.59 
   422.00     18.79  47711.76      0.02   -342.27      2.53 
   422.10     18.79  47710.79      0.01   -281.38      3.35 
   422.20     18.80  47716.59      0.01   -214.29      3.76 
   422.30     18.80  47712.29      0.02   -170.64      2.71 
   422.40     18.81  47718.95      0.03   -114.32      4.12 
   422.50     18.80  47735.28      0.03    -70.05      4.88 
   422.60     18.81  47752.25      0.02    -24.93      1.88 
   422.70     18.81  47773.31      0.02     20.31      2.71 
   422.80     18.81  47793.40      0.03     77.67      3.00 
   422.90     18.81  47818.87      0.02    120.00      4.59 
   423.00     18.81  47839.29      0.02    128.39      3.82 
   423.10     18.82  47856.16      0.02    144.62      1.06 
   423.20     18.81  47867.23      0.02    149.79      1.06 
