#Written by Robertson Geologging WinLogger V1.0/370
~VERSION INFORMATION
#------------------------------------------------------------------------------
 VERS. 2.0 : CWLS LOG ASCII STANDARD - VERSION 2.0
 WRAP. NO  : ONE LINE PER DEPTH STEP
~WELL INFORMATION
#MNEM.UNIT         DATA                                DESCRIPTION OF MNEMONIC
#------------------------------------------------------------------------------
 STRT.M        118.0500                            :   START DEPTH
 STOP.M        420.0800                            :   STOP DEPTH
 STEP.M          0.0100                            :   STEP VALUE
 NULL.        -999.2500                            :   NULL VALUE
 COMP.    WHITE YOUN GREEN                         :   COMPANY NAME
 WELL.    HAWTHORN SHAFT                           :   WELL NAME
 FLD.     HAWTHORN                                 :   FIELD NAME
 LOC.     N/A                                      :   LOCATION
 PROV.    N/A                                      :   PROVINCE
 SRVC.    N/A                                      :   SERVICE COMPANY NAME
 DATE.    14 Dec 06                                :   DATE
 UWI.     N/A                                      :   UNIQUE WELL IDENTIFIER
~PARAMETER INFORMATION
#MNEMO.UNIT         VALUE                 DESCRIPTION OF MNEMONIC
#------------------------------------------------------------------------------
~OTHER INFORMATION SECTION
#------------------------------------------------------------------------------
 lLOGGING DOWN
~CURVE INFORMATION
#MNEMO.UNIT         API CODE              CURVE DESCRIPTION
#------------------------------------------------------------------------------
 DEPTH.M                                 :   0     Depth
 TEMP.DegC                               :   1     Temperature
 CN25.mS/cm                              :   2     Conductivity@25DegC
 COND.mS/cm                              :   3     Conductivity
 DELT.DegC                               :   4     Delta T
 DELC.mS/cm                              :   5     Delta C
 NGAM.CPS                                :   6     Natural Gamma
#------------------------------------------------------------------------------
~A  DEPTH     TEMP      CN25      COND      DELT      DELC      NGAM      
# ...
   358.74     17.02     28.11     22.75     -0.00      0.01      0.00 
   358.75     17.02     28.11     22.74     -0.00      0.01      0.00 
   358.76     17.02     28.11     22.75     -0.00      0.00      0.00 
   358.77     17.02     28.11     22.74     -0.00      0.00      0.00 
   358.78     17.01     28.11     22.75     -0.00      0.00      0.00 
   358.79     17.02     28.11     22.74      0.00      0.00      0.00 
   358.80     17.02     28.11     22.74      0.00     -0.01      0.00 
   358.81     17.02     28.11     22.75      0.00     -0.00      0.00 
   358.82     17.02     28.10     22.74      0.01     -0.01      0.00 
   358.83     17.02     28.10     22.74      0.01     -0.02      0.00 
   358.84     17.02     28.10     22.75      0.01     -0.01      0.00 
   358.85     17.02     28.09     22.74      0.01     -0.01      0.00 
   358.86     17.02     28.10     22.74      0.01     -0.01      0.00 
   358.87     17.02     28.10     22.74      0.00     -0.00      0.00 
   358.88     17.02     28.10     22.74      0.00     -0.00      0.00 
   358.89     17.02     28.10     22.74     -0.00      0.00      0.00 
   358.90     17.02     28.10     22.74     -0.00      0.00      0.00 
   358.91     17.02     28.11     22.75     -0.00      0.01      0.00 
   358.92     17.02     28.10     22.74     -0.00      0.01      0.00 
   358.93     17.02     28.11     22.75     -0.01      0.02      0.00 
   358.94     17.02     28.11     22.75     -0.01      0.02      0.00 
   358.95     17.02     28.11     22.75     -0.01      0.01      0.00 
   358.96     17.02     28.11     22.75     -0.00      0.01      0.00 
   358.97     17.02     28.11     22.75     -0.00      0.01      0.00 
   358.98     17.02     28.11     22.74     -0.00      0.00      0.41 
   358.99     17.02     28.11     22.75     -0.00      0.01      0.41 
   359.00     17.02     28.11     22.75     -0.00      0.01      0.41 
   359.01     17.01     28.12     22.75     -0.01      0.01      0.41 
   359.02     17.01     28.12     22.74     -0.01      0.02      0.41 
   359.03     17.01     28.12     22.75     -0.01      0.02      0.41 
   359.04     17.01     28.12     22.74     -0.01      0.02      0.41 
   359.05     17.01     28.12     22.75     -0.01      0.02      0.41 
   359.06     17.01     28.12     22.74     -0.01      0.02      0.41 
   359.07     17.01     28.12     22.75     -0.02      0.03      0.41 
   359.08     17.01     28.12     22.74     -0.02      0.03      0.41 
   359.09     17.01     28.12     22.75     -0.02      0.04      0.41 
   359.10     17.02     28.11     22.74     -0.02      0.04      0.41 
   359.11     17.02     28.11     22.75     -0.02      0.04      0.41 
   359.12     17.02     28.10     22.74     -0.01      0.03      0.41 
   359.13     17.02     28.10     22.75     -0.01      0.02      0.41 
   359.14     17.02     28.10     22.74     -0.01      0.02      0.41 
   359.15     17.02     28.10     22.75     -0.01      0.02      0.00 
   359.16     17.02     28.10     22.74     -0.01      0.02      0.35 
   359.17     17.02     28.11     22.75     -0.01      0.02      0.76 
   359.18     17.02     28.10     22.74     -0.01      0.01      0.76 
   359.19     17.02     28.11     22.75     -0.00      0.01      0.76 
   359.20     17.02     28.10     22.74     -0.00     -0.00      0.76 
   359.21     17.02     28.10     22.75     -0.00      0.01      0.76 
   359.22     17.02     28.10     22.74     -0.00      0.00      0.76 
   359.23     17.02     28.11     22.75     -0.00      0.01      0.76 
   359.24     17.02     28.11     22.75     -0.01      0.01      0.76 
   359.25     17.02     28.11     22.75     -0.01      0.01      0.76 
   359.26     17.02     28.11     22.75     -0.01      0.01      0.76 
   359.27     17.02     28.11     22.75     -0.01      0.02      0.76 
   359.28     17.02     28.11     22.75     -0.01      0.02      0.76 
   359.29     17.02     28.11     22.75     -0.01      0.02      1.12 
   359.30     17.02     28.10     22.74     -0.01      0.01      1.12 
   359.31     17.02     28.11     22.75     -0.01      0.02      1.12 
   359.32     17.02     28.10     22.74     -0.01      0.01      1.12 
   359.33     17.02     28.10     22.75     -0.01      0.01      1.12 
   359.34     17.02     28.10     22.74     -0.00      0.00      0.71 
   359.35     17.02     28.09     22.74     -0.00     -0.00      0.71 
   359.36     17.03     28.09     22.74      0.00     -0.00      0.71 
   359.37     17.03     28.09     22.74      0.00     -0.01      0.71 
   359.38     17.03     28.09     22.74      0.00     -0.01      0.71 
   359.39     17.03     28.09     22.74      0.00     -0.01      0.71 
   359.40     17.03     28.09     22.75      0.00     -0.00      0.71 
   359.41     17.03     28.10     22.75      0.00     -0.00      0.71 
   359.42     17.02     28.10     22.74      0.00     -0.00      0.71 
   359.43     17.02     28.10     22.75      0.00      0.00      0.71 
   359.44     17.02     28.10     22.75      0.00      0.00      0.71 
   359.45     17.02     28.11     22.75      0.00      0.01      0.71 
   359.46     17.02     28.11     22.75     -0.00      0.01      0.35 
   359.47     17.02     28.11     22.75     -0.00      0.01      0.35 
   359.48     17.02     28.11     22.75     -0.00      0.01      0.35 
   359.49     17.02     28.11     22.75     -0.00      0.01      0.35 
   359.50     17.02     28.11     22.75     -0.00      0.01      0.41 
   359.51     17.02     28.10     22.74      0.00     -0.00      0.82 
   359.52     17.02     28.10     22.75      0.00     -0.00      0.82 
   359.53     17.03     28.10     22.75      0.01     -0.01      0.82 
   359.54     17.03     28.09     22.75      0.01     -0.01      0.82 
   359.55     17.03     28.09     22.74      0.01     -0.02      0.82 
   359.56     17.03     28.09     22.75      0.01     -0.02      0.82 
   359.57     17.03     28.08     22.74      0.02     -0.03      0.82 
   359.58     17.03     28.09     22.75      0.02     -0.03      0.82 
   359.59     17.03     28.08     22.74      0.02     -0.04      0.82 
   359.60     17.03     28.09     22.75      0.02     -0.03      0.82 
   359.61     17.03     28.09     22.75      0.02     -0.04      0.82 
   359.62     17.03     28.09     22.75      0.02     -0.03      1.24 
   359.63     17.03     28.09     22.75      0.01     -0.02      1.24 
   359.64     17.03     28.09     22.75      0.01     -0.02      1.24 
   359.65     17.03     28.09     22.75      0.01     -0.02      1.24 
   359.66     17.03     28.10     22.75      0.01     -0.01      1.65 
   359.67     17.03     28.10     22.75      0.01     -0.01      1.24 
   359.68     17.03     28.10     22.75      0.01     -0.01      0.82 
   359.69     17.02     28.10     22.75      0.00     -0.00      0.82 
   359.70     17.02     28.10     22.75      0.00     -0.00      0.82 
   359.71     17.02     28.10     22.75      0.00     -0.01      0.82 
   359.72     17.02     28.10     22.74      0.00     -0.00      0.82 
   359.73     17.02     28.10     22.75      0.00     -0.01      1.18 
   359.74     17.02     28.10     22.75      0.01     -0.01      1.18 
   359.75     17.02     28.10     22.75      0.01     -0.01      1.18 
   359.76     17.02     28.11     22.75      0.00     -0.00      1.18 
   359.77     17.02     28.11     22.75      0.00     -0.01      1.18 
   359.78     17.02     28.11     22.75      0.00      0.00      1.18 
   359.79     17.01     28.12     22.75     -0.00      0.01      0.76 
   359.80     17.02     28.11     22.75     -0.00      0.00      1.18 
   359.81     17.02     28.11     22.75     -0.00      0.01      1.18 
   359.82     17.02     28.11     22.75     -0.00      0.01      1.18 
   359.83     17.02     28.11     22.75     -0.00      0.01      0.76 
   359.84     17.02     28.11     22.75     -0.01      0.01      0.76 
   359.85     17.02     28.11     22.75     -0.00      0.01      0.76 
   359.86     17.02     28.11     22.75     -0.00      0.01      0.76 
