#Written by Robertson Geologging WinLogger V1.0/311
~VERSION INFORMATION
#------------------------------------------------------------------------------
 VERS. 2.0 : CWLS LOG ASCII STANDARD - VERSION 2.0
 WRAP. NO  : ONE LINE PER DEPTH STEP
~WELL INFORMATION
#MNEM.UNIT         DATA                                DESCRIPTION OF MNEMONIC
#------------------------------------------------------------------------------
 STRT.M        146.1000                            :   START DEPTH
 STOP.M        425.1000                            :   STOP DEPTH
 STEP.M          0.1000                            :   STEP VALUE
 NULL.        -999.2500                            :   NULL VALUE
 COMP.    IMC                                      :   COMPANY NAME
 WELL.    HAWTHORN SHAFT                           :   WELL NAME
 FLD.     HAWTHORN                                 :   FIELD NAME
 LOC.     N/A                                      :   LOCATION
 PROV.    N/A                                      :   PROVINCE
 SRVC.    N/A                                      :   SERVICE COMPANY NAME
 DATE.    03 Oct 03                                :   DATE
 UWI.     N/A                                      :   UNIQUE WELL IDENTIFIER
~PARAMETER INFORMATION
#MNEMO.UNIT         VALUE                 DESCRIPTION OF MNEMONIC
#------------------------------------------------------------------------------
~OTHER INFORMATION SECTION
#------------------------------------------------------------------------------
 TCDS 2822
~CURVE INFORMATION
#MNEMO.UNIT         API CODE              CURVE DESCRIPTION
#------------------------------------------------------------------------------
 DEPTH.M                                 :   0     Depth
 TEMP.DegC                               :   1     Temperature
 COND.uS/cm                              :   2     Conductivity
 DELT.DegC                               :   3     Delta T
 DELC.uS/cm                              :   4     Delta C
 NGAM.API                                :   5     Natural Gamma
#------------------------------------------------------------------------------
~A  DEPTH     TEMP      COND      DELT      DELC      NGAM      
# ...
   264.90     14.30  47310.84     -0.01     30.02      4.12 
   265.00     14.30  47306.88     -0.00     26.37      4.12 
   265.10     14.29  47303.87     -0.00     23.26      4.53 
   265.20     14.31  47302.27      0.00     17.90      5.35 
   265.30     14.31  47303.12      0.02     13.61      4.82 
   265.40     14.30  47306.98      0.00     11.26      6.06 
   265.50     14.31  47310.63      0.01      7.50      4.12 
   265.60     14.30  47315.02     -0.00      8.04      2.88 
   265.70     14.31  47315.99      0.02      6.00      3.71 
   265.80     14.31  47313.74      0.03      2.14      2.88 
   265.90     14.30  47308.38      0.00     -2.36      2.06 
   266.00     14.30  47309.99      0.00      3.86      2.47 
   266.10     14.31  47313.09      0.02      9.22      3.29 
   266.20     14.31  47314.49      0.00     12.22      2.47 
   266.30     14.29  47313.84     -0.01     10.72      4.88 
   266.40     14.30  47312.99      0.00      5.25      4.53 
   266.50     14.29  47315.99     -0.02      4.61      2.88 
   266.60     14.29  47320.28     -0.01      6.00      3.71 
   266.70     14.30  47322.74     -0.01      7.51      3.71 
   266.80     14.31  47321.03      0.01      7.29      2.53 
   266.90     14.29  47322.74     -0.01     12.76      2.12 
   267.00     14.29  47323.49     -0.00     11.79      2.18 
   267.10     14.29  47319.96     -0.02      6.11      5.06 
   267.20     14.30  47315.24     -0.00      1.50      1.65 
   267.30     14.31  47304.62      0.01     -8.47      1.29 
   267.40     14.31  47301.52      0.01    -11.47      2.76 
   267.50     14.30  47298.09      0.02    -17.90      3.53 
   267.60     14.30  47294.65      0.01    -25.62      3.29 
   267.70     14.30  47296.48     -0.00    -26.05      2.88 
   267.80     14.30  47303.87     -0.01    -17.90      3.29 
   267.90     14.31  47308.48      0.02    -15.01      1.65 
   268.00     14.31  47311.38      0.01    -11.36      0.82 
   268.10     14.29  47311.49      0.00     -8.47      4.12 
   268.20     14.29  47311.49     -0.01     -2.25      2.88 
   268.30     14.30  47313.74     -0.00      9.86      3.29 
   268.40     14.30  47314.49     -0.01     13.83      3.76 
   268.50     14.31  47315.24      0.01     18.01      4.65 
   268.60     14.32  47312.77      0.02     17.26      4.94 
   268.70     14.31  47308.48      0.00     11.15      4.53 
   268.80     14.31  47304.73      0.01      0.86      5.24 
   268.90     14.30  47302.37     -0.01     -6.11      3.88 
   269.00     14.31  47298.94      0.00    -12.44      4.41 
   269.10     14.30  47296.58      0.00    -14.15      3.71 
   269.20     14.30  47299.80     -0.00    -12.44      2.06 
   269.30     14.31  47298.19      0.01    -16.30      2.47 
   269.40     14.30  47298.94     -0.00    -16.30      1.65 
   269.50     14.30  47298.19     -0.02    -16.30      2.47 
   269.60     14.30  47298.19     -0.01    -13.83      3.29 
   269.70     14.31  47299.80     -0.00     -8.68      3.41 
   269.80     14.29  47303.02     -0.02     -1.72      5.88 
   269.90     14.29  47306.23     -0.01      3.86      6.18 
   270.00     14.30  47303.87     -0.00      4.93      3.29 
   270.10     14.30  47303.77      0.01      7.18      2.76 
   270.20     14.30  47299.91      0.00      0.86      4.53 
   270.30     14.30  47298.19     -0.02      0.86      4.53 
   270.40     14.31  47292.73      0.01     -5.36      2.88 
   270.50     14.32  47288.01      0.02    -10.18      4.53 
   270.60     14.31  47286.29      0.00    -12.76      2.06 
   270.70     14.31  47283.83      0.00    -16.83      1.24 
   270.80     14.31  47282.54      0.01    -21.33      2.88 
   270.90     14.30  47279.54      0.00    -25.94      4.53 
   271.00     14.29  47281.79     -0.01    -22.08      3.29 
   271.10     14.30  47310.52     -0.00      6.75      3.24 
   271.20     14.31  47339.68      0.00     38.92      3.65 
   271.30     14.31  47343.76      0.02     45.57      2.06 
   271.40     14.35  47355.55      0.04     63.58      1.65 
   271.50     14.38  47375.39      0.06     87.39      3.29 
   271.60     14.41  47389.98      0.11    103.69      4.59 
   271.70     14.48  47401.46      0.17    117.63      3.29 
   271.80     14.53  47407.25      0.22    124.71      3.71 
   271.90     14.57  47423.12      0.27    143.58      4.06 
   272.00     14.62  47440.93      0.32    156.89      4.47 
   272.10     14.67  47456.48      0.37    142.10      2.06 
   272.20     14.70  47470.32      0.40    130.64      4.53 
   272.30     14.74  47482.34      0.42    140.08      5.76 
   272.40     14.78  47499.08      0.43    141.92      4.47 
   272.50     14.84  47519.25      0.46    143.11      2.88 
   272.60     14.89  47539.00      0.47    148.27      2.06 
   272.70     14.97  47545.87      0.48    144.42      3.71 
   272.80     15.00  47567.02      0.48    159.02      3.29 
   272.90     15.09  47595.57      0.52    170.09      3.71 
   273.00     15.15  47628.53      0.52    186.10      3.29 
   273.10     15.21  47674.27      0.53    215.54      4.06 
   273.20     15.31  47691.89      0.61    219.95      5.29 
   273.30     15.39  47692.64      0.65    208.79      2.53 
   273.40     15.46  47698.76      0.67    198.93      4.59 
   273.50     15.61  47718.42      0.76    196.91      6.18 
   273.60     15.73  47730.02      0.83    191.01      3.65 
   273.70     15.80  47739.68      0.83    193.06      1.65 
   273.80     15.83  47750.96      0.82    180.19      2.35 
   273.90     15.86  47764.72      0.77    167.54      2.35 
   274.00     15.90  47779.86      0.75    146.72      4.53 
   274.10     15.91  47793.19      0.69    115.91      6.18 
   274.20     15.94  47805.55      0.61    113.66      3.71 
   274.30     15.96  47815.32      0.56    123.44      4.12 
   274.40     15.97  47826.07      0.50    124.95      4.53 
   274.50     15.99  47835.85      0.36    115.82      4.18 
   274.60     16.00  47848.10      0.26    117.33      3.29 
   274.70     15.99  47858.64      0.19    118.20      3.65 
   274.80     16.01  47868.85      0.18    116.38      4.06 
   274.90     16.04  47878.84      0.17    112.52      3.65 
   275.00     16.05  47888.41      0.15    107.04      2.76 
   275.10     16.08  47898.84      0.17    104.15      3.65 
   275.20     16.09  47909.27      0.15    102.97      4.06 
   275.30     16.10  47918.94      0.14    102.11      3.29 
   275.40     16.10  47929.80      0.13    103.73      2.47 
   275.50     16.12  47940.45      0.13    103.84      3.29 
   275.60     16.11  47950.98      0.11    101.38      3.71 
   275.70     16.12  47960.34      0.13    100.20      3.82 
   275.80     16.13  47970.12      0.11     99.77      3.00 
   275.90     16.13  47978.94      0.09    100.10      3.88 
   276.00     16.14  47985.50      0.08     97.09      4.24 
   276.10     16.14  47990.23      0.06     90.54      3.59 
   276.20     16.16  47998.09      0.07     88.07      4.47 
   276.30     16.14  48006.04      0.05     86.35      4.47 
   276.40     16.15  48014.22      0.04     83.67      4.53 
   276.50     16.14  48018.74      0.02     76.68      3.71 
   276.60     16.14  48023.04      0.03     70.44      2.47 
   276.70     16.13  48027.23      0.01     65.39      1.24 
   276.80     16.15  48032.51      0.02     62.38      2.06 
   276.90     16.16  48041.86      0.03     62.92      2.06 
   277.00     16.16  48048.64      0.02     63.68      4.12 
   277.10     16.16  48054.88      0.01     64.43      3.71 
   277.20     16.16  48057.89      0.00     59.05      3.24 
   277.30     16.16  48060.80      0.01     53.89      4.06 
   277.40     16.17  48065.10      0.03     50.88      2.47 
   277.50     16.17  48072.52      0.03     53.79      2.88 
   277.60     16.18  48079.30      0.04     56.26      1.65 
   277.70     16.17  48084.68      0.03     57.45      2.06 
   277.80     16.17  48095.23      0.02     62.18      3.71 
   277.90     16.18  48102.76      0.02     60.14      4.53 
   278.00     16.17  48110.18      0.01     61.33      3.59 
