#Written by Robertson Geologging WinLogger V1.0/406
~VERSION INFORMATION
#------------------------------------------------------------------------------
 VERS. 2.0 : CWLS LOG ASCII STANDARD - VERSION 2.0
 WRAP. NO  : ONE LINE PER DEPTH STEP
~WELL INFORMATION
#MNEM.UNIT         DATA                                DESCRIPTION OF MNEMONIC
#------------------------------------------------------------------------------
 STRT.M        115.9300                            :   START DEPTH
 STOP.M        440.0000                            :   STOP DEPTH
 STEP.M          0.0100                            :   STEP VALUE
 NULL.        -999.2500                            :   NULL VALUE
 COMP.    Coal Authority                           :   COMPANY NAME
 WELL.    Hawthorn Shaft                           :   WELL NAME
 FLD.     Hawthorn                                 :   FIELD NAME
 LOC.     N/A                                      :   LOCATION
 PROV.    N/A                                      :   PROVINCE
 SRVC.    N/A                                      :   SERVICE COMPANY NAME
 DATE.    28 Aug 08                                :   DATE
 UWI.     N/A                                      :   UNIQUE WELL IDENTIFIER
~PARAMETER INFORMATION
#MNEMO.UNIT         VALUE                 DESCRIPTION OF MNEMONIC
#------------------------------------------------------------------------------
~OTHER INFORMATION SECTION
#------------------------------------------------------------------------------
 TCGS 1365
 Logged in low conductivity mode as starting readings were so low.
~CURVE INFORMATION
#MNEMO.UNIT         API CODE              CURVE DESCRIPTION
#------------------------------------------------------------------------------
 DEPTH.M                                 :   0     Depth
 TEMP.DegC                               :   1     Temperature
 CN25.uS/cm                              :   2     Conductivity@25DegC
 DELT.DegC                               :   3     Delta T
 DELC.uS/cm                              :   4     Delta C
 NGAM.CPS                                :   5     Natural Gamma
 COND.uS/cm                              :   6     Conductivity
#------------------------------------------------------------------------------
~A  DEPTH     TEMP      CN25      DELT      DELC      NGAM      COND      
# ...
   288.82     16.94  20862.68     -0.01     25.45      0.00  17499.29 
   288.83     16.94  20862.68     -0.01     23.05      0.00  17499.29 
   288.84     16.94  20862.68      0.00     24.35      0.00  17499.29 
   288.85     16.94  20862.68     -0.01     23.05      0.00  17499.29 
   288.86     16.95  20848.14      0.01     -3.59      0.00  17491.13 
   288.87     16.95  20857.87      0.00     24.35      0.00  17499.29 
   288.88     16.95  20860.27     -0.01     25.45      0.00  17499.29 
   288.89     16.96  20853.06      0.01     11.03      0.00  17499.29 
   288.90     16.96  20855.46      0.01     13.43      0.00  17499.29 
   288.91     16.95  20857.87      0.00     15.84      0.00  17499.29 
   288.92     16.96  20855.46      0.01     13.43      0.00  17499.29 
   288.93     16.95  20860.27      0.00     18.24      0.00  17499.29 
   288.94     16.95  20860.27      0.00     15.84      0.00  17499.29 
   288.95     16.96  20855.46      0.01      2.51      0.00  17499.29 
   288.96     16.96  20855.46      0.01     15.86      0.00  17499.29 
   288.97     16.96  20855.46      0.00     15.83      0.00  17499.29 
   288.98     16.96  20853.06      0.00     18.23      0.00  17499.29 
   288.99     16.95  20857.87     -0.00     20.64      7.00  17499.29 
   289.00     16.95  20860.27     -0.01     14.54      0.00  17499.29 
   289.01     16.95  20860.27     -0.01     31.56      0.00  17499.29 
   289.02     16.95  20860.27     -0.00     20.64      0.00  17499.29 
   289.03     16.95  20867.60      0.00     20.67      0.00  17507.45 
   289.04     16.96  20855.46      0.01     13.43      0.00  17499.29 
   289.05     16.95  20857.87      0.00     15.84      7.00  17499.29 
   289.06     16.95  20857.87      0.00     10.94      0.00  17499.29 
   289.07     16.94  20862.68     -0.01     23.05      0.00  17499.29 
   289.08     16.94  20865.08     -0.01     14.54      0.00  17499.29 
   289.09     16.92  20872.31     -0.03     32.68      0.00  17499.29 
   289.10     16.92  20872.31     -0.02     22.98      0.00  17499.29 
   289.11     16.94  20872.41     -0.01     32.78      0.00  17507.45 
   289.12     16.95  20860.27     -0.01     16.94      0.00  17499.29 
   289.13     16.95  20857.87     -0.00     13.35      7.00  17499.29 
   289.14     16.95  20866.38     -0.01     31.56      0.00  17506.43 
   289.15     16.95  20860.27     -0.00     12.13      0.00  17499.29 
   289.16     16.94  20862.68     -0.01     14.54      0.00  17499.29 
   289.17     16.95  20866.38      0.00     17.05      0.00  17506.43 
   289.18     16.95  20860.27      0.01     13.43      0.00  17499.29 
   289.19     16.95  20860.27      0.00      9.73      0.00  17499.29 
   289.20     16.94  20871.19     -0.00     20.65      0.00  17506.43 
   289.21     16.93  20867.49     -0.01     14.54      0.00  17499.29 
   289.22     16.94  20874.82     -0.01     32.78      0.00  17507.45 
   289.23     16.94  20865.08      0.00     10.95      0.00  17499.29 
   289.24     16.93  20876.01      0.00     18.25      7.00  17506.43 
   289.25     16.94  20865.08      0.00      7.33      0.00  17499.29 
   289.26     16.93  20876.01      0.00     15.84      0.00  17506.43 
   289.27     16.94  20865.08      0.01     11.03      0.00  17499.29 
   289.28     16.94  20873.60      0.01     21.95      0.00  17506.43 
   289.29     16.94  20862.68      0.01      2.51      0.00  17499.29 
   289.30     16.95  20868.79      0.00     17.05      0.00  17506.43 
   289.31     16.94  20862.68     -0.01     14.54      0.00  17499.29 
   289.32     16.96  20863.97      0.00     15.83      0.00  17506.43 
   289.33     16.95  20866.38     -0.00     29.15      0.00  17506.43 
   289.34     16.95  20849.33      0.01     -6.03      0.00  17490.11 
   289.35     16.96  20863.97      0.02      8.62      0.00  17506.43 
   289.36     16.96  20863.97      0.02      6.21      0.00  17506.43 
   289.37     16.96  20855.46      0.02     -2.30      0.00  17499.29 
   289.38     16.96  20863.97      0.01     14.65      0.00  17506.43 
   289.39     16.95  20866.38     -0.00     20.64      0.00  17506.43 
   289.40     16.94  20862.68     -0.01     16.94      0.00  17499.29 
   289.41     16.94  20871.19     -0.01     23.05      0.00  17506.43 
   289.42     16.94  20873.60     -0.01     25.46      0.00  17506.43 
   289.43     16.95  20860.27      0.01      4.92      0.00  17499.29 
   289.44     16.95  20868.79      0.00      6.11      0.00  17506.43 
   289.45     16.96  20861.57      0.01     11.02      0.00  17506.43 
   289.46     16.97  20850.65      0.02      0.11      0.00  17499.29 
   289.47     16.96  20863.97      0.01     14.65      0.00  17506.43 
   289.48     16.96  20861.57      0.02      8.62      0.00  17506.43 
   289.49     16.94  20871.19     -0.01     23.05      0.00  17506.43 
   289.50     16.94  20873.60     -0.01     13.33      0.00  17506.43 
   289.51     16.95  20868.79      0.00     15.84      0.00  17506.43 
   289.52     16.94  20874.82     -0.00     21.87      0.00  17507.45 
   289.53     16.94  20871.19      0.00      8.51      0.00  17506.43 
   289.54     16.96  20855.46      0.01     15.86      0.00  17499.29 
   289.55     16.95  20868.79     -0.01     13.32      0.00  17506.43 
   289.56     16.95  20866.38     -0.00     20.64      0.00  17506.43 
   289.57     16.95  20868.79     -0.00     10.92      0.00  17506.43 
   289.58     16.93  20878.42     -0.02     27.87      0.00  17506.43 
   289.59     16.93  20876.01     -0.00     10.92      0.00  17506.43 
   289.60     16.93  20869.90     -0.02     20.57      0.00  17499.29 
   289.61     16.93  20878.42     -0.01     15.74      0.00  17506.43 
   289.62     16.94  20872.41     -0.01     24.27      0.00  17507.45 
   289.63     16.95  20866.38     -0.01     13.32      0.00  17506.43 
   289.64     16.96  20863.97      0.00     15.83      0.00  17506.43 
   289.65     16.97  20859.16      0.02     -1.11      0.00  17506.43 
   289.66     16.96  20861.57      0.01      1.30      0.00  17506.43 
   289.67     16.96  20863.97      0.02      8.62      0.00  17506.43 
   289.68     16.96  20861.57      0.02     -1.11      0.00  17506.43 
   289.69     16.96  20863.97      0.02     -1.11      0.00  17506.43 
   289.70     16.95  20866.38      0.01     11.03      0.00  17506.43 
   289.71     16.95  20868.79      0.00      6.11      0.00  17506.43 
   289.72     16.94  20872.41      0.00      9.73      0.00  17507.45 
   289.73     16.94  20873.60     -0.01     25.46      0.00  17506.43 
   289.74     16.94  20879.71     -0.01     21.84      0.00  17513.57 
   289.75     16.95  20866.38      0.00     18.24      0.00  17506.43 
   289.76     16.95  20866.38     -0.00     10.92      0.00  17506.43 
   289.77     16.95  20870.00     -0.00     12.13      0.00  17507.45 
   289.78     16.94  20871.19     -0.01     13.33      0.00  17506.43 
   289.79     16.95  20870.00     -0.01     24.27      0.00  17507.45 
   289.80     16.95  20868.79      0.00     19.46      0.00  17506.43 
   289.81     16.95  20879.73      0.00     17.05      0.00  17515.61 
   289.82     16.95  20868.79      0.00      6.11     14.00  17506.43 
   289.83     16.94  20872.41      0.00      9.73      0.00  17507.45 
   289.84     16.95  20868.79      0.00      6.11      0.00  17506.43 
   289.85     16.95  20877.32      0.00     29.18      0.00  17515.61 
   289.86     16.95  20866.38      0.00      8.51      0.00  17506.43 
   289.87     16.96  20855.46      0.01     -4.81      0.00  17499.29 
   289.88     16.96  20872.49     -0.00     19.43      0.00  17513.57 
   289.89     16.95  20867.60     -0.00     12.13      0.00  17507.45 
   289.90     16.96  20861.57      0.01      3.70      0.00  17506.43 
   289.91     16.95  20867.60     -0.00     12.13      0.00  17507.45 
   289.92     16.94  20882.12     -0.01     21.84      7.00  17513.57 
   289.93     16.94  20874.82     -0.01     14.54      0.00  17507.45 
   289.94     16.93  20884.52     -0.02     29.06      0.00  17513.57 
