#Written by Robertson Geologging WinLogger V1.0/370
~VERSION INFORMATION
#------------------------------------------------------------------------------
 VERS. 2.0 : CWLS LOG ASCII STANDARD - VERSION 2.0
 WRAP. NO  : ONE LINE PER DEPTH STEP
~WELL INFORMATION
#MNEM.UNIT         DATA                                DESCRIPTION OF MNEMONIC
#------------------------------------------------------------------------------
 STRT.M        118.0500                            :   START DEPTH
 STOP.M        420.0800                            :   STOP DEPTH
 STEP.M          0.0100                            :   STEP VALUE
 NULL.        -999.2500                            :   NULL VALUE
 COMP.    WHITE YOUN GREEN                         :   COMPANY NAME
 WELL.    HAWTHORN SHAFT                           :   WELL NAME
 FLD.     HAWTHORN                                 :   FIELD NAME
 LOC.     N/A                                      :   LOCATION
 PROV.    N/A                                      :   PROVINCE
 SRVC.    N/A                                      :   SERVICE COMPANY NAME
 DATE.    14 Dec 06                                :   DATE
 UWI.     N/A                                      :   UNIQUE WELL IDENTIFIER
~PARAMETER INFORMATION
#MNEMO.UNIT         VALUE                 DESCRIPTION OF MNEMONIC
#------------------------------------------------------------------------------
~OTHER INFORMATION SECTION
#------------------------------------------------------------------------------
 lLOGGING DOWN
~CURVE INFORMATION
#MNEMO.UNIT         API CODE              CURVE DESCRIPTION
#------------------------------------------------------------------------------
 DEPTH.M                                 :   0     Depth
 TEMP.DegC                               :   1     Temperature
 CN25.mS/cm                              :   2     Conductivity@25DegC
 COND.mS/cm                              :   3     Conductivity
 DELT.DegC                               :   4     Delta T
 DELC.mS/cm                              :   5     Delta C
 NGAM.CPS                                :   6     Natural Gamma
#------------------------------------------------------------------------------
~A  DEPTH     TEMP      CN25      COND      DELT      DELC      NGAM      
# ...
   298.85     16.98     26.85     21.64     -0.00      0.00      0.41 
   298.86     16.98     26.85     21.64     -0.00      0.00      0.82 
   298.87     16.98     26.85     21.64     -0.00      0.00      0.82 
   298.88     16.98     26.85     21.64     -0.00      0.00      0.82 
   298.89     16.98     26.85     21.64     -0.00      0.00      0.82 
   298.90     16.98     26.85     21.64     -0.00      0.01      0.82 
   298.91     16.98     26.85     21.64     -0.01      0.01      0.82 
   298.92     16.98     26.85     21.64     -0.01      0.02      0.82 
   298.93     16.98     26.86     21.64     -0.01      0.02      0.82 
   298.94     16.98     26.86     21.64     -0.01      0.01      0.82 
   298.95     16.98     26.86     21.64     -0.01      0.02      0.82 
   298.96     16.98     26.86     21.64     -0.01      0.02      0.82 
   298.97     16.97     26.87     21.64     -0.01      0.02      0.82 
   298.98     16.97     26.87     21.64     -0.01      0.02      0.41 
   298.99     16.97     26.87     21.64     -0.01      0.02      0.82 
   299.00     16.97     26.86     21.64     -0.01      0.01      0.82 
   299.01     16.98     26.87     21.64     -0.00      0.01      0.82 
   299.02     16.98     26.86     21.64     -0.00      0.01      0.82 
   299.03     16.98     26.86     21.64      0.00      0.00      0.41 
   299.04     16.98     26.86     21.64      0.00      0.00      0.41 
   299.05     16.98     26.86     21.64      0.00     -0.00      0.41 
   299.06     16.98     26.85     21.64      0.00     -0.00      0.41 
   299.07     16.98     26.86     21.64      0.00      0.00      0.41 
   299.08     16.98     26.85     21.64      0.00     -0.00      0.41 
   299.09     16.98     26.85     21.64      0.00      0.01      0.41 
   299.10     16.98     26.85     21.64      0.00      0.00      0.41 
   299.11     16.98     26.85     21.64     -0.00      0.01      0.41 
   299.12     16.98     26.85     21.64     -0.00      0.01      0.41 
   299.13     16.98     26.86     21.64     -0.01      0.01      0.41 
   299.14     16.98     26.86     21.64     -0.01      0.02      0.41 
   299.15     16.98     26.86     21.64     -0.01      0.02      0.41 
   299.16     16.98     26.86     21.64     -0.01      0.03      0.00 
   299.17     16.98     26.86     21.64     -0.02      0.03      0.00 
   299.18     16.98     26.86     21.64     -0.02      0.03      0.00 
   299.19     16.98     26.86     21.64     -0.02      0.03      0.00 
   299.20     16.98     26.86     21.64     -0.01      0.03      0.00 
   299.21     16.98     26.86     21.64     -0.01      0.02      0.00 
   299.22     16.98     26.87     21.64     -0.01      0.02      0.00 
   299.23     16.98     26.86     21.64     -0.01      0.01      0.00 
   299.24     16.98     26.86     21.64     -0.01      0.01      0.00 
   299.25     16.98     26.86     21.64     -0.00      0.01      0.00 
   299.26     16.98     26.86     21.64     -0.00      0.01      0.00 
   299.27     16.98     26.86     21.64      0.00      0.00      0.00 
   299.28     16.98     26.86     21.64      0.00     -0.00      0.00 
   299.29     16.98     26.85     21.64      0.00     -0.01      0.00 
   299.30     16.98     26.86     21.64      0.00     -0.00      0.00 
   299.31     16.98     26.85     21.64      0.01     -0.01      0.00 
   299.32     16.98     26.85     21.64      0.00     -0.00      0.00 
   299.33     16.98     26.85     21.64      0.00     -0.01      0.41 
   299.34     16.99     26.85     21.64      0.00     -0.00      0.41 
   299.35     16.99     26.84     21.64      0.00     -0.00      0.41 
   299.36     16.99     26.85     21.64      0.00      0.00      0.41 
   299.37     16.98     26.85     21.64      0.00     -0.00      0.41 
   299.38     16.98     26.86     21.64     -0.00      0.01      0.41 
   299.39     16.98     26.85     21.64     -0.00      0.00      0.41 
   299.40     16.98     26.86     21.64     -0.01      0.01      0.41 
   299.41     16.98     26.85     21.64     -0.01      0.01      0.41 
   299.42     16.98     26.85     21.64     -0.01      0.01      0.41 
   299.43     16.98     26.85     21.64     -0.01      0.01      0.41 
   299.44     16.98     26.85     21.64     -0.00      0.01      0.41 
   299.45     16.99     26.84     21.64     -0.00      0.00      0.82 
   299.46     16.99     26.84     21.64     -0.00      0.01      0.82 
   299.47     16.99     26.84     21.64     -0.00     -0.00      0.82 
   299.48     16.99     26.84     21.64      0.00     -0.00      0.82 
   299.49     16.99     26.83     21.64      0.01     -0.01      0.82 
   299.50     17.00     26.83     21.64      0.01     -0.01      0.41 
   299.51     17.00     26.83     21.64      0.01     -0.02      0.41 
   299.52     17.00     26.83     21.64      0.02     -0.02      0.41 
   299.53     17.00     26.83     21.64      0.02     -0.03      0.41 
   299.54     16.99     26.83     21.64      0.01     -0.02      0.41 
   299.55     16.99     26.83     21.64      0.01     -0.02      0.41 
   299.56     16.99     26.84     21.64      0.01     -0.01      0.41 
   299.57     16.99     26.84     21.64      0.01     -0.02      0.41 
   299.58     16.99     26.84     21.64      0.01     -0.01      0.41 
   299.59     16.99     26.84     21.64      0.01     -0.01      0.41 
   299.60     16.99     26.84     21.64      0.01     -0.01      0.41 
   299.61     16.99     26.84     21.64      0.01     -0.01      0.41 
   299.62     16.99     26.84     21.64      0.01     -0.01      0.00 
   299.63     16.99     26.84     21.64      0.00     -0.01      0.00 
   299.64     16.99     26.84     21.64      0.00     -0.00      0.00 
   299.65     16.99     26.84     21.64      0.00     -0.01      0.00 
   299.66     16.99     26.84     21.64      0.00     -0.00      0.00 
   299.67     16.99     26.84     21.64      0.00     -0.01      0.00 
   299.68     16.99     26.85     21.64      0.00     -0.00      0.00 
   299.69     16.99     26.84     21.64      0.00     -0.01      0.00 
   299.70     16.99     26.85     21.64      0.01     -0.00      0.00 
   299.71     16.99     26.84     21.64      0.01     -0.01      0.00 
   299.72     16.99     26.84     21.64      0.01     -0.01      0.41 
   299.73     16.99     26.84     21.64      0.01     -0.01      0.41 
   299.74     16.99     26.84     21.64      0.00     -0.00      0.41 
   299.75     16.99     26.84     21.64      0.01     -0.01      0.41 
   299.76     16.99     26.85     21.64      0.01     -0.00      0.41 
   299.77     16.99     26.85     21.64      0.01     -0.01      0.41 
   299.78     16.99     26.85     21.64      0.01     -0.01      0.41 
   299.79     16.99     26.85     21.64      0.01     -0.01      0.41 
   299.80     16.99     26.85     21.64      0.01     -0.01      0.41 
   299.81     16.98     26.85     21.64      0.00     -0.00      0.41 
   299.82     16.98     26.85     21.64      0.00      0.00      0.41 
   299.83     16.98     26.86     21.64     -0.00      0.01      0.41 
   299.84     16.98     26.86     21.64     -0.00      0.01      0.41 
   299.85     16.98     26.86     21.64     -0.00      0.01      0.41 
   299.86     16.98     26.85     21.64     -0.00      0.01      0.41 
   299.87     16.98     26.86     21.64     -0.00      0.01      0.41 
   299.88     16.98     26.85     21.64     -0.00      0.00      0.41 
   299.89     16.98     26.86     21.64     -0.00      0.01      0.00 
   299.90     16.98     26.85     21.64     -0.00      0.00      0.00 
   299.91     16.98     26.85     21.64      0.00      0.00      0.35 
   299.92     16.98     26.85     21.64      0.00     -0.01      0.35 
   299.93     16.98     26.85     21.64      0.01     -0.01      0.35 
   299.94     16.99     26.85     21.64      0.01     -0.01      0.35 
   299.95     16.99     26.85     21.64      0.01     -0.02      0.35 
   299.96     16.99     26.85     21.64      0.01     -0.02      0.35 
   299.97     16.99     26.85     21.64      0.01     -0.02      0.35 
