#Written by Robertson Geologging WinLogger V1.0/370
~VERSION INFORMATION
#------------------------------------------------------------------------------
 VERS. 2.0 : CWLS LOG ASCII STANDARD - VERSION 2.0
 WRAP. NO  : ONE LINE PER DEPTH STEP
~WELL INFORMATION
#MNEM.UNIT         DATA                                DESCRIPTION OF MNEMONIC
#------------------------------------------------------------------------------
 STRT.M        118.0500                            :   START DEPTH
 STOP.M        420.0800                            :   STOP DEPTH
 STEP.M          0.0100                            :   STEP VALUE
 NULL.        -999.2500                            :   NULL VALUE
 COMP.    WHITE YOUN GREEN                         :   COMPANY NAME
 WELL.    HAWTHORN SHAFT                           :   WELL NAME
 FLD.     HAWTHORN                                 :   FIELD NAME
 LOC.     N/A                                      :   LOCATION
 PROV.    N/A                                      :   PROVINCE
 SRVC.    N/A                                      :   SERVICE COMPANY NAME
 DATE.    14 Dec 06                                :   DATE
 UWI.     N/A                                      :   UNIQUE WELL IDENTIFIER
~PARAMETER INFORMATION
#MNEMO.UNIT         VALUE                 DESCRIPTION OF MNEMONIC
#------------------------------------------------------------------------------
~OTHER INFORMATION SECTION
#------------------------------------------------------------------------------
 lLOGGING DOWN
~CURVE INFORMATION
#MNEMO.UNIT         API CODE              CURVE DESCRIPTION
#------------------------------------------------------------------------------
 DEPTH.M                                 :   0     Depth
 TEMP.DegC                               :   1     Temperature
 CN25.mS/cm                              :   2     Conductivity@25DegC
 COND.mS/cm                              :   3     Conductivity
 DELT.DegC                               :   4     Delta T
 DELC.mS/cm                              :   5     Delta C
 NGAM.CPS                                :   6     Natural Gamma
#------------------------------------------------------------------------------
~A  DEPTH     TEMP      CN25      COND      DELT      DELC      NGAM      
# ...
   138.39     12.52      7.84      1.54      0.01     -0.01      0.00 
   138.40     12.52      7.84      1.54      0.02     -0.02      0.00 
   138.41     12.52      7.85      1.54      0.02     -0.01      0.00 
   138.42     12.52      7.84      1.54      0.02     -0.02      0.00 
   138.43     12.52      7.84      1.54      0.02     -0.02      0.00 
   138.44     12.52      7.84      1.54      0.01     -0.01      0.00 
   138.45     12.52      7.84      1.54      0.01     -0.02      0.00 
   138.46     12.52      7.84      1.54      0.01     -0.01      0.00 
   138.47     12.52      7.84      1.54      0.01     -0.01      0.00 
   138.48     12.52      7.84      1.54      0.01     -0.01      0.00 
   138.49     12.52      7.84      1.54      0.00     -0.00      0.00 
   138.50     12.52      7.84      1.54      0.00     -0.01      0.00 
   138.51     12.52      7.85      1.54      0.00      0.00      0.00 
   138.52     12.52      7.84      1.54     -0.00      0.00      0.00 
   138.53     12.52      7.85      1.54     -0.00      0.00      0.00 
   138.54     12.52      7.85      1.54     -0.00      0.01      0.00 
   138.55     12.52      7.85      1.54     -0.01      0.01      0.00 
   138.56     12.51      7.85      1.54     -0.01      0.01      0.00 
   138.57     12.51      7.85      1.54     -0.00      0.00      0.00 
   138.58     12.51      7.85      1.54     -0.00      0.00      0.00 
   138.59     12.52      7.85      1.54      0.00     -0.00      0.00 
   138.60     12.52      7.85      1.54      0.01     -0.01      0.00 
   138.61     12.52      7.85      1.54      0.01     -0.01      0.00 
   138.62     12.52      7.85      1.54      0.01     -0.01      0.00 
   138.63     12.52      7.85      1.54      0.01     -0.01      0.00 
   138.64     12.52      7.85      1.54      0.01     -0.01      0.00 
   138.65     12.52      7.85      1.54      0.01     -0.00      0.00 
   138.66     12.52      7.84      1.54      0.01     -0.01      0.00 
   138.67     12.52      7.84      1.54      0.01     -0.01      0.00 
   138.68     12.52      7.84      1.54      0.01     -0.01      0.41 
   138.69     12.52      7.85      1.54      0.00     -0.00      0.41 
   138.70     12.52      7.85      1.54     -0.00      0.00      0.41 
   138.71     12.52      7.85      1.54     -0.00      0.00      0.41 
   138.72     12.51      7.86      1.54     -0.00      0.01      0.41 
   138.73     12.51      7.85      1.54     -0.00      0.01      0.41 
   138.74     12.51      7.85      1.54     -0.00      0.00      0.41 
   138.75     12.51      7.85      1.54     -0.00      0.00      0.41 
   138.76     12.51      7.85      1.54     -0.00      0.00      0.41 
   138.77     12.51      7.85      1.54     -0.00      0.00      0.41 
   138.78     12.51      7.86      1.54     -0.00      0.00      0.41 
   138.79     12.51      7.86      1.54     -0.00      0.01      0.41 
   138.80     12.51      7.86      1.54     -0.00      0.00      0.41 
   138.81     12.51      7.86      1.54     -0.00      0.00      0.41 
   138.82     12.51      7.86      1.54     -0.01      0.01      0.41 
   138.83     12.50      7.86      1.54     -0.01      0.01      0.41 
   138.84     12.50      7.86      1.54     -0.01      0.01      0.41 
   138.85     12.50      7.86      1.54     -0.01      0.01      0.00 
   138.86     12.50      7.86      1.54     -0.01      0.01      0.41 
   138.87     12.50      7.86      1.54     -0.01      0.01      0.41 
   138.88     12.51      7.86      1.54     -0.01      0.01      0.41 
   138.89     12.51      7.86      1.54     -0.01      0.01      0.41 
   138.90     12.51      7.86      1.54     -0.01      0.01      0.41 
   138.91     12.51      7.85      1.54     -0.01      0.01      0.41 
   138.92     12.51      7.85      1.54     -0.01      0.01      0.41 
   138.93     12.51      7.86      1.54     -0.01      0.01      0.41 
   138.94     12.52      7.85      1.54     -0.00      0.00      0.41 
   138.95     12.52      7.85      1.54     -0.00      0.00      0.41 
   138.96     12.52      7.85      1.54     -0.00      0.00      0.41 
   138.97     12.52      7.85      1.54      0.00      0.00      0.41 
   138.98     12.52      7.84      1.54      0.00     -0.01      0.41 
   138.99     12.52      7.84      1.54      0.00     -0.00      0.41 
   139.00     12.52      7.85      1.54      0.00     -0.00      0.41 
   139.01     12.52      7.84      1.54      0.00     -0.00      0.41 
   139.02     12.52      7.84      1.54      0.01     -0.01      0.41 
   139.03     12.52      7.84      1.54      0.01     -0.00      0.00 
   139.04     12.52      7.84      1.54      0.00     -0.00      0.00 
   139.05     12.52      7.84      1.54      0.00     -0.01      0.00 
   139.06     12.52      7.84      1.54      0.00     -0.00      0.00 
   139.07     12.52      7.85      1.54      0.00      0.00      0.00 
   139.08     12.52      7.85      1.54      0.00      0.00      0.00 
   139.09     12.52      7.85      1.54     -0.00      0.00      0.00 
   139.10     12.52      7.85      1.54     -0.00      0.01      0.00 
   139.11     12.51      7.85      1.54     -0.01      0.01      0.00 
   139.12     12.51      7.85      1.54     -0.01      0.01      0.00 
   139.13     12.51      7.86      1.54     -0.01      0.01      0.00 
   139.14     12.51      7.86      1.54     -0.01      0.01      0.00 
   139.15     12.51      7.86      1.54     -0.01      0.01      0.00 
   139.16     12.51      7.86      1.54     -0.01      0.01      0.00 
   139.17     12.51      7.86      1.54     -0.01      0.01      0.00 
   139.18     12.51      7.86      1.54     -0.01      0.01      0.00 
   139.19     12.51      7.85      1.54     -0.01      0.01      0.00 
   139.20     12.51      7.85      1.54     -0.01      0.01      0.00 
   139.21     12.51      7.86      1.54     -0.00      0.01      0.00 
   139.22     12.52      7.85      1.54     -0.00     -0.00      0.00 
   139.23     12.52      7.85      1.54     -0.00     -0.00      0.00 
   139.24     12.52      7.85      1.54     -0.00     -0.00      0.00 
   139.25     12.52      7.85      1.54      0.00     -0.00      0.47 
   139.26     12.52      7.85      1.54      0.00     -0.00      0.47 
   139.27     12.52      7.85      1.54      0.00     -0.00      0.47 
   139.28     12.52      7.85      1.54      0.00     -0.00      0.47 
   139.29     12.52      7.85      1.54      0.00     -0.00      0.47 
   139.30     12.52      7.85      1.54      0.00     -0.00      0.47 
   139.31     12.52      7.85      1.54      0.00     -0.00      0.47 
   139.32     12.52      7.85      1.54     -0.00      0.00      0.47 
   139.33     12.51      7.85      1.54     -0.01      0.00      0.47 
   139.34     12.51      7.85      1.54     -0.01      0.01      0.47 
   139.35     12.51      7.85      1.54     -0.01      0.01      0.47 
   139.36     12.51      7.85      1.54     -0.01      0.00      0.47 
   139.37     12.52      7.85      1.54     -0.01      0.01      0.47 
   139.38     12.52      7.85      1.54     -0.01      0.01      0.47 
   139.39     12.52      7.85      1.54     -0.01      0.01      0.47 
   139.40     12.52      7.85      1.54     -0.00      0.00      0.47 
   139.41     12.52      7.85      1.54     -0.00      0.00      0.47 
   139.42     12.52      7.84      1.54     -0.00      0.00      0.00 
   139.43     12.52      7.84      1.54     -0.00     -0.00      0.00 
   139.44     12.52      7.84      1.54     -0.00      0.00      0.00 
   139.45     12.52      7.84      1.54      0.00     -0.00      0.00 
   139.46     12.53      7.84      1.54      0.00      0.00      0.00 
   139.47     12.52      7.84      1.54      0.00     -0.00      0.00 
   139.48     12.52      7.84      1.54      0.00     -0.00      0.00 
   139.49     12.52      7.85      1.54     -0.00      0.00      0.00 
   139.50     12.52      7.85      1.54     -0.00      0.00      0.00 
   139.51     12.52      7.85      1.54     -0.01      0.00      0.00 
