#Written by Robertson Geologging WinLogger V1.0/311
~VERSION INFORMATION
#------------------------------------------------------------------------------
 VERS. 2.0 : CWLS LOG ASCII STANDARD - VERSION 2.0
 WRAP. NO  : ONE LINE PER DEPTH STEP
~WELL INFORMATION
#MNEM.UNIT         DATA                                DESCRIPTION OF MNEMONIC
#------------------------------------------------------------------------------
 STRT.M        146.1000                            :   START DEPTH
 STOP.M        425.1000                            :   STOP DEPTH
 STEP.M          0.1000                            :   STEP VALUE
 NULL.        -999.2500                            :   NULL VALUE
 COMP.    IMC                                      :   COMPANY NAME
 WELL.    HAWTHORN SHAFT                           :   WELL NAME
 FLD.     HAWTHORN                                 :   FIELD NAME
 LOC.     N/A                                      :   LOCATION
 PROV.    N/A                                      :   PROVINCE
 SRVC.    N/A                                      :   SERVICE COMPANY NAME
 DATE.    03 Oct 03                                :   DATE
 UWI.     N/A                                      :   UNIQUE WELL IDENTIFIER
~PARAMETER INFORMATION
#MNEMO.UNIT         VALUE                 DESCRIPTION OF MNEMONIC
#------------------------------------------------------------------------------
~OTHER INFORMATION SECTION
#------------------------------------------------------------------------------
 TCDS 2822
~CURVE INFORMATION
#MNEMO.UNIT         API CODE              CURVE DESCRIPTION
#------------------------------------------------------------------------------
 DEPTH.M                                 :   0     Depth
 TEMP.DegC                               :   1     Temperature
 COND.uS/cm                              :   2     Conductivity
 DELT.DegC                               :   3     Delta T
 DELC.uS/cm                              :   4     Delta C
 NGAM.API                                :   5     Natural Gamma
#------------------------------------------------------------------------------
~A  DEPTH     TEMP      COND      DELT      DELC      NGAM      
# ...
   212.10     11.87    667.02      0.00     -0.57      3.35 
   212.20     11.87    667.02     -0.00     -0.16      4.18 
   212.30     11.88    667.50      0.01      0.40      2.47 
   212.40     11.88    667.10      0.01     -0.08      2.47 
   212.50     11.87    667.67     -0.00      0.57      2.88 
   212.60     11.87    667.10     -0.00     -0.08      3.53 
   212.70     11.87    667.10     -0.01     -0.57      4.00 
   212.80     11.87    667.10      0.00      0.16      4.29 
   212.90     11.87    667.58      0.00      0.65      2.94 
   213.00     11.88    667.02      0.01     -0.48      3.00 
   213.10     11.87    667.67      0.00      0.57      4.18 
   213.20     11.88    667.10      0.01     -0.40      5.18 
   213.30     11.87    667.10     -0.01      0.16      4.24 
   213.40     11.86    667.02     -0.01     -0.08      3.71 
   213.50     11.87    667.02      0.00     -0.08      3.29 
   213.60     11.86    667.50     -0.01      0.89      1.24 
   213.70     11.87    667.67     -0.00      0.57      1.65 
   213.80     11.86    667.67     -0.01      0.00      3.71 
   213.90     11.88    667.10      0.01      0.00      3.71 
   214.00     11.87    667.58     -0.01      0.48      3.41 
   214.10     11.87    667.10     -0.01      0.00      5.12 
   214.20     11.86    667.10     -0.02      0.08      3.35 
   214.30     11.86    667.50     -0.01      0.57      2.47 
   214.40     11.86    667.58     -0.00      0.57      3.35 
   214.50     11.86    667.67     -0.01      0.65      3.41 
   214.60     11.86    667.10     -0.00      0.08      2.59 
   214.70     11.88    666.94      0.01     -0.73      3.88 
   214.80     11.87    667.02      0.01     -0.65      5.12 
   214.90     11.87    666.94     -0.02     -0.73      4.24 
   215.00     11.87    666.94      0.00     -0.16      3.00 
   215.10     11.86    667.67     -0.00      0.57      1.76 
   215.20     11.86    667.18     -0.00     -0.48      3.00 
   215.30     11.88    667.10      0.01     -0.48      3.76 
   215.40     11.88    667.67      0.01      0.57      4.29 
   215.50     11.87    667.67      0.01      0.57      3.41 
   215.60     11.87    667.10      0.01      0.08      2.59 
   215.70     11.87    667.10     -0.01     -0.40      3.06 
   215.80     11.87    667.50     -0.00     -0.08      2.18 
   215.90     11.87    667.67     -0.00      0.16      2.94 
   216.00     11.87    668.15     -0.00      0.48      1.65 
   216.10     11.87    667.67      0.00      0.57      3.88 
   216.20     11.86    667.67      0.00      0.48      3.35 
   216.30     11.87    667.75     -0.01      0.08      2.47 
   216.40     11.86    667.58     -0.01      0.40      3.00 
   216.50     11.85    667.67     -0.02      0.57      4.53 
   216.60     11.87    667.67      0.00      0.57      3.12 
   216.70     11.87    667.02     -0.00     -0.57      2.47 
   216.80     11.88    667.58      0.01      0.65      2.88 
   216.90     11.87    667.58      0.00     -0.08      2.53 
   217.00     11.88    667.58      0.01      0.00      2.12 
   217.10     11.86    667.02      0.00     -0.57      2.06 
   217.20     11.87    667.50      0.01     -0.16      2.47 
   217.30     11.87    667.67      0.00     -0.08      2.06 
   217.40     11.87    667.67      0.01      0.08      2.59 
   217.50     11.88    667.67      0.03     -0.08      2.94 
   217.60     11.87    667.18     -0.00     -0.40      4.12 
   217.70     11.88    667.10      0.01      0.08      4.65 
   217.80     11.87    667.02     -0.02     -0.65      3.35 
   217.90     11.87    667.10     -0.00     -0.40      1.65 
   218.00     11.87    667.67     -0.00      0.08      2.53 
   218.10     11.88    667.67      0.02      0.08      1.71 
   218.20     11.88    667.67      0.01      0.08      2.59 
   218.30     11.88    667.10      0.01     -0.48      3.00 
   218.40     11.87    667.10      0.00     -0.48      3.41 
   218.50     11.87    667.02     -0.01     -0.08      3.06 
   218.60     11.87    667.58     -0.01      0.40      3.00 
   218.70     11.87    667.58     -0.01     -0.08      2.94 
   218.80     11.87    667.75      0.00      0.16      2.12 
   218.90     11.87    666.94      0.00     -0.73      3.82 
   219.00     11.88    667.02      0.01     -0.08      1.71 
   219.10     11.88    667.10     -0.01      0.00      3.29 
   219.20     11.88    667.58      0.00      0.48      4.18 
   219.30     11.86    667.50     -0.01      0.40      2.12 
   219.40     11.87    667.67      0.00      0.00      3.41 
   219.50     11.88    667.58      0.01      0.08      2.53 
   219.60     11.88    667.67      0.01      0.08      3.00 
   219.70     11.87    666.94      0.00     -0.08      2.94 
   219.80     11.87    667.02     -0.00     -0.00      2.88 
   219.90     11.88    667.02      0.01      0.08      1.65 
   220.00     11.87    667.18     -0.01     -0.40      2.06 
   220.10     11.87    667.67     -0.00      0.00      2.47 
   220.20     11.87    667.75     -0.01      0.08      4.59 
   220.30     11.87    667.10      0.00     -0.48      3.82 
   220.40     11.87    667.18     -0.01     -0.48      3.53 
   220.50     11.87    667.58     -0.00      0.48      3.41 
   220.60     11.87    667.67     -0.01      0.57      3.29 
   220.70     11.87    667.50      0.00      0.48      3.00 
   220.80     11.87    667.50     -0.00      0.00      0.94 
   220.90     11.88    667.67      0.00      0.08      2.18 
   221.00     11.87    667.58     -0.00     -0.08      3.41 
   221.10     11.87    667.58     -0.00     -0.08      1.65 
   221.20     11.88    667.67      0.01      0.48      0.00 
   221.30     11.87    667.58     -0.00      0.48      2.12 
   221.40     11.87    667.75      0.00      0.00      3.94 
   221.50     11.88    667.75      0.00      0.24      3.00 
   221.60     11.88    667.67      0.01      0.73      2.94 
   221.70     11.88    667.58      0.01      0.65      2.47 
   221.80     11.87    667.58      0.00      0.57      1.65 
   221.90     11.88    667.50     -0.00     -0.08      3.82 
   222.00     11.88    667.58      0.01      0.00      3.00 
   222.10     11.87    667.67     -0.00     -0.48      2.94 
   222.20     11.87    667.58     -0.01     -0.16      5.47 
   222.30     11.87    667.42      0.00     -0.16      3.76 
   222.40     11.87    667.10     -0.01     -0.08      2.94 
   222.50     11.87    667.10     -0.01     -0.08      2.53 
   222.60     11.88    667.18     -0.00      0.08      2.59 
   222.70     11.88    667.67      0.00      0.65      2.12 
   222.80     11.86    667.67     -0.00      0.65      3.00 
   222.90     11.88    667.58      0.00      0.57      3.88 
   223.00     11.87    667.58     -0.01      0.00      2.12 
   223.10     11.87    667.58      0.00     -0.08      1.82 
   223.20     11.87    667.10      0.00     -0.48      1.29 
   223.30     11.88    667.67      0.01      0.24      1.71 
   223.40     11.87    667.67      0.01      0.08      2.59 
   223.50     11.87    667.58      0.01     -0.08      5.65 
   223.60     11.89    667.50      0.01     -0.24      6.06 
   223.70     11.88    667.02     -0.00     -0.65      2.94 
   223.80     11.87    667.02      0.00     -0.65      3.29 
   223.90     11.86    667.02     -0.02     -0.65      3.47 
   224.00     11.88    667.58      0.01     -0.08      5.59 
   224.10     11.88    667.67      0.00      0.16      2.53 
   224.20     11.87    667.58     -0.00      0.57      0.82 
   224.30     11.87    667.58     -0.01      0.48      0.82 
   224.40     11.88    667.67      0.00      0.57      2.71 
   224.50     11.88    667.50      0.01      0.48      3.53 
   224.60     11.88    667.75     -0.01      0.73      2.88 
   224.70     11.88    667.50      0.00      0.48      3.71 
   224.80     11.88    667.58      0.02     -0.00      5.41 
   224.90     11.87    667.10      0.00     -0.57      6.35 
   225.00     11.87    667.02     -0.01     -0.57      3.00 
   225.10     11.88    667.18      0.01     -0.48      4.24 
   225.20     11.87    667.67      0.00      0.00      3.88 
