#Written by Robertson Geologging WinLogger V1.0/311
~VERSION INFORMATION
#------------------------------------------------------------------------------
 VERS. 2.0 : CWLS LOG ASCII STANDARD - VERSION 2.0
 WRAP. NO  : ONE LINE PER DEPTH STEP
~WELL INFORMATION
#MNEM.UNIT         DATA                                DESCRIPTION OF MNEMONIC
#------------------------------------------------------------------------------
 STRT.M        146.1000                            :   START DEPTH
 STOP.M        425.1000                            :   STOP DEPTH
 STEP.M          0.1000                            :   STEP VALUE
 NULL.        -999.2500                            :   NULL VALUE
 COMP.    IMC                                      :   COMPANY NAME
 WELL.    HAWTHORN SHAFT                           :   WELL NAME
 FLD.     HAWTHORN                                 :   FIELD NAME
 LOC.     N/A                                      :   LOCATION
 PROV.    N/A                                      :   PROVINCE
 SRVC.    N/A                                      :   SERVICE COMPANY NAME
 DATE.    03 Oct 03                                :   DATE
 UWI.     N/A                                      :   UNIQUE WELL IDENTIFIER
~PARAMETER INFORMATION
#MNEMO.UNIT         VALUE                 DESCRIPTION OF MNEMONIC
#------------------------------------------------------------------------------
~OTHER INFORMATION SECTION
#------------------------------------------------------------------------------
 TCDS 2822
~CURVE INFORMATION
#MNEMO.UNIT         API CODE              CURVE DESCRIPTION
#------------------------------------------------------------------------------
 DEPTH.M                                 :   0     Depth
 TEMP.DegC                               :   1     Temperature
 COND.uS/cm                              :   2     Conductivity
 DELT.DegC                               :   3     Delta T
 DELC.uS/cm                              :   4     Delta C
 NGAM.API                                :   5     Natural Gamma
#------------------------------------------------------------------------------
~A  DEPTH     TEMP      COND      DELT      DELC      NGAM      
# ...
   238.50     11.88    667.75     -0.00      0.16      2.06 
   238.60     11.89    667.91      0.00      0.40      2.00 
   238.70     11.88    667.34     -0.00     -0.48      3.29 
   238.80     11.88    667.26     -0.01     -0.81      3.29 
   238.90     11.89    667.99      0.00      0.24      4.12 
   239.00     11.87    667.91     -0.02      0.08      4.53 
   239.10     11.89    667.91      0.01      0.08      4.12 
   239.20     11.87    667.83     -0.00      0.00      3.71 
   239.30     11.87    667.26     -0.00     -0.65      2.53 
   239.40     11.87    667.83     -0.02      0.00      1.82 
   239.50     11.87    667.83     -0.01      0.65      1.35 
   239.60     11.88    667.67     -0.01      0.32      0.41 
   239.70     11.88    667.58      0.00      0.24      2.06 
   239.80     11.88    667.83      0.00      0.00      2.06 
   239.90     11.88    667.91     -0.01     -0.08      1.65 
   240.00     11.89    667.91      0.02      0.00      3.29 
   240.10     11.89    667.42     -0.00     -0.40      2.88 
   240.20     11.88    667.34      0.01     -0.48      3.29 
   240.30     11.88    667.26      0.01     -0.57      2.06 
   240.40     11.89    667.83      0.02      0.00      1.65 
   240.50     11.90    667.91      0.02      0.08      2.06 
   240.60     11.89    667.83      0.00      0.16      2.88 
   240.70     11.88    667.26     -0.00     -1.05      2.00 
   240.80     11.88    667.67     -0.00     -0.16      3.53 
   240.90     11.88    667.75      0.00      0.40      3.59 
   241.00     11.88    667.26     -0.00      0.00      1.65 
   241.10     11.89    667.34      0.00     -0.08      2.41 
   241.20     11.88    667.83      0.00     -0.08      3.24 
   241.30     11.88    667.91     -0.01     -0.00      2.06 
   241.40     11.88    667.42     -0.00     -0.40      3.29 
   241.50     11.89    667.34     -0.01     -0.57      4.12 
   241.60     11.87    667.83     -0.01      0.00      3.29 
   241.70     11.88    667.83     -0.00      0.00      2.88 
   241.80     11.88    667.83      0.00      0.16      2.47 
   241.90     11.88    667.83     -0.00      0.65      1.24 
   242.00     11.88    668.39     -0.00      1.13      1.18 
   242.10     11.89    682.77      0.00     14.86      4.06 
   242.20     11.88    851.81      0.01    183.90      3.29 
   242.30     11.88   1137.72      0.00    470.38      1.24 
   242.40     11.89   1318.13      0.00    650.71      0.82 
   242.50     11.91   1403.32      0.02    735.41      2.47 
   242.60     11.93   1471.02      0.06    803.19      4.12 
   242.70     11.97   1525.98      0.09    858.15      4.53 
   242.80     12.02   1566.24      0.14    898.98      3.71 
   242.90     12.06   1590.08      0.18    922.82      3.29 
   243.00     12.10   1613.27      0.22    944.88      2.47 
   243.10     12.12   1637.68      0.23    949.18      2.06 
   243.20     12.14   1668.54      0.26    787.20      2.82 
   243.30     12.15   1682.05      0.26    520.58      2.47 
   243.40     12.16   1695.16      0.27    366.64      2.47 
   243.50     12.17   1713.33      0.26    302.45      2.47 
   243.60     12.17   1765.87      0.24    289.09      3.71 
   243.70     12.20   1906.27      0.23    375.09      3.71 
   243.80     12.20   2124.51      0.18    555.35      4.53 
   243.90     12.20   2385.15      0.13    792.80      4.41 
   244.00     12.22   2782.06      0.12   1166.43      1.24 
   244.10     12.26   3260.57      0.13   1619.95      3.71 
   244.20     12.30   3843.23      0.16   2172.33      3.71 
   244.30     12.34   4448.97      0.19   2766.35      3.71 
   244.40     12.39   5053.42      0.23   3356.46      4.00 
   244.50     12.44   6259.49      0.27   4542.74      4.00 
   244.60     12.49   8233.24      0.32   6457.42      3.71 
   244.70     12.55   9766.67      0.35   7841.55      4.82 
   244.80     12.61  11701.54      0.41   9552.75      4.12 
   244.90     12.69  14655.48      0.49  12238.15      1.24 
   245.00     12.77  17287.56      0.54  14459.08      3.29 
   245.10     12.82  19948.24      0.55  16633.48      4.12 
   245.20     12.88  22308.02      0.57  18402.07      2.00 
   245.30     12.93  25483.96      0.59  20984.47      3.24 
   245.40     12.98  27791.27      0.59  22645.26      4.94 
   245.50     13.07  30038.32      0.62  23607.36      3.35 
   245.60     13.11  32129.03      0.61  23719.12      3.76 
   245.70     13.16  33637.15      0.61  23715.97      3.71 
   245.80     13.20  36168.67      0.58  24159.50      1.65 
   245.90     13.26  37663.87      0.56  22806.96      3.24 
   246.00     13.29  38763.37      0.52  21133.47      4.94 
   246.10     13.36  40093.52      0.54  19964.61      4.94 
   246.20     13.41  41461.72      0.53  18841.02      2.88 
   246.30     13.45  42453.89      0.51  16670.45      3.71 
   246.40     13.50  43111.03      0.51  15129.03      4.18 
   246.50     13.57  43590.83      0.49  13307.44      2.88 
   246.60     13.65  44039.78      0.54  11751.03      4.12 
   246.70     13.72  44385.45      0.56  10532.37      4.53 
   246.80     13.80  44485.82      0.59   8120.31      2.47 
   246.90     13.88  44497.77      0.62   6713.38      2.47 
   247.00     13.94  44454.82      0.64   5567.47      2.88 
   247.10     13.99  44419.18      0.62   4196.15      3.29 
   247.20     14.03  44398.55      0.61   2805.06      3.65 
   247.30     14.05  44414.84      0.60   1886.14      2.47 
   247.40     14.07  44444.24      0.56   1279.08      2.88 
   247.50     14.08  44489.20      0.51    853.18      2.12 
   247.60     14.09  44549.94      0.43    464.98      2.12 
   247.70     14.10  44627.85      0.38    225.80      3.71 
   247.80     14.11  44722.31      0.30    231.94      2.88 
   247.90     14.12  44838.10      0.23    344.14      2.47 
   248.00     14.12  44958.84      0.17    507.72      4.06 
   248.10     14.11  45087.50      0.11    671.71      2.82 
   248.20     14.12  45218.05      0.09    818.75      1.65 
   248.30     14.11  45346.97      0.05    929.81      4.12 
   248.40     14.10  45470.55      0.03   1022.50      4.12 
   248.50     14.11  45580.81      0.02   1087.05      1.65 
   248.60     14.10  45681.65      0.01   1123.45      5.00 
   248.70     14.11  45771.15      0.01   1135.68      4.59 
   248.80     14.11  45851.95      0.01   1119.05      1.65 
   248.90     14.10  45924.80     -0.02   1074.51      3.29 
   249.00     14.13  45998.10      0.02   1026.42      2.88 
   249.10     14.11  46065.77      0.00    964.68      2.47 
   249.20     14.12  46126.00      0.00    894.58      4.82 
   249.30     14.15  46185.29      0.04    825.36      2.76 
   249.40     14.13  46236.49      0.03    754.46      3.29 
   249.50     14.14  46286.74      0.04    695.51      4.12 
   249.60     14.15  46330.49      0.05    639.69      3.29 
   249.70     14.13  46369.13      0.02    590.42      2.88 
   249.80     14.13  46400.09      0.02    541.21      2.47 
   249.90     14.15  46426.35      0.04    494.73      3.71 
   250.00     14.13  46447.49      0.00    441.83      2.88 
   250.10     14.13  46465.65      0.02    393.80      4.00 
   250.20     14.13  46492.77      0.01    360.69      4.00 
   250.30     14.13  46521.40     -0.02    330.77      4.12 
   250.40     14.15  46547.46      0.02    304.89      4.94 
   250.50     14.16  46569.58      0.02    277.50      2.47 
   250.60     14.17  46590.20      0.03    256.72      2.47 
   250.70     14.16  46607.40      0.03    235.18      3.65 
   250.80     14.16  46618.94      0.02    216.62      2.82 
   250.90     14.14  46627.49     -0.00    198.05      3.71 
   251.00     14.15  46632.20      0.02    183.96      5.35 
   251.10     14.17  46641.92      0.03    174.67      5.76 
   251.20     14.15  46654.53      0.02    158.77      3.53 
   251.30     14.17  46669.07      0.04    144.58      3.12 
   251.40     14.18  46682.54      0.03    132.83      4.12 
   251.50     14.16  46700.93      0.00    128.78      4.12 
   251.60     14.16  46719.64     -0.01    126.98      3.71 
