#Written by Robertson Geologging WinLogger V1.0/406
~VERSION INFORMATION
#------------------------------------------------------------------------------
 VERS. 2.0 : CWLS LOG ASCII STANDARD - VERSION 2.0
 WRAP. NO  : ONE LINE PER DEPTH STEP
~WELL INFORMATION
#MNEM.UNIT         DATA                                DESCRIPTION OF MNEMONIC
#------------------------------------------------------------------------------
 STRT.M        115.9300                            :   START DEPTH
 STOP.M        440.0000                            :   STOP DEPTH
 STEP.M          0.0100                            :   STEP VALUE
 NULL.        -999.2500                            :   NULL VALUE
 COMP.    Coal Authority                           :   COMPANY NAME
 WELL.    Hawthorn Shaft                           :   WELL NAME
 FLD.     Hawthorn                                 :   FIELD NAME
 LOC.     N/A                                      :   LOCATION
 PROV.    N/A                                      :   PROVINCE
 SRVC.    N/A                                      :   SERVICE COMPANY NAME
 DATE.    28 Aug 08                                :   DATE
 UWI.     N/A                                      :   UNIQUE WELL IDENTIFIER
~PARAMETER INFORMATION
#MNEMO.UNIT         VALUE                 DESCRIPTION OF MNEMONIC
#------------------------------------------------------------------------------
~OTHER INFORMATION SECTION
#------------------------------------------------------------------------------
 TCGS 1365
 Logged in low conductivity mode as starting readings were so low.
~CURVE INFORMATION
#MNEMO.UNIT         API CODE              CURVE DESCRIPTION
#------------------------------------------------------------------------------
 DEPTH.M                                 :   0     Depth
 TEMP.DegC                               :   1     Temperature
 CN25.uS/cm                              :   2     Conductivity@25DegC
 DELT.DegC                               :   3     Delta T
 DELC.uS/cm                              :   4     Delta C
 NGAM.CPS                                :   5     Natural Gamma
 COND.uS/cm                              :   6     Conductivity
#------------------------------------------------------------------------------
~A  DEPTH     TEMP      CN25      DELT      DELC      NGAM      COND      
# ...
   331.76     17.01  21506.71      0.00     15.81      0.00  18068.65 
   331.77     17.00  21500.66     -0.00      2.48      0.00  18061.48 
   331.78     17.01  21506.71      0.00      6.06      7.00  18068.65 
   331.79     17.00  21500.66      0.00     10.97      0.00  18061.48 
   331.80     17.01  21495.70      0.00     -2.47      0.00  18061.48 
   331.81     17.02  21500.50      0.00     19.50      0.00  18069.68 
   331.82     17.02  21490.76      0.00      0.00      0.00  18061.48 
   331.83     17.02  21500.50      0.00      7.27      0.00  18069.68 
   331.84     17.01  21495.70     -0.01     14.70      0.00  18061.48 
   331.85     17.00  21509.19     -0.01     15.96      0.00  18068.65 
   331.86     17.00  21500.66     -0.02      9.90      0.00  18061.48 
   331.87     17.00  21500.66     -0.02     19.65      0.00  18061.48 
   331.88     17.02  21502.98     -0.01     14.70      0.00  18069.68 
   331.89     17.01  21498.18     -0.00      2.47      0.00  18061.48 
   331.90     17.01  21506.71     -0.01     25.70      0.00  18068.65 
   331.91     17.01  21495.70     -0.01      7.42      0.00  18061.48 
   331.92     17.01  21506.71     -0.01     15.96      0.00  18068.65 
   331.93     17.01  21498.18     -0.02     22.11      0.00  18061.48 
   331.94     17.01  21495.70     -0.01      4.95      0.00  18061.48 
   331.95     16.99  21514.14     -0.01     23.24      0.00  18068.65 
   331.96     16.99  21514.14     -0.01     23.24      0.00  18068.65 
   331.97     17.00  21500.66      0.00      0.00      0.00  18061.48 
   331.98     17.00  21503.13      0.00      0.00      0.00  18061.48 
   331.99     17.02  21501.76      0.01      1.11      0.00  18068.65 
   332.00     17.02  21502.98      0.01      4.80      0.00  18069.68 
   332.01     17.01  21488.43      0.00      0.00      0.00  18053.29 
   332.02     17.01  21506.71     -0.00     11.01      0.00  18068.65 
   332.03     17.00  21500.66     -0.01      4.95      0.00  18061.48 
   332.04     17.00  21509.19     -0.01     15.96      0.00  18068.65 
   332.05     17.01  21498.18     -0.00      2.47      0.00  18061.48 
   332.06     17.01  21504.24     -0.01     13.48      0.00  18068.65 
   332.07     17.00  21500.66     -0.01      7.42      0.00  18061.48 
   332.08     17.00  21512.89     -0.02     30.62      0.00  18069.68 
   332.09     17.00  21503.13     -0.02      9.90      0.00  18061.48 
   332.10     17.00  21509.19      0.00      8.53      0.00  18068.65 
   332.11     17.01  21495.70      0.00      0.00      0.00  18061.48 
   332.12     17.02  21499.29      0.01      3.58     14.00  18068.65 
   332.13     17.03  21488.28      0.01     -4.95      0.00  18061.48 
   332.14     17.02  21499.29      0.00      8.53      0.00  18068.65 
   332.15     17.02  21490.76      0.00      0.00      0.00  18061.48 
   332.16     17.02  21501.76     -0.00     11.00      0.00  18068.65 
   332.17     17.01  21495.70     -0.00      2.47      0.00  18061.48 
   332.18     17.02  21501.76      0.00      6.06      0.00  18068.65 
   332.19     17.01  21495.70      0.00      0.00      0.00  18061.48 
   332.20     17.01  21504.24      0.01      1.10      0.00  18068.65 
   332.21     17.01  21498.18      0.00      7.28      0.00  18061.48 
   332.22     17.01  21506.71      0.00      8.53      0.00  18068.65 
   332.23     17.01  21505.45      0.01      2.32      0.00  18069.68 
   332.24     17.01  21495.70      0.01     -7.43      0.00  18061.48 
   332.25     17.02  21502.98      0.02     -0.15      0.00  18069.68 
   332.26     17.02  21490.76      0.02     -9.90      0.00  18061.48 
   332.27     17.01  21506.71      0.00      8.53      0.00  18068.65 
   332.28     17.01  21484.74      0.00    -10.97      0.00  18052.27 
   332.29     17.01  21506.71      0.00      0.00      0.00  18068.65 
   332.30     17.01  21504.24      0.01      3.58      0.00  18068.65 
   332.31     17.02  21493.23      0.01     -7.42      0.00  18061.48 
   332.32     17.02  21501.76      0.02     -1.37      0.00  18068.65 
   332.33     17.02  21490.76      0.01     -7.42      0.00  18061.48 
   332.34     17.02  21501.76      0.00      6.06      7.00  18068.65 
   332.35     17.02  21501.76      0.00      6.06      0.00  18068.65 
   332.36     17.02  21493.23      0.00      0.00      0.00  18061.48 
   332.37     17.01  21504.24     -0.00      1.26      7.00  18068.65 
   332.38     17.01  21506.71      0.00      8.53      0.00  18068.65 
   332.39     17.02  21493.23      0.01     -4.95      0.00  18061.48 
   332.40     17.01  21504.24     -0.00     11.01      0.00  18068.65 
   332.41     17.01  21498.18     -0.00      2.47      7.00  18061.48 
   332.42     17.02  21502.98      0.01      4.80      0.00  18069.68 
   332.43     17.01  21506.71      0.00     -1.22      0.00  18068.65 
   332.44     17.01  21498.18      0.00      0.00      0.00  18061.48 
   332.45     17.02  21502.98      0.00      7.27      0.00  18069.68 
   332.46     17.01  21506.71     -0.01     15.96      0.00  18068.65 
   332.47     17.00  21500.66     -0.01     17.17      0.00  18061.48 
   332.48     17.01  21507.93     -0.01     17.17      0.00  18069.68 
   332.49     17.00  21511.67     -0.02      9.91      0.00  18068.65 
   332.50     17.01  21498.18      0.00      0.00      0.00  18061.48 
   332.51     17.02  21502.98     -0.00     12.22      0.00  18069.68 
   332.52     17.01  21504.24      0.00      8.53      0.00  18068.65 
   332.53     17.02  21490.76      0.01    -14.70      0.00  18061.48 
   332.54     17.02  21493.23      0.00     -2.47      0.00  18061.48 
   332.55     17.02  21493.23      0.01     -4.95      0.00  18061.48 
   332.56     17.02  21502.98      0.00      7.27      0.00  18069.68 
   332.57     17.01  21504.24      0.00      0.00      0.00  18068.65 
   332.58     17.02  21493.23      0.00      0.00      0.00  18061.48 
   332.59     17.01  21504.24      0.00      8.53      0.00  18068.65 
   332.60     17.02  21502.98      0.01     -3.73      0.00  18069.68 
   332.61     17.02  21493.23      0.00     -2.47      0.00  18061.48 
   332.62     17.01  21506.71      0.00      8.53      0.00  18068.65 
   332.63     17.01  21505.45      0.00      7.28      0.00  18069.68 
   332.64     17.00  21500.66     -0.01     -3.58      0.00  18061.48 
   332.65     17.00  21511.67     -0.01     13.49      0.00  18068.65 
   332.66     17.00  21510.41     -0.00      2.48      0.00  18069.68 
   332.67     16.99  21514.14     -0.02     18.44      0.00  18068.65 
   332.68     17.00  21503.13     -0.01      7.43      0.00  18061.48 
   332.69     17.01  21506.71     -0.00      2.48      0.00  18068.65 
   332.70     17.00  21509.19     -0.01     13.48      0.00  18068.65 
   332.71     17.02  21493.23      0.00     -2.47      0.00  18061.48 
   332.72     17.01  21506.71     -0.01      3.73      0.00  18068.65 
   332.73     17.01  21505.45      0.00      9.75      8.00  18069.68 
   332.74     17.02  21501.76      0.00     19.50      0.00  18068.65 
   332.75     17.01  21495.70      0.00    -11.01      0.00  18061.48 
   332.76     17.02  21500.50      0.02     -0.15      0.00  18069.68 
   332.77     17.02  21501.76      0.01     -4.95      0.00  18068.65 
   332.78     17.02  21493.23      0.01     -7.42      0.00  18061.48 
   332.79     17.01  21504.24      0.00      8.53      0.00  18068.65 
   332.80     17.01  21495.70     -0.01     -4.80      8.00  18061.48 
   332.81     17.01  21498.18     -0.01      7.42      0.00  18061.48 
   332.82     17.01  21507.93     -0.01      7.43      0.00  18069.68 
   332.83     17.01  21506.71     -0.00     11.01      0.00  18068.65 
   332.84     17.01  21495.70      0.01    -13.48      0.00  18061.48 
   332.85     17.01  21506.71      0.00      6.06      0.00  18068.65 
   332.86     17.01  21505.45      0.01      4.80      0.00  18069.68 
   332.87     17.01  21506.71     -0.01      3.73      7.00  18068.65 
   332.88     17.01  21498.18      0.00      0.00      8.00  18061.48 
