#Written by Robertson Geologging WinLogger V1.0/311
~VERSION INFORMATION
#------------------------------------------------------------------------------
 VERS. 2.0 : CWLS LOG ASCII STANDARD - VERSION 2.0
 WRAP. NO  : ONE LINE PER DEPTH STEP
~WELL INFORMATION
#MNEM.UNIT         DATA                                DESCRIPTION OF MNEMONIC
#------------------------------------------------------------------------------
 STRT.M        146.1000                            :   START DEPTH
 STOP.M        425.1000                            :   STOP DEPTH
 STEP.M          0.1000                            :   STEP VALUE
 NULL.        -999.2500                            :   NULL VALUE
 COMP.    IMC                                      :   COMPANY NAME
 WELL.    HAWTHORN SHAFT                           :   WELL NAME
 FLD.     HAWTHORN                                 :   FIELD NAME
 LOC.     N/A                                      :   LOCATION
 PROV.    N/A                                      :   PROVINCE
 SRVC.    N/A                                      :   SERVICE COMPANY NAME
 DATE.    03 Oct 03                                :   DATE
 UWI.     N/A                                      :   UNIQUE WELL IDENTIFIER
~PARAMETER INFORMATION
#MNEMO.UNIT         VALUE                 DESCRIPTION OF MNEMONIC
#------------------------------------------------------------------------------
~OTHER INFORMATION SECTION
#------------------------------------------------------------------------------
 TCDS 2822
~CURVE INFORMATION
#MNEMO.UNIT         API CODE              CURVE DESCRIPTION
#------------------------------------------------------------------------------
 DEPTH.M                                 :   0     Depth
 TEMP.DegC                               :   1     Temperature
 COND.uS/cm                              :   2     Conductivity
 DELT.DegC                               :   3     Delta T
 DELC.uS/cm                              :   4     Delta C
 NGAM.API                                :   5     Natural Gamma
#------------------------------------------------------------------------------
~A  DEPTH     TEMP      COND      DELT      DELC      NGAM      
# ...
   198.90     11.86    667.10      0.01     -0.00      2.53 
   199.00     11.85    667.10     -0.01      0.00      3.00 
   199.10     11.86    667.10     -0.01      0.16      5.12 
   199.20     11.85    667.10     -0.02      0.00      4.24 
   199.30     11.86    667.10     -0.00      0.08      3.71 
   199.40     11.85    667.10     -0.01      0.00      4.12 
   199.50     11.86    667.10     -0.00      0.16      2.12 
   199.60     11.86    667.10      0.01      0.16      2.06 
   199.70     11.86    667.02      0.00     -0.08      1.24 
   199.80     11.86    666.70      0.00     -0.40      3.35 
   199.90     11.86    666.37     -0.00     -0.73      3.76 
   200.00     11.85    667.02      0.00      0.48      4.12 
   200.10     11.85    667.10     -0.00      0.48      3.71 
   200.20     11.86    667.18      0.01      0.65      2.06 
   200.30     11.86    667.02      0.00      0.48      1.65 
   200.40     11.86    667.18      0.01      0.65      2.71 
   200.50     11.86    666.86      0.00      0.32      2.94 
   200.60     11.85    667.02     -0.01      0.48      5.41 
   200.70     11.86    667.10      0.00      0.08      4.18 
   200.80     11.86    666.86     -0.00      0.08      4.24 
   200.90     11.86    667.58      0.00      0.48      5.47 
   201.00     11.86    667.58      0.01      0.57      5.47 
   201.10     11.86    667.02      0.00      0.48      1.24 
   201.20     11.86    667.02     -0.00      0.57      2.47 
   201.30     11.86    667.10     -0.00      0.65      2.94 
   201.40     11.86    666.62      0.00      0.16      2.94 
   201.50     11.86    667.10      0.01      0.81      2.47 
   201.60     11.86    667.18      0.01      0.65      2.59 
   201.70     11.85    667.58     -0.01      1.05      3.06 
   201.80     11.86    666.94      0.00      0.08      4.29 
   201.90     11.85    667.10     -0.01     -0.48      2.06 
   202.00     11.86    666.94     -0.01     -0.57      2.06 
   202.10     11.86    667.58      0.00      0.57      3.71 
   202.20     11.87    667.10      0.01      0.08      4.12 
   202.30     11.86    666.94     -0.01     -0.16      2.88 
   202.40     11.85    667.50     -0.01      0.40      1.65 
   202.50     11.86    667.18     -0.00      0.08      2.94 
   202.60     11.86    667.10     -0.00     -0.00      5.06 
   202.70     11.85    667.10     -0.00      0.08      5.24 
   202.80     11.86    667.02     -0.00     -0.00      4.53 
   202.90     11.86    667.02      0.01      0.08      3.35 
   203.00     11.87    666.86      0.01     -0.08      3.35 
   203.10     11.86    667.02      0.00     -0.08      6.71 
   203.20     11.86    666.53     -0.00      0.00      5.53 
   203.30     11.86    666.53      0.01     -0.40      3.82 
   203.40     11.86    667.02      0.01     -0.00      3.76 
   203.50     11.86    666.94     -0.00      0.32      4.12 
   203.60     11.85    667.02     -0.01     -0.08      4.12 
   203.70     11.85    666.45      0.00     -0.65      5.76 
   203.80     11.86    667.02     -0.00     -0.00      4.18 
   203.90     11.86    667.10     -0.00      0.08      2.53 
   204.00     11.86    667.10     -0.01      0.16      1.24 
   204.10     11.86    667.02     -0.01     -0.00      0.82 
   204.20     11.86    667.02      0.00     -0.08      2.47 
   204.30     11.86    667.10     -0.01      0.00      2.88 
   204.40     11.86    667.02     -0.01      0.00      3.88 
   204.50     11.86    667.02      0.01      0.08      3.88 
   204.60     11.86    666.45      0.01     -0.57      3.53 
   204.70     11.86    667.02      0.00     -0.00      3.76 
   204.80     11.86    666.94      0.00     -0.08      2.53 
   204.90     11.87    667.50      0.01     -0.16      2.47 
   205.00     11.86    667.02      0.00     -0.08      3.35 
   205.10     11.86    667.18      0.00      0.16      3.76 
   205.20     11.86    667.10     -0.00      0.08      3.82 
   205.30     11.86    667.18      0.01      0.08      4.24 
   205.40     11.86    667.02      0.00      0.00      3.29 
   205.50     11.87    666.53      0.01     -0.48      2.94 
   205.60     11.85    667.02     -0.01     -0.00      1.71 
   205.70     11.87    667.02      0.01      0.00      3.00 
   205.80     11.86    667.02     -0.00      0.00      3.41 
   205.90     11.86    667.50     -0.01      0.48      5.41 
   206.00     11.85    667.02     -0.01      0.48      2.88 
   206.10     11.86    667.02     -0.00     -0.08      1.29 
   206.20     11.86    667.02      0.01     -0.08      2.59 
   206.30     11.85    667.10     -0.01      0.00      5.18 
   206.40     11.86    667.10      0.01      0.08      4.71 
   206.50     11.87    667.02     -0.00      0.00      3.41 
   206.60     11.87    666.45      0.01     -0.57      3.29 
   206.70     11.86    666.29     -0.01     -0.24      2.47 
   206.80     11.87    666.94      0.01     -0.08      2.88 
   206.90     11.87    666.94      0.00     -0.08      3.71 
   207.00     11.86    666.45      0.02     -0.57      2.59 
   207.10     11.86    667.10      0.00      0.08      5.59 
   207.20     11.85    666.94     -0.01     -0.08      4.71 
   207.30     11.85    667.58     -0.00      1.05      3.88 
   207.40     11.86    666.86     -0.00     -0.24      2.53 
   207.50     11.87    666.53      0.00     -0.57      1.82 
   207.60     11.88    667.10      0.01      0.08      2.29 
   207.70     11.87    667.58      0.01      0.57      4.29 
   207.80     11.86    667.02     -0.01      0.08      3.41 
   207.90     11.86    667.02     -0.00     -0.00      2.18 
   208.00     11.86    667.58     -0.00      0.65      2.65 
   208.10     11.87    667.02      0.01      0.08      4.29 
   208.20     11.87    667.10      0.02      0.16      4.76 
   208.30     11.87    667.58      0.02      0.65      3.94 
   208.40     11.86    667.10     -0.00      0.24      2.59 
   208.50     11.86    667.50     -0.01      0.40      2.94 
   208.60     11.86    667.02     -0.02     -0.65      3.29 
   208.70     11.86    667.58     -0.02      0.65      2.53 
   208.80     11.85    667.10     -0.01      0.16      3.47 
   208.90     11.87    667.10      0.00     -0.48      3.00 
   209.00     11.87    667.10      0.01     -0.00      2.06 
   209.10     11.86    667.18     -0.01      0.24      2.06 
   209.20     11.87    667.10     -0.00     -0.48      2.94 
   209.30     11.86    666.94     -0.01     -0.08      4.18 
   209.40     11.86    667.50      0.00      0.40      5.06 
   209.50     11.86    667.10     -0.00      0.16      4.35 
   209.60     11.85    667.02     -0.00      0.00      4.06 
   209.70     11.86    667.02      0.01     -0.08      4.41 
   209.80     11.86    667.02      0.01     -0.00      5.24 
   209.90     11.87    667.02      0.00     -0.08      2.53 
   210.00     11.86    667.10     -0.02     -0.57      3.35 
   210.10     11.86    666.62     -0.01     -0.48      3.47 
   210.20     11.87    666.53     -0.00     -0.40      3.00 
   210.30     11.87    667.10      0.01      0.16      2.94 
   210.40     11.86    667.02     -0.00     -0.00      4.29 
   210.50     11.86    667.10      0.01      0.00      5.18 
   210.60     11.87    667.10      0.01      0.08      2.65 
   210.70     11.87    667.50      0.01      0.00      2.18 
   210.80     11.87    667.02      0.00      0.08      2.18 
   210.90     11.86    667.02     -0.01      0.00      3.76 
   211.00     11.86    667.02      0.01     -0.08      3.76 
   211.10     11.86    667.02      0.01     -0.16      3.29 
   211.20     11.87    667.67      0.01      1.13      5.76 
   211.30     11.87    667.10     -0.00      0.57      3.71 
   211.40     11.86    667.18      0.01      0.16      4.24 
   211.50     11.87    667.10      0.01      0.00      3.82 
   211.60     11.87    667.10      0.01     -0.48      2.12 
   211.70     11.88    667.10      0.01      0.16      3.94 
   211.80     11.87    667.50      0.01      0.40      4.35 
   211.90     11.87    666.94      0.01     -0.00      1.65 
   212.00     11.86    666.94     -0.00     -0.65      1.29 
