#Written by Robertson Geologging WinLogger V1.0/406
~VERSION INFORMATION
#------------------------------------------------------------------------------
 VERS. 2.0 : CWLS LOG ASCII STANDARD - VERSION 2.0
 WRAP. NO  : ONE LINE PER DEPTH STEP
~WELL INFORMATION
#MNEM.UNIT         DATA                                DESCRIPTION OF MNEMONIC
#------------------------------------------------------------------------------
 STRT.M        115.9300                            :   START DEPTH
 STOP.M        440.0000                            :   STOP DEPTH
 STEP.M          0.0100                            :   STEP VALUE
 NULL.        -999.2500                            :   NULL VALUE
 COMP.    Coal Authority                           :   COMPANY NAME
 WELL.    Hawthorn Shaft                           :   WELL NAME
 FLD.     Hawthorn                                 :   FIELD NAME
 LOC.     N/A                                      :   LOCATION
 PROV.    N/A                                      :   PROVINCE
 SRVC.    N/A                                      :   SERVICE COMPANY NAME
 DATE.    28 Aug 08                                :   DATE
 UWI.     N/A                                      :   UNIQUE WELL IDENTIFIER
~PARAMETER INFORMATION
#MNEMO.UNIT         VALUE                 DESCRIPTION OF MNEMONIC
#------------------------------------------------------------------------------
~OTHER INFORMATION SECTION
#------------------------------------------------------------------------------
 TCGS 1365
 Logged in low conductivity mode as starting readings were so low.
~CURVE INFORMATION
#MNEMO.UNIT         API CODE              CURVE DESCRIPTION
#------------------------------------------------------------------------------
 DEPTH.M                                 :   0     Depth
 TEMP.DegC                               :   1     Temperature
 CN25.uS/cm                              :   2     Conductivity@25DegC
 DELT.DegC                               :   3     Delta T
 DELC.uS/cm                              :   4     Delta C
 NGAM.CPS                                :   5     Natural Gamma
 COND.uS/cm                              :   6     Conductivity
#------------------------------------------------------------------------------
~A  DEPTH     TEMP      CN25      DELT      DELC      NGAM      COND      
# ...
   310.29     16.98  20910.31      0.01     -4.82      0.00  17557.45 
   310.30     16.98  20913.94      0.00     -2.41      0.00  17558.47 
   310.31     16.98  20915.13     -0.00      2.41      0.00  17557.45 
   310.32     16.99  20909.12      0.01    -14.52      0.00  17558.47 
   310.33     16.99  20907.91      0.01     -8.44      0.00  17557.45 
   310.34     16.99  20916.41      0.01      1.28      0.00  17564.60 
   310.35     16.99  20909.12      0.01     -7.23      0.00  17558.47 
   310.36     16.98  20912.72      0.00      0.00      0.00  17557.45 
   310.37     16.98  20910.31      0.00     -2.41      0.00  17557.45 
   310.38     16.98  20911.53      0.00      0.00      0.00  17558.47 
   310.39     16.98  20912.72      0.00      0.00      0.00  17557.45 
   310.40     16.98  20918.82      0.01      1.28      0.00  17564.60 
   310.41     16.98  20911.53      0.01      4.91      0.00  17558.47 
   310.42     16.98  20910.31      0.01     -7.23      0.00  17557.45 
   310.43     16.99  20909.12      0.01    -14.52      0.00  17558.47 
   310.44     16.99  20907.91      0.00     -1.22      0.00  17557.45 
   310.45     16.98  20915.13     -0.01      4.82      0.00  17557.45 
   310.46     16.98  20913.94     -0.02      9.63      0.00  17558.47 
   310.47     16.97  20926.06     -0.02     18.15      7.00  17564.60 
   310.48     16.97  20918.76     -0.00      3.63      0.00  17558.47 
   310.49     16.97  20917.54     -0.01      3.60      0.00  17557.45 
   310.50     16.98  20915.13      0.00     -2.41      0.00  17557.45 
   310.51     16.98  20904.21      0.00     -8.51      0.00  17550.31 
   310.52     16.98  20912.72     -0.00      1.19      0.00  17557.45 
   310.53     16.99  20906.71      0.02     -8.42      0.00  17558.47 
   310.54     16.99  20916.41      0.00     -4.84      0.00  17564.60 
   310.55     16.99  20909.12      0.02     -8.42      0.00  17558.47 
   310.56     16.99  20907.91      0.01     -6.03      0.00  17557.45 
   310.57     16.98  20912.72      0.00     -2.41      0.00  17557.45 
   310.58     16.99  20906.71      0.02     -9.64      0.00  17558.47 
   310.59     16.99  20905.50      0.01     -7.23      0.00  17557.45 
   310.60     16.99  20909.12      0.01     -7.23      0.00  17558.47 
   310.61     16.99  20907.91      0.01     -7.23      0.00  17557.45 
   310.62     16.98  20923.64      0.00      4.88      0.00  17564.60 
   310.63     16.98  20913.94      0.01     -6.02      0.00  17558.47 
   310.64     16.98  20910.31      0.01     -8.45      0.00  17557.45 
   310.65     16.99  20909.12      0.01     -3.60      0.00  17558.47 
   310.66     16.99  20907.91      0.00     -3.62      0.00  17557.45 
   310.67     16.98  20911.53      0.00      1.22      0.00  17558.47 
   310.68     16.98  20923.64     -0.01     12.11      0.00  17564.60 
   310.69     16.98  20916.35     -0.01      6.04      0.00  17558.47 
   310.70     16.98  20915.13     -0.00      1.19      0.00  17557.45 
   310.71     16.98  20916.35     -0.00      3.63      0.00  17558.47 
   310.72     16.98  20912.72     -0.00      1.19      7.00  17557.45 
   310.73     16.98  20916.35      0.00      1.22      0.00  17558.47 
   310.74     16.98  20915.13      0.00     -1.22      0.00  17557.45 
   310.75     16.98  20926.08      0.00     10.94      0.00  17566.64 
   310.76     16.98  20915.13      0.01     -6.04      0.00  17557.45 
   310.77     16.98  20916.35      0.00     -1.19      0.00  17558.47 
   310.78     16.97  20909.03     -0.01     -4.91      0.00  17550.31 
   310.79     16.98  20913.94     -0.00      3.63      0.00  17558.47 
   310.80     16.98  20912.72     -0.00      1.19      0.00  17557.45 
   310.81     16.98  20913.94     -0.00      3.63      0.00  17558.47 
   310.82     16.98  20921.23     -0.00      9.70      0.00  17564.60 
   310.83     16.98  20911.53      0.00     -7.29      0.00  17558.47 
   310.84     16.99  20907.91      0.01     -6.03      0.00  17557.45 
   310.85     17.00  20904.30      0.02     -8.42      0.00  17558.47 
   310.86     17.00  20903.09      0.02     -9.63      7.00  17557.45 
   310.87     16.99  20906.71      0.01     -7.23      0.00  17558.47 
   310.88     16.99  20914.00      0.01      1.28      0.00  17564.60 
   310.89     16.98  20911.53      0.00     -1.19      8.00  17558.47 
   310.90     16.98  20912.72      0.00     -1.22      0.00  17557.45 
   310.91     16.98  20911.53      0.01     -6.01      0.00  17558.47 
   310.92     16.98  20912.72      0.01    -15.74      0.00  17557.45 
   310.93     16.98  20913.94      0.01     -4.82      0.00  17558.47 
   310.94     16.98  20921.23      0.01      3.69      0.00  17564.60 
   310.95     16.98  20915.13      0.00      0.00      0.00  17557.45 
   310.96     16.98  20916.35     -0.01     14.54      0.00  17558.47 
   310.97     16.97  20917.54     -0.01      7.23      0.00  17557.45 
   310.98     16.98  20916.35     -0.00      3.63      0.00  17558.47 
   310.99     16.98  20912.72     -0.01      3.60      0.00  17557.45 
   311.00     16.98  20921.23     -0.00      2.41      7.00  17564.60 
   311.01     16.99  20909.12      0.00     -1.19      0.00  17558.47 
   311.02     16.98  20912.72     -0.00      1.19      0.00  17557.45 
   311.03     16.98  20915.13     -0.00      2.41      0.00  17557.45 
   311.04     16.97  20918.76     -0.01      8.45      0.00  17558.47 
   311.05     16.97  20917.54     -0.01      6.01      7.00  17557.45 
   311.06     16.96  20922.37     -0.02     12.05      0.00  17557.45 
   311.07     16.97  20918.76     -0.02     10.85      0.00  17558.47 
   311.08     16.98  20915.13     -0.01      6.01      0.00  17557.45 
   311.09     16.98  20915.13     -0.01     -3.69      7.00  17557.45 
   311.10     16.99  20906.71      0.01     -7.23      0.00  17558.47 
   311.11     16.99  20916.41      0.02     -1.13      0.00  17564.60 
   311.12     16.98  20910.31      0.01     -8.45      0.00  17557.45 
   311.13     16.98  20911.53      0.01     -3.60      0.00  17558.47 
   311.14     16.98  20912.72      0.00     -1.22      0.00  17557.45 
   311.15     16.98  20923.64     -0.01     15.74      0.00  17564.60 
   311.16     16.98  20913.94     -0.01      7.23      0.00  17558.47 
   311.17     16.98  20915.13     -0.02      9.64      0.00  17557.45 
   311.18     16.98  20912.72     -0.01     -3.71      0.00  17557.45 
   311.19     16.98  20911.53     -0.01      6.03      0.00  17558.47 
   311.20     16.98  20921.23     -0.00      9.70      0.00  17564.60 
   311.21     16.98  20913.94     -0.00      3.63      0.00  17558.47 
   311.22     16.97  20917.54     -0.01      6.01      0.00  17557.45 
   311.23     16.98  20916.35     -0.00     12.13      0.00  17558.47 
   311.24     16.98  20918.82      0.00      7.29      0.00  17564.60 
   311.25     16.98  20911.53      0.00      1.22      0.00  17558.47 
   311.26     16.99  20907.91      0.00     -1.22      0.00  17557.45 
   311.27     16.98  20913.94     -0.00     -4.88      0.00  17558.47 
   311.28     16.97  20917.54     -0.01      7.23      0.00  17557.45 
   311.29     16.97  20928.49     -0.01     14.55      0.00  17566.64 
   311.30     16.98  20915.13      0.00      0.00      0.00  17557.45 
   311.31     16.98  20913.94     -0.01      4.82      0.00  17558.47 
   311.32     16.98  20901.81     -0.00     -6.10      0.00  17550.31 
   311.33     16.98  20913.94     -0.01     -2.47      0.00  17558.47 
   311.34     16.98  20923.64     -0.01     14.52      0.00  17564.60 
   311.35     16.98  20911.53      0.00     -1.19      0.00  17558.47 
   311.36     16.98  20910.31      0.00      0.00      0.00  17557.45 
   311.37     16.98  20912.72     -0.00      1.19      0.00  17557.45 
   311.38     16.99  20916.43      0.01      3.71      0.00  17566.64 
   311.39     16.98  20915.13     -0.01     -3.69      0.00  17557.45 
   311.40     16.98  20912.72     -0.00      1.19      0.00  17557.45 
   311.41     16.98  20911.53      0.00      1.22      0.00  17558.47 
