#Written by Robertson Geologging WinLogger V1.0/311
~VERSION INFORMATION
#------------------------------------------------------------------------------
 VERS. 2.0 : CWLS LOG ASCII STANDARD - VERSION 2.0
 WRAP. NO  : ONE LINE PER DEPTH STEP
~WELL INFORMATION
#MNEM.UNIT         DATA                                DESCRIPTION OF MNEMONIC
#------------------------------------------------------------------------------
 STRT.M        146.1000                            :   START DEPTH
 STOP.M        425.1000                            :   STOP DEPTH
 STEP.M          0.1000                            :   STEP VALUE
 NULL.        -999.2500                            :   NULL VALUE
 COMP.    IMC                                      :   COMPANY NAME
 WELL.    HAWTHORN SHAFT                           :   WELL NAME
 FLD.     HAWTHORN                                 :   FIELD NAME
 LOC.     N/A                                      :   LOCATION
 PROV.    N/A                                      :   PROVINCE
 SRVC.    N/A                                      :   SERVICE COMPANY NAME
 DATE.    03 Oct 03                                :   DATE
 UWI.     N/A                                      :   UNIQUE WELL IDENTIFIER
~PARAMETER INFORMATION
#MNEMO.UNIT         VALUE                 DESCRIPTION OF MNEMONIC
#------------------------------------------------------------------------------
~OTHER INFORMATION SECTION
#------------------------------------------------------------------------------
 TCDS 2822
~CURVE INFORMATION
#MNEMO.UNIT         API CODE              CURVE DESCRIPTION
#------------------------------------------------------------------------------
 DEPTH.M                                 :   0     Depth
 TEMP.DegC                               :   1     Temperature
 COND.uS/cm                              :   2     Conductivity
 DELT.DegC                               :   3     Delta T
 DELC.uS/cm                              :   4     Delta C
 NGAM.API                                :   5     Natural Gamma
#------------------------------------------------------------------------------
~A  DEPTH     TEMP      COND      DELT      DELC      NGAM      
# ...
   185.70     11.84    666.45      0.01      0.08      1.29 
   185.80     11.85    666.37     -0.00      0.08      1.24 
   185.90     11.86    667.02      0.02      0.65      2.47 
   186.00     11.85    666.37     -0.01     -0.16      4.65 
   186.10     11.85    666.29     -0.01     -0.32      4.94 
   186.20     11.84    666.53     -0.01      0.48      4.94 
   186.30     11.86    666.05      0.00     -0.48      2.47 
   186.40     11.84    666.53     -0.02     -0.08      2.06 
   186.50     11.85    666.62      0.01     -0.40      3.76 
   186.60     11.86    665.97      0.01     -0.89      5.06 
   186.70     11.86    665.97      0.01     -1.05      3.41 
   186.80     11.85    666.29      0.00     -0.65      2.24 
   186.90     11.86    666.45     -0.00     -0.08      2.12 
   187.00     11.85    665.89      0.00     -0.48      3.71 
   187.10     11.86    666.53      0.02     -0.40      3.35 
   187.20     11.86    666.53      0.01      0.00      3.82 
   187.30     11.85    666.29     -0.01     -0.24      2.94 
   187.40     11.84    666.53     -0.00      0.00      2.53 
   187.50     11.84    666.53     -0.01     -0.08      3.00 
   187.60     11.85    666.53     -0.01      0.08      2.53 
   187.70     11.85    666.62     -0.00      0.16      2.53 
   187.80     11.85    666.45     -0.01      0.16      1.71 
   187.90     11.85    666.53     -0.01      0.16      2.59 
   188.00     11.86    666.53      0.01      0.08      2.53 
   188.10     11.85    666.29     -0.01     -0.24      3.82 
   188.20     11.84    667.10     -0.01      0.57      3.41 
   188.30     11.85    666.53      0.00      0.24      4.82 
   188.40     11.85    666.45      0.01     -0.08      6.18 
   188.50     11.85    667.10      0.01      0.57      4.71 
   188.60     11.85    666.29      0.00     -0.32      3.71 
   188.70     11.85    666.53     -0.01      0.08      3.00 
   188.80     11.86    666.53      0.01      0.08      3.00 
   188.90     11.84    667.10     -0.01      0.57      2.06 
   189.00     11.84    667.02     -0.02      0.48      2.06 
   189.10     11.86    666.53      0.01     -0.32      5.00 
   189.20     11.85    666.45      0.00     -0.08      3.53 
   189.30     11.86    667.02      0.00      0.48      2.71 
   189.40     11.85    667.02     -0.00      0.57      3.35 
   189.50     11.85    666.37     -0.00      0.00      3.88 
   189.60     11.86    667.10      0.01      0.81      5.24 
   189.70     11.86    666.94      0.01     -0.16      3.47 
   189.80     11.85    666.86     -0.00     -0.24      2.24 
   189.90     11.85    666.94      0.01     -0.24      2.94 
   190.00     11.84    666.53     -0.00      0.08      2.06 
   190.10     11.86    667.10      0.00      0.57      2.47 
   190.20     11.86    666.45      0.01      0.00      5.35 
   190.30     11.86    666.45     -0.00      0.00      2.88 
   190.40     11.86    666.53      0.01     -0.00      3.94 
   190.50     11.85    666.37     -0.00     -0.08      5.18 
   190.60     11.85    666.94     -0.01      0.48      3.41 
   190.70     11.87    665.73      0.01     -0.65      4.24 
   190.80     11.86    666.45      0.01      0.16      5.12 
   190.90     11.85    666.53      0.00      0.16      2.24 
   191.00     11.85    666.94      0.00      0.89      3.35 
   191.10     11.85    666.37     -0.01     -0.16      3.76 
   191.20     11.85    666.45     -0.01     -0.08      2.94 
   191.30     11.84    666.62     -0.01      0.16      3.41 
   191.40     11.85    667.18      0.00      0.57      3.06 
   191.50     11.84    667.02     -0.01      0.65      0.82 
   191.60     11.85    667.10     -0.01      1.29      1.76 
   191.70     11.86    667.10     -0.01      1.86      3.00 
   191.80     11.85    666.94     -0.00      0.48      3.76 
   191.90     11.85    666.37      0.00     -0.65      5.00 
   192.00     11.85    666.53      0.01      0.16      4.65 
   192.10     11.85    666.45     -0.01      0.08      2.65 
   192.20     11.86    666.45      0.01     -0.57      2.12 
   192.30     11.86    666.37      0.01     -0.24      2.06 
   192.40     11.85    666.37     -0.01     -0.24      2.47 
   192.50     11.86    666.62      0.02      0.16      3.35 
   192.60     11.86    667.10      0.02      0.48      3.35 
   192.70     11.86    666.45     -0.00     -0.08      1.71 
   192.80     11.85    666.53     -0.01      0.16      1.29 
   192.90     11.85    666.53     -0.00      0.08      2.06 
   193.00     11.85    666.45     -0.00     -0.57      1.24 
   193.10     11.85    666.94     -0.00      0.48      3.35 
   193.20     11.85    667.10     -0.01      0.57      2.59 
   193.30     11.86    667.02      0.00      0.08      3.47 
   193.40     11.85    667.10      0.01      0.00      3.06 
   193.50     11.86    667.02     -0.00     -0.16      4.24 
   193.60     11.85    666.94     -0.01      0.57      6.29 
   193.70     11.85    666.29     -0.00     -0.16      3.29 
   193.80     11.85    666.53      0.01     -0.57      3.35 
   193.90     11.85    667.02     -0.00     -0.08      4.24 
   194.00     11.86    666.53      0.00     -0.40      3.35 
   194.10     11.85    666.62      0.01     -0.32      2.06 
   194.20     11.86    666.53      0.00      0.00      1.24 
   194.30     11.85    667.02     -0.01      0.57      4.12 
   194.40     11.85    666.53     -0.00      0.00      3.76 
   194.50     11.85    666.53     -0.01     -0.00      3.00 
   194.60     11.85    667.10     -0.00      0.73      5.18 
   194.70     11.86    666.37      0.01     -0.00      3.88 
   194.80     11.86    666.45      0.01     -0.65      1.65 
   194.90     11.85    666.29     -0.00     -0.24      2.88 
   195.00     11.86    667.10      0.00      0.57      4.18 
   195.10     11.86    666.45      0.01     -0.65      5.00 
   195.20     11.86    665.97      0.01     -1.05      4.18 
   195.30     11.86    666.53      0.01      0.08      3.47 
   195.40     11.86    666.53      0.01     -0.00      4.18 
   195.50     11.86    666.53      0.01     -0.48      2.88 
   195.60     11.86    666.53      0.01      0.16      1.76 
   195.70     11.87    666.94      0.01      0.57      2.59 
   195.80     11.86    666.45     -0.00     -0.57      2.94 
   195.90     11.86    666.45      0.01     -0.40      3.76 
   196.00     11.86    667.02     -0.00      0.48      2.94 
   196.10     11.85    667.02     -0.01      0.48      2.94 
   196.20     11.86    666.94     -0.00      0.48      2.06 
   196.30     11.86    666.62      0.01     -0.48      5.41 
   196.40     11.86    666.62     -0.00      0.00      4.59 
   196.50     11.87    666.53      0.01     -0.57      2.18 
   196.60     11.86    667.10     -0.00      0.73      3.06 
   196.70     11.86    667.10     -0.01      0.73      2.53 
   196.80     11.87    667.02      0.01      0.57      1.65 
   196.90     11.86    666.45     -0.00     -0.57      2.06 
   197.00     11.86    666.37     -0.00     -0.65      4.24 
   197.10     11.86    666.53      0.01     -0.48      2.18 
   197.20     11.86    666.45     -0.00      0.08      2.53 
   197.30     11.86    666.45     -0.00     -0.16      2.47 
   197.40     11.85    667.02     -0.01     -0.16      2.47 
   197.50     11.85    667.10     -0.02      0.57      1.24 
   197.60     11.86    666.62     -0.01      0.08      2.88 
   197.70     11.85    666.53     -0.01      0.00      1.65 
   197.80     11.87    666.45     -0.00     -0.57      1.65 
   197.90     11.86    666.53      0.00     -0.40      2.47 
   198.00     11.87    666.53      0.01     -0.40      1.65 
   198.10     11.87    666.94      0.01     -0.16      1.24 
   198.20     11.87    667.02      0.01      0.48      1.71 
   198.30     11.87    666.94      0.00     -0.00      3.88 
   198.40     11.86    667.18      0.01      0.16      4.71 
   198.50     11.86    666.94      0.01      0.32      3.35 
   198.60     11.86    666.94     -0.00      0.40      3.29 
   198.70     11.86    667.02      0.00     -0.08      4.76 
   198.80     11.86    666.62     -0.01     -0.40      5.12 
