#Written by Robertson Geologging WinLogger V1.0/311
~VERSION INFORMATION
#------------------------------------------------------------------------------
 VERS. 2.0 : CWLS LOG ASCII STANDARD - VERSION 2.0
 WRAP. NO  : ONE LINE PER DEPTH STEP
~WELL INFORMATION
#MNEM.UNIT         DATA                                DESCRIPTION OF MNEMONIC
#------------------------------------------------------------------------------
 STRT.M        146.1000                            :   START DEPTH
 STOP.M        425.1000                            :   STOP DEPTH
 STEP.M          0.1000                            :   STEP VALUE
 NULL.        -999.2500                            :   NULL VALUE
 COMP.    IMC                                      :   COMPANY NAME
 WELL.    HAWTHORN SHAFT                           :   WELL NAME
 FLD.     HAWTHORN                                 :   FIELD NAME
 LOC.     N/A                                      :   LOCATION
 PROV.    N/A                                      :   PROVINCE
 SRVC.    N/A                                      :   SERVICE COMPANY NAME
 DATE.    03 Oct 03                                :   DATE
 UWI.     N/A                                      :   UNIQUE WELL IDENTIFIER
~PARAMETER INFORMATION
#MNEMO.UNIT         VALUE                 DESCRIPTION OF MNEMONIC
#------------------------------------------------------------------------------
~OTHER INFORMATION SECTION
#------------------------------------------------------------------------------
 TCDS 2822
~CURVE INFORMATION
#MNEMO.UNIT         API CODE              CURVE DESCRIPTION
#------------------------------------------------------------------------------
 DEPTH.M                                 :   0     Depth
 TEMP.DegC                               :   1     Temperature
 COND.uS/cm                              :   2     Conductivity
 DELT.DegC                               :   3     Delta T
 DELC.uS/cm                              :   4     Delta C
 NGAM.API                                :   5     Natural Gamma
#------------------------------------------------------------------------------
~A  DEPTH     TEMP      COND      DELT      DELC      NGAM      
# ...
   304.50     17.41  49211.53     -0.00     -1.30      1.65 
   304.60     17.40  49210.56     -0.01     -3.24      1.94 
   304.70     17.42  49210.23      0.00     -2.81      1.65 
   304.80     17.43  49207.20      0.02     -6.49      2.76 
   304.90     17.40  49204.93     -0.01     -7.68      4.82 
   305.00     17.42  49204.07      0.00     -9.52      5.88 
   305.10     17.42  49203.31      0.00    -10.27      3.53 
   305.20     17.41  49201.26      0.00    -12.33      2.41 
   305.30     17.42  49199.63      0.01    -14.06      2.82 
   305.40     17.41  49196.61     -0.01    -15.68      2.76 
   305.50     17.41  49194.87      0.00    -16.44      1.12 
   305.60     17.41  49192.71      0.01    -17.84      2.71 
   305.70     17.41  49189.36     -0.01    -20.12      5.65 
   305.80     17.41  49187.74     -0.02    -18.71      3.94 
   305.90     17.40  49186.12      0.01    -18.82      3.06 
   306.00     17.40  49184.39     -0.02    -19.68      3.12 
   306.10     17.42  49183.20      0.01    -19.47      3.29 
   306.20     17.41  49181.25      0.00    -19.90      3.24 
   306.30     17.42  49181.36     -0.00    -19.14      2.71 
   306.40     17.42  49179.63      0.01    -17.74      3.18 
   306.50     17.41  49180.49      0.00    -13.52      4.06 
   306.60     17.41  49178.76     -0.00    -13.08      4.00 
   306.70     17.42  49179.41      0.01     -9.95      2.29 
   306.80     17.42  49178.76      0.02     -8.87      3.53 
   306.90     17.41  49178.87      0.01     -7.25      3.71 
   307.00     17.41  49177.46      0.01     -6.92      4.18 
   307.10     17.42  49175.84      0.00     -6.49      2.29 
   307.20     17.43  49174.76      0.02     -6.70      1.24 
   307.30     17.42  49172.49      0.00     -9.08      2.82 
   307.40     17.41  49170.65     -0.01     -9.19      3.65 
   307.50     17.41  49168.06      0.01    -12.44      1.94 
   307.60     17.41  49165.89     -0.01    -13.08      2.00 
   307.70     17.42  49166.00     -0.00    -13.41      2.41 
   307.80     17.42  49163.19     -0.01    -15.57      3.29 
   307.90     17.41  49161.24     -0.00    -18.06      5.06 
   308.00     17.42  49158.00      0.00    -19.46      4.65 
   308.10     17.42  49157.24     -0.00    -19.36      5.24 
   308.20     17.41  49154.65     -0.02    -19.36      5.12 
   308.30     17.41  49153.78     -0.01    -17.95      4.35 
   308.40     17.42  49151.30      0.02    -18.27      2.71 
   308.50     17.42  49150.43      0.01    -17.62      3.47 
   308.60     17.41  49150.32      0.00    -16.76      3.47 
   308.70     17.42  49151.08      0.00    -14.92      2.76 
   308.80     17.42  49149.78      0.01    -12.65      3.59 
   308.90     17.43  49148.81      0.02    -12.43      2.82 
   309.00     17.42  49148.38      0.00    -10.38      4.88 
   309.10     17.43  49148.38      0.01     -8.87      4.82 
   309.20     17.41  49147.73     -0.00     -6.92      3.29 
   309.30     17.42  49146.76      0.01     -6.81      3.24 
   309.40     17.41  49147.62     -0.01     -3.68      4.41 
   309.50     17.42  49147.73      0.00     -3.24      2.06 
   309.60     17.42  49146.11      0.01     -4.76      1.47 
   309.70     17.42  49146.97     -0.00     -4.11      3.06 
   309.80     17.42  49146.86     -0.00     -3.46      3.94 
   309.90     17.41  49147.51     -0.02     -1.30      3.47 
   310.00     17.42  49148.27     -0.00     -0.11      4.00 
   310.10     17.42  49147.62      0.00     -0.65      4.35 
   310.20     17.41  49148.27      0.00      0.65      2.29 
   310.30     17.42  49147.62      0.00      0.86      3.18 
   310.40     17.42  49149.03      0.00      2.16      2.88 
   310.50     17.42  49149.24     -0.01      3.03      4.06 
   310.60     17.42  49149.13     -0.00      3.03      4.00 
   310.70     17.41  49147.84     -0.01      0.22      1.18 
   310.80     17.43  49147.62      0.01      0.86      1.94 
   310.90     17.43  49147.51      0.02      0.00      3.94 
   311.00     17.43  49148.16      0.00      0.43      3.29 
   311.10     17.43  49147.62      0.01      0.22      2.06 
   311.20     17.43  49147.62      0.01     -1.41      1.24 
   311.30     17.42  49146.97     -0.00     -1.51      1.12 
   311.40     17.43  49146.32      0.01     -2.81      2.18 
   311.50     17.42  49146.86      0.01     -1.62      2.29 
   311.60     17.43  49146.97      0.01     -1.41      2.06 
   311.70     17.42  49146.86      0.01     -0.97      2.76 
   311.80     17.42  49146.97     -0.01     -0.65      2.29 
   311.90     17.43  49145.67     -0.00     -1.84      2.76 
   312.00     17.43  49143.84     -0.00     -4.32      1.53 
   312.10     17.43  49141.67     -0.01     -6.70      2.35 
   312.20     17.44  49140.92      0.01     -6.70      4.94 
   312.30     17.44  49140.05      0.02     -7.03      5.65 
   312.40     17.42  49140.27     -0.01     -6.05      3.06 
   312.50     17.42  49139.94     -0.00     -6.16      5.12 
   312.60     17.43  49140.05     -0.00     -6.16      4.35 
   312.70     17.42  49139.62      0.00     -7.14      3.18 
   312.80     17.44  49138.86      0.01     -8.11      3.53 
   312.90     17.42  49138.76     -0.00     -6.92      3.18 
   313.00     17.43  49137.24      0.00     -7.35      3.24 
   313.10     17.43  49137.24      0.00     -5.19      1.65 
   313.20     17.43  49136.38     -0.01     -4.54      2.47 
   313.30     17.44  49137.24      0.00     -2.81      3.24 
   313.40     17.42  49138.00     -0.00     -1.62      2.41 
   313.50     17.43  49137.67      0.01     -2.27      2.47 
   313.60     17.44  49137.89      0.01     -1.51      2.47 
   313.70     17.43  49138.76      0.01     -0.86      3.18 
   313.80     17.43  49137.03     -0.01     -1.84      4.71 
   313.90     17.43  49137.13      0.01     -1.62      3.29 
   314.00     17.43  49137.13     -0.00     -0.11      4.06 
   314.10     17.43  49135.40      0.01     -1.84      2.71 
   314.20     17.43  49134.65     -0.00     -1.73      2.29 
   314.30     17.44  49132.16      0.00     -5.08      2.00 
   314.40     17.43  49130.86      0.01     -7.14      1.12 
   314.50     17.43  49130.75     -0.00     -6.92      3.00 
   314.60     17.43  49130.65     -0.00     -6.49      3.06 
   314.70     17.43  49129.78      0.00     -8.22      2.76 
   314.80     17.43  49128.27      0.00     -8.76      2.82 
   314.90     17.43  49127.51      0.00     -9.62      2.82 
   315.00     17.45  49128.05      0.02     -9.08      3.24 
   315.10     17.42  49128.16     -0.01     -8.11      3.24 
   315.20     17.43  49128.27     -0.00     -7.24      4.00 
   315.30     17.43  49128.92     -0.01     -3.24      2.82 
   315.40     17.43  49128.70      0.00     -2.92      1.12 
   315.50     17.42  49126.11     -0.01     -4.54      3.18 
   315.60     17.42  49123.73     -0.01     -6.92      2.76 
   315.70     17.44  49120.16      0.02     -8.76      2.29 
   315.80     17.43  49117.89      0.00    -10.38      4.00 
   315.90     17.43  49115.94      0.00    -11.57      3.94 
   316.00     17.44  49115.94     -0.01    -12.11      3.53 
   316.10     17.43  49114.86      0.01    -13.30      4.35 
   316.20     17.43  49113.24     -0.00    -15.03      3.53 
   316.30     17.44  49112.27      0.01    -16.65      2.00 
   316.40     17.43  49111.62     -0.00    -16.32      3.65 
   316.50     17.44  49111.62      0.02    -13.73      4.35 
   316.60     17.44  49109.78      0.01    -13.19      3.47 
   316.70     17.44  49109.78     -0.00     -9.62      3.29 
   316.80     17.44  49110.11      0.01     -7.35      3.24 
   316.90     17.44  49110.97      0.01     -5.73      3.94 
   317.00     17.44  49111.51      0.00     -3.35      4.76 
   317.10     17.45  49112.38      0.02     -1.08      2.35 
   317.20     17.44  49112.81      0.01      0.32      2.35 
   317.30     17.44  49112.05     -0.00     -0.54      4.76 
   317.40     17.43  49111.62      0.00     -0.76      5.59 
   317.50     17.43  49111.62     -0.01     -0.32      4.00 
   317.60     17.44  49112.27      0.00      1.41      4.06 
