#Written by Robertson Geologging WinLogger V1.0/311
~VERSION INFORMATION
#------------------------------------------------------------------------------
 VERS. 2.0 : CWLS LOG ASCII STANDARD - VERSION 2.0
 WRAP. NO  : ONE LINE PER DEPTH STEP
~WELL INFORMATION
#MNEM.UNIT         DATA                                DESCRIPTION OF MNEMONIC
#------------------------------------------------------------------------------
 STRT.M        146.1000                            :   START DEPTH
 STOP.M        425.1000                            :   STOP DEPTH
 STEP.M          0.1000                            :   STEP VALUE
 NULL.        -999.2500                            :   NULL VALUE
 COMP.    IMC                                      :   COMPANY NAME
 WELL.    HAWTHORN SHAFT                           :   WELL NAME
 FLD.     HAWTHORN                                 :   FIELD NAME
 LOC.     N/A                                      :   LOCATION
 PROV.    N/A                                      :   PROVINCE
 SRVC.    N/A                                      :   SERVICE COMPANY NAME
 DATE.    03 Oct 03                                :   DATE
 UWI.     N/A                                      :   UNIQUE WELL IDENTIFIER
~PARAMETER INFORMATION
#MNEMO.UNIT         VALUE                 DESCRIPTION OF MNEMONIC
#------------------------------------------------------------------------------
~OTHER INFORMATION SECTION
#------------------------------------------------------------------------------
 TCDS 2822
~CURVE INFORMATION
#MNEMO.UNIT         API CODE              CURVE DESCRIPTION
#------------------------------------------------------------------------------
 DEPTH.M                                 :   0     Depth
 TEMP.DegC                               :   1     Temperature
 COND.uS/cm                              :   2     Conductivity
 DELT.DegC                               :   3     Delta T
 DELC.uS/cm                              :   4     Delta C
 NGAM.API                                :   5     Natural Gamma
#------------------------------------------------------------------------------
~A  DEPTH     TEMP      COND      DELT      DELC      NGAM      
# ...
   396.90     17.74  48961.95      0.01     13.72      2.47 
   397.00     17.74  48961.95      0.01     11.23      0.76 
   397.10     17.74  48962.06      0.01     11.45      3.12 
   397.20     17.74  48961.84      0.01      9.51      2.29 
   397.30     17.73  48963.46     -0.00     11.23      1.18 
   397.40     17.73  48964.22      0.00     10.05      1.65 
   397.50     17.74  48963.35     -0.01      7.67      2.00 
   397.60     17.74  48964.22     -0.00      6.59      2.41 
   397.70     17.75  48964.00      0.02      4.32      2.47 
   397.80     17.75  48964.76      0.02      4.54      0.82 
   397.90     17.75  48964.97      0.01      2.27      2.82 
   398.00     17.74  48964.87      0.01      2.92      3.12 
   398.10     17.76  48964.11      0.02      2.05      2.76 
   398.20     17.75  48964.76      0.01      2.16      3.88 
   398.30     17.76  48966.27      0.02      2.81      2.65 
   398.40     17.75  48967.78      0.02      4.32      1.88 
   398.50     17.76  48968.00      0.02      3.89      2.35 
   398.60     17.75  48968.75      0.00      4.54      1.24 
   398.70     17.75  48969.29     -0.01      5.29      2.35 
   398.80     17.75  48969.29      0.01      4.54      2.06 
   398.90     17.75  48969.40      0.01      5.19      2.88 
   399.00     17.75  48970.05      0.00      5.83      2.88 
   399.10     17.76  48969.29     -0.00      5.83      2.00 
   399.20     17.75  48969.40      0.00      4.54      3.24 
   399.30     17.75  48969.29     -0.00      3.02      2.06 
   399.40     17.75  48969.19     -0.00      1.40      2.41 
   399.50     17.76  48969.08      0.00      1.08      3.71 
   399.60     17.76  48969.40      0.01      0.65      3.24 
   399.70     17.75  48969.51      0.01      0.97      3.59 
   399.80     17.74  48968.65     -0.02      0.00      4.76 
   399.90     17.75  48968.54     -0.00     -0.86      1.94 
   400.00     17.76  48969.19      0.01     -0.86      2.00 
   400.10     17.76  48969.84      0.00     -0.22      3.82 
   400.20     17.75  48970.81     -0.00      0.65      4.29 
   400.30     17.76  48970.70      0.01      2.16      2.35 
   400.40     17.76  48969.94      0.01      0.76      2.41 
   400.50     17.76  48971.56     -0.00      2.38      2.06 
   400.60     17.77  48971.56      0.01      2.16      1.59 
   400.70     17.76  48972.32      0.01      3.57      2.76 
   400.80     17.77  48971.67      0.04      3.02      2.76 
   400.90     17.76  48971.56      0.01      2.38      1.94 
   401.00     17.77  48972.75      0.01      2.27      3.24 
   401.10     17.77  48974.05      0.01      3.67      4.00 
   401.20     17.76  48973.51      0.01      1.94      2.76 
   401.30     17.77  48974.05      0.01      3.35      3.06 
   401.40     17.76  48975.02      0.00      4.32      3.47 
   401.50     17.78  48975.02      0.02      2.70      2.76 
   401.60     17.77  48975.78      0.00      4.21      3.65 
   401.70     17.77  48975.78      0.01      3.46      1.65 
   401.80     17.76  48975.24     -0.01      3.57      1.53 
   401.90     17.77  48975.45      0.01      3.13      1.12 
   402.00     17.77  48973.72     -0.00      1.73      2.47 
   402.10     17.78  48973.40      0.01      0.65      2.76 
   402.20     17.77  48972.64      0.01     -0.11      1.12 
   402.30     17.77  48972.75      0.00     -1.30      0.76 
   402.40     17.79  48972.86      0.02     -2.16      1.18 
   402.50     17.77  48973.62      0.00     -1.62      3.65 
   402.60     17.78  48972.21      0.01     -3.78      3.24 
   402.70     17.77  48971.67     -0.01     -3.57      3.24 
   402.80     17.77  48971.56      0.01     -3.46      4.12 
   402.90     17.78  48970.59      0.01     -4.86      1.94 
   403.00     17.78  48970.70      0.01     -3.02      0.76 
   403.10     17.79  48970.92      0.02     -2.70      2.00 
   403.20     17.78  48970.81      0.01     -2.05      3.88 
   403.30     17.79  48971.13      0.01     -2.38      2.71 
   403.40     17.79  48971.02      0.00     -2.38      2.76 
   403.50     17.79  48969.94      0.02     -2.92      1.94 
   403.60     17.79  48969.84      0.01     -1.62      1.59 
   403.70     17.79  48969.29      0.02     -1.51      1.24 
   403.80     17.79  48968.54      0.02     -2.27      2.35 
   403.90     17.78  48965.62      0.01     -4.97      1.24 
   404.00     17.78  48964.11      0.00     -6.59      1.24 
   404.10     17.79  48964.76     -0.01     -6.16      1.53 
   404.20     17.79  48964.76      0.01     -5.83      1.12 
   404.30     17.79  48964.87     -0.00     -5.51      3.82 
   404.40     17.78  48964.22     -0.01     -6.27      2.29 
   404.50     17.78  48965.19     -0.02     -5.29      1.59 
   404.60     17.78  48966.92     -0.00     -4.21      1.59 
   404.70     17.79  48966.81      0.00     -3.78      2.41 
   404.80     17.79  48967.78     -0.00     -0.00      1.65 
   404.90     17.80  48966.59      0.02      0.97      0.82 
   405.00     17.80  48966.38      0.01      2.27      2.06 
   405.10     17.80  48967.03      0.01      3.02      2.00 
   405.20     17.79  48967.67     -0.00      3.56      1.53 
   405.30     17.80  48967.13      0.01      3.02      1.94 
   405.40     17.79  48966.49      0.01      2.38      2.35 
   405.50     17.79  48966.27      0.01      1.08      2.00 
   405.60     17.81  48967.89      0.02      1.51      1.65 
   405.70     17.79  48967.78      0.00      0.97      1.59 
   405.80     17.79  48966.27      0.00     -1.62      1.59 
   405.90     17.81  48966.38      0.01     -0.11      1.24 
   406.00     17.80  48966.38      0.00      0.00      1.24 
   406.10     17.81  48965.62      0.01     -1.30      1.24 
   406.20     17.80  48964.11      0.01     -3.56      2.35 
   406.30     17.80  48963.46      0.01     -3.78      1.82 
   406.40     17.80  48965.19      0.01     -1.30      3.06 
   406.50     17.81  48965.51      0.02     -1.51      4.18 
   406.60     17.82  48964.76      0.01     -2.38      2.18 
   406.70     17.81  48964.76      0.02     -2.27      2.53 
   406.80     17.81  48964.11      0.02     -2.16      2.18 
   406.90     17.81  48963.46     -0.00     -3.67      1.12 
   407.00     17.81  48961.73      0.01     -4.65      1.12 
   407.10     17.81  48960.44      0.01     -5.19      1.59 
   407.20     17.82  48959.79      0.01     -4.32      2.29 
   407.30     17.81  48958.92      0.01     -4.54      2.35 
   407.40     17.82  48957.20      0.01     -8.75      1.12 
   407.50     17.82  48959.03      0.01     -6.48      0.76 
   407.60     17.83  48957.41      0.02     -7.99      2.35 
   407.70     17.82  48956.55      0.02     -8.21      1.18 
   407.80     17.83  48955.90      0.02     -8.32      1.12 
   407.90     17.83  48955.79      0.02     -7.67      1.94 
   408.00     17.83  48954.39      0.02     -7.35      2.41 
   408.10     17.83  48952.66      0.02     -7.02      1.47 
   408.20     17.83  48953.41      0.01     -6.37      1.88 
   408.30     17.84  48951.58      0.03     -8.10      1.53 
   408.40     17.83  48950.39      0.01     -7.67      1.47 
   408.50     17.83  48947.37      0.01    -10.80      3.47 
   408.60     17.85  48946.07      0.01    -10.59      4.24 
   408.70     17.86  48944.12      0.03    -12.42      2.35 
   408.80     17.85  48943.15      0.02    -12.75      2.82 
   408.90     17.86  48942.83      0.03    -12.21      3.41 
   409.00     17.87  48942.50      0.03    -11.02      2.24 
   409.10     17.87  48944.02      0.04     -9.40      0.82 
   409.20     17.87  48944.88      0.04     -8.53      1.88 
   409.30     17.87  48944.02      0.02     -7.56      2.24 
   409.40     17.86  48942.40      0.03     -7.13      2.24 
   409.50     17.88  48939.05      0.04     -7.67      1.53 
   409.60     17.88  48937.21      0.03     -8.86      1.82 
   409.70     17.88  48936.24      0.03     -7.89      2.59 
   409.80     17.89  48934.08      0.04     -8.86      3.12 
   409.90     17.90  48932.03      0.03    -10.80      2.76 
   410.00     17.90  48931.49      0.03    -11.23      2.59 
