#Written by Robertson Geologging WinLogger V1.0/370
~VERSION INFORMATION
#------------------------------------------------------------------------------
 VERS. 2.0 : CWLS LOG ASCII STANDARD - VERSION 2.0
 WRAP. NO  : ONE LINE PER DEPTH STEP
~WELL INFORMATION
#MNEM.UNIT         DATA                                DESCRIPTION OF MNEMONIC
#------------------------------------------------------------------------------
 STRT.M        118.0500                            :   START DEPTH
 STOP.M        420.0800                            :   STOP DEPTH
 STEP.M          0.0100                            :   STEP VALUE
 NULL.        -999.2500                            :   NULL VALUE
 COMP.    WHITE YOUN GREEN                         :   COMPANY NAME
 WELL.    HAWTHORN SHAFT                           :   WELL NAME
 FLD.     HAWTHORN                                 :   FIELD NAME
 LOC.     N/A                                      :   LOCATION
 PROV.    N/A                                      :   PROVINCE
 SRVC.    N/A                                      :   SERVICE COMPANY NAME
 DATE.    14 Dec 06                                :   DATE
 UWI.     N/A                                      :   UNIQUE WELL IDENTIFIER
~PARAMETER INFORMATION
#MNEMO.UNIT         VALUE                 DESCRIPTION OF MNEMONIC
#------------------------------------------------------------------------------
~OTHER INFORMATION SECTION
#------------------------------------------------------------------------------
 lLOGGING DOWN
~CURVE INFORMATION
#MNEMO.UNIT         API CODE              CURVE DESCRIPTION
#------------------------------------------------------------------------------
 DEPTH.M                                 :   0     Depth
 TEMP.DegC                               :   1     Temperature
 CN25.mS/cm                              :   2     Conductivity@25DegC
 COND.mS/cm                              :   3     Conductivity
 DELT.DegC                               :   4     Delta T
 DELC.mS/cm                              :   5     Delta C
 NGAM.CPS                                :   6     Natural Gamma
#------------------------------------------------------------------------------
~A  DEPTH     TEMP      CN25      COND      DELT      DELC      NGAM      
# ...
   157.60     12.53      7.84      1.54      0.01     -0.01      0.41 
   157.61     12.53      7.83      1.54      0.01     -0.02      0.41 
   157.62     12.53      7.83      1.54      0.01     -0.02      0.41 
   157.63     12.53      7.84      1.54      0.01     -0.01      0.00 
   157.64     12.53      7.84      1.54      0.01     -0.01      0.00 
   157.65     12.53      7.84      1.54      0.01     -0.01      0.00 
   157.66     12.53      7.84      1.54      0.00     -0.01      0.00 
   157.67     12.52      7.84      1.54      0.00      0.00      0.00 
   157.68     12.52      7.84      1.54      0.00      0.00      0.00 
   157.69     12.52      7.84      1.54     -0.00      0.00      0.00 
   157.70     12.52      7.84      1.54     -0.00     -0.00      0.00 
   157.71     12.53      7.84      1.54     -0.00      0.01      0.00 
   157.72     12.52      7.84      1.54     -0.00      0.01      0.00 
   157.73     12.52      7.84      1.54     -0.01      0.01      0.00 
   157.74     12.52      7.84      1.54     -0.00      0.00      0.00 
   157.75     12.52      7.84      1.54     -0.00     -0.00      0.00 
   157.76     12.53      7.84      1.54      0.00      0.00      0.00 
   157.77     12.53      7.84      1.54      0.00     -0.00      0.00 
   157.78     12.53      7.83      1.54      0.00     -0.01      0.00 
   157.79     12.53      7.83      1.54      0.00     -0.01      0.00 
   157.80     12.53      7.84      1.54      0.00     -0.00      0.00 
   157.81     12.52      7.84      1.54      0.00      0.00      0.00 
   157.82     12.52      7.84      1.54      0.00     -0.01      0.00 
   157.83     12.52      7.84      1.54      0.00     -0.01      0.00 
   157.84     12.52      7.84      1.54      0.00     -0.01      0.00 
   157.85     12.52      7.85      1.54      0.00     -0.00      0.00 
   157.86     12.52      7.85      1.54      0.00      0.00      0.00 
   157.87     12.52      7.85      1.54      0.00     -0.01      0.00 
   157.88     12.51      7.85      1.54      0.00     -0.00      0.00 
   157.89     12.51      7.85      1.54      0.00      0.00      0.00 
   157.90     12.51      7.85      1.54     -0.00      0.00      0.00 
   157.91     12.51      7.85      1.54     -0.00     -0.00      0.00 
   157.92     12.51      7.85      1.54     -0.00     -0.00      0.00 
   157.93     12.51      7.85      1.54     -0.00      0.01      0.00 
   157.94     12.51      7.85      1.54     -0.00      0.01      0.00 
   157.95     12.52      7.85      1.54     -0.00      0.01      0.00 
   157.96     12.52      7.84      1.54     -0.00      0.00      0.00 
   157.97     12.52      7.84      1.54     -0.00      0.00      0.00 
   157.98     12.52      7.84      1.54     -0.00      0.01      0.00 
   157.99     12.52      7.84      1.54     -0.00      0.01      0.00 
   158.00     12.53      7.84      1.54     -0.00     -0.00      0.00 
   158.01     12.53      7.83      1.54      0.00     -0.01      0.00 
   158.02     12.53      7.83      1.54      0.01     -0.01      0.00 
   158.03     12.53      7.83      1.54      0.01     -0.01      0.00 
   158.04     12.53      7.83      1.54      0.02     -0.02      0.00 
   158.05     12.53      7.83      1.54      0.02     -0.02      0.41 
   158.06     12.53      7.83      1.54      0.02     -0.02      0.41 
   158.07     12.53      7.83      1.54      0.02     -0.01      0.41 
   158.08     12.53      7.83      1.54      0.02     -0.02      0.41 
   158.09     12.53      7.83      1.54      0.02     -0.02      0.41 
   158.10     12.53      7.83      1.54      0.02     -0.02      0.41 
   158.11     12.53      7.83      1.54      0.01     -0.01      0.41 
   158.12     12.53      7.84      1.54      0.01     -0.01      0.41 
   158.13     12.53      7.84      1.54      0.01     -0.01      0.41 
   158.14     12.53      7.84      1.54      0.00     -0.01      0.41 
   158.15     12.52      7.84      1.54      0.00     -0.01      0.41 
   158.16     12.52      7.84      1.54      0.00      0.00      0.41 
   158.17     12.52      7.84      1.54      0.00      0.00      0.41 
   158.18     12.52      7.84      1.54      0.00     -0.00      0.41 
   158.19     12.52      7.84      1.54     -0.00     -0.00      0.41 
   158.20     12.52      7.84      1.54     -0.00      0.00      0.41 
   158.21     12.52      7.85      1.54     -0.00      0.00      0.41 
   158.22     12.52      7.84      1.54     -0.00     -0.00      0.00 
   158.23     12.52      7.84      1.54     -0.00     -0.00      0.00 
   158.24     12.52      7.85      1.54     -0.00      0.01      0.00 
   158.25     12.52      7.85      1.54     -0.00      0.01      0.00 
   158.26     12.52      7.84      1.54     -0.00      0.00      0.00 
   158.27     12.52      7.84      1.54      0.00     -0.00      0.00 
   158.28     12.53      7.84      1.54      0.00     -0.00      0.00 
   158.29     12.53      7.84      1.54      0.00      0.00      0.00 
   158.30     12.53      7.84      1.54      0.00     -0.00      0.41 
   158.31     12.53      7.83      1.54      0.00     -0.01      0.41 
   158.32     12.53      7.83      1.54      0.00     -0.01      0.41 
   158.33     12.53      7.84      1.54      0.00      0.00      0.82 
   158.34     12.53      7.84      1.54      0.00      0.00      0.82 
   158.35     12.53      7.84      1.54      0.00     -0.01      0.82 
   158.36     12.53      7.84      1.54      0.00     -0.01      0.82 
   158.37     12.53      7.84      1.54      0.00     -0.00      0.82 
   158.38     12.53      7.84      1.54      0.00     -0.00      0.82 
   158.39     12.52      7.84      1.54      0.00      0.00      0.82 
   158.40     12.52      7.84      1.54      0.00     -0.01      0.82 
   158.41     12.52      7.84      1.54     -0.00     -0.00      0.82 
   158.42     12.52      7.85      1.54     -0.00      0.01      0.82 
   158.43     12.52      7.85      1.54     -0.00      0.01      0.82 
   158.44     12.52      7.84      1.54     -0.00      0.00      0.82 
   158.45     12.52      7.84      1.54     -0.00      0.00      0.82 
   158.46     12.52      7.85      1.54     -0.01      0.01      0.82 
   158.47     12.52      7.85      1.54     -0.01      0.01      0.41 
   158.48     12.52      7.84      1.54     -0.01      0.01      0.41 
   158.49     12.52      7.84      1.54     -0.01      0.00      0.41 
   158.50     12.52      7.85      1.54     -0.01      0.00      0.00 
   158.51     12.52      7.85      1.54     -0.01      0.01      0.00 
   158.52     12.52      7.84      1.54     -0.00      0.01      0.41 
   158.53     12.52      7.84      1.54     -0.01      0.00      0.41 
   158.54     12.52      7.84      1.54     -0.00      0.00      0.41 
   158.55     12.52      7.84      1.54     -0.00      0.01      0.41 
   158.56     12.52      7.84      1.54     -0.00      0.01      0.41 
   158.57     12.52      7.84      1.54     -0.00      0.00      0.41 
   158.58     12.53      7.84      1.54     -0.00     -0.00      0.41 
   158.59     12.53      7.84      1.54     -0.00     -0.00      0.41 
   158.60     12.52      7.84      1.54     -0.00      0.01      0.41 
   158.61     12.52      7.84      1.54     -0.00      0.00      0.41 
   158.62     12.52      7.84      1.54     -0.00      0.00      0.41 
   158.63     12.52      7.84      1.54     -0.00      0.00      0.41 
   158.64     12.52      7.84      1.54     -0.00      0.01      0.41 
   158.65     12.52      7.84      1.54     -0.00      0.00      0.41 
   158.66     12.53      7.84      1.54      0.00     -0.00      0.41 
   158.67     12.52      7.84      1.54      0.00     -0.00      0.41 
   158.68     12.52      7.84      1.54     -0.00      0.00      0.41 
   158.69     12.52      7.84      1.54     -0.00      0.01      0.00 
   158.70     12.52      7.84      1.54     -0.00      0.00      0.00 
   158.71     12.52      7.84      1.54     -0.00      0.00      0.00 
   158.72     12.52      7.84      1.54     -0.00      0.00      0.00 
