#Written by Robertson Geologging WinLogger V1.0/311
~VERSION INFORMATION
#------------------------------------------------------------------------------
 VERS. 2.0 : CWLS LOG ASCII STANDARD - VERSION 2.0
 WRAP. NO  : ONE LINE PER DEPTH STEP
~WELL INFORMATION
#MNEM.UNIT         DATA                                DESCRIPTION OF MNEMONIC
#------------------------------------------------------------------------------
 STRT.M        146.1000                            :   START DEPTH
 STOP.M        425.1000                            :   STOP DEPTH
 STEP.M          0.1000                            :   STEP VALUE
 NULL.        -999.2500                            :   NULL VALUE
 COMP.    IMC                                      :   COMPANY NAME
 WELL.    HAWTHORN SHAFT                           :   WELL NAME
 FLD.     HAWTHORN                                 :   FIELD NAME
 LOC.     N/A                                      :   LOCATION
 PROV.    N/A                                      :   PROVINCE
 SRVC.    N/A                                      :   SERVICE COMPANY NAME
 DATE.    03 Oct 03                                :   DATE
 UWI.     N/A                                      :   UNIQUE WELL IDENTIFIER
~PARAMETER INFORMATION
#MNEMO.UNIT         VALUE                 DESCRIPTION OF MNEMONIC
#------------------------------------------------------------------------------
~OTHER INFORMATION SECTION
#------------------------------------------------------------------------------
 TCDS 2822
~CURVE INFORMATION
#MNEMO.UNIT         API CODE              CURVE DESCRIPTION
#------------------------------------------------------------------------------
 DEPTH.M                                 :   0     Depth
 TEMP.DegC                               :   1     Temperature
 COND.uS/cm                              :   2     Conductivity
 DELT.DegC                               :   3     Delta T
 DELC.uS/cm                              :   4     Delta C
 NGAM.API                                :   5     Natural Gamma
#------------------------------------------------------------------------------
~A  DEPTH     TEMP      COND      DELT      DELC      NGAM      
# ...
   370.50     17.63  48906.86     -0.00     -2.27      1.24 
   370.60     17.62  48907.62     -0.01     -0.86      1.59 
   370.70     17.63  48907.08     -0.01     -1.30      1.94 
   370.80     17.63  48907.83      0.00      0.22      2.00 
   370.90     17.62  48906.43     -0.00     -1.94      2.47 
   371.00     17.65  48906.75      0.02     -1.08      2.47 
   371.10     17.64  48906.21      0.00     -1.62      2.35 
   371.20     17.62  48904.81      0.01     -2.70      2.71 
   371.30     17.63  48904.05     -0.00     -3.56      2.41 
   371.40     17.63  48903.30      0.00     -4.32      3.29 
   371.50     17.64  48903.95      0.01     -3.67      3.18 
   371.60     17.63  48903.19      0.00     -4.54      2.47 
   371.70     17.63  48903.19      0.01     -4.64      3.24 
   371.80     17.64  48901.68      0.01     -5.40      3.47 
   371.90     17.64  48901.89      0.01     -4.43      2.29 
   372.00     17.63  48901.14     -0.01     -4.86      2.76 
   372.10     17.64  48901.03      0.00     -4.43      3.18 
   372.20     17.63  48900.38      0.01     -4.43      4.35 
   372.30     17.64  48901.14      0.01     -2.92      3.94 
   372.40     17.63  48901.03      0.00     -3.02      2.65 
   372.50     17.64  48900.38      0.00     -4.32      3.59 
   372.60     17.64  48899.30      0.01     -4.64      4.29 
   372.70     17.63  48898.65     -0.01     -4.54      3.47 
   372.80     17.64  48897.79     -0.01     -3.89      3.18 
   372.90     17.62  48897.90     -0.01     -4.00      3.53 
   373.00     17.64  48897.68      0.00     -4.21      1.53 
   373.10     17.65  48896.93      0.01     -4.10      3.12 
   373.20     17.63  48896.17     -0.01     -4.21      4.24 
   373.30     17.64  48896.17     -0.00     -4.97      2.47 
   373.40     17.64  48894.44      0.01     -6.59      1.18 
   373.50     17.64  48893.58      0.01     -5.18      1.88 
   373.60     17.64  48892.93     -0.00     -5.51      2.76 
   373.70     17.64  48892.07      0.01     -6.59      3.12 
   373.80     17.64  48892.17      0.00     -6.48      2.06 
   373.90     17.63  48891.20      0.01     -7.45      4.06 
   374.00     17.65  48889.58      0.01     -8.10      2.35 
   374.10     17.64  48888.39     -0.00     -8.53      3.65 
   374.20     17.63  48888.29      0.00     -7.88      4.76 
   374.30     17.64  48887.64      0.01     -8.53      5.47 
   374.40     17.64  48886.34      0.00     -8.96      2.35 
   374.50     17.64  48886.99     -0.00     -7.45      1.65 
   374.60     17.64  48886.77     -0.00     -6.05      2.82 
   374.70     17.64  48887.21     -0.00     -5.72      4.41 
   374.80     17.65  48886.88      0.01     -5.29      3.65 
   374.90     17.65  48886.23      0.02     -4.10      1.65 
   375.00     17.64  48885.48     -0.00     -4.21      1.59 
   375.10     17.64  48884.83     -0.00     -4.32      0.71 
   375.20     17.64  48884.29      0.00     -3.78      1.82 
   375.30     17.65  48883.86      0.01     -3.67      3.06 
   375.40     17.64  48881.81     -0.01     -5.29      2.82 
   375.50     17.64  48882.78     -0.00     -4.75      4.12 
   375.60     17.63  48881.91     -0.00     -4.86      2.88 
   375.70     17.64  48882.35      0.00     -4.32      4.82 
   375.80     17.64  48880.83     -0.01     -5.29      4.00 
   375.90     17.64  48879.65     -0.02     -5.83      3.53 
   376.00     17.64  48880.62     -0.00     -4.21      4.00 
   376.10     17.65  48879.65      0.01     -5.18      3.18 
   376.20     17.64  48879.65      0.00     -4.97      2.47 
   376.30     17.65  48880.51     -0.00     -3.56      3.29 
   376.40     17.65  48880.08      0.01     -2.48      3.29 
   376.50     17.64  48880.94      0.00     -2.27      4.12 
   376.60     17.64  48880.51      0.01     -2.16      3.65 
   376.70     17.66  48880.51      0.02     -1.84      2.00 
   376.80     17.64  48880.51      0.00     -0.11      1.59 
   376.90     17.64  48880.83      0.00      0.76      1.53 
   377.00     17.65  48880.83      0.01     -0.54      2.35 
   377.10     17.65  48881.05     -0.00      0.76      2.35 
   377.20     17.65  48882.56      0.01      2.59      3.18 
   377.30     17.65  48883.21      0.00      3.46      2.76 
   377.40     17.65  48884.83      0.01      5.18      1.94 
   377.50     17.66  48884.07      0.02      3.56      1.94 
   377.60     17.65  48884.61     -0.00      4.86      2.82 
   377.70     17.65  48885.26     -0.01      4.75      2.47 
   377.80     17.66  48887.10      0.02      6.16      3.53 
   377.90     17.66  48888.29      0.02      7.02      3.00 
   378.00     17.66  48888.83      0.00      7.99      1.18 
   378.10     17.65  48888.18      0.01      6.48      1.53 
   378.20     17.66  48889.04      0.01      6.26      1.47 
   378.30     17.65  48888.93      0.00      6.16      3.94 
   378.40     17.65  48889.04     -0.01      4.21      2.82 
   378.50     17.65  48888.29     -0.00      4.21      2.06 
   378.60     17.65  48887.64      0.01      2.38      3.18 
   378.70     17.66  48885.91      0.01     -0.32      2.00 
   378.80     17.66  48884.61     -0.00     -2.48      0.82 
   378.90     17.65  48883.75     -0.01     -3.78      1.24 
   379.00     17.66  48883.97      0.00     -4.10      1.88 
   379.10     17.64  48884.83     -0.01     -3.35      1.88 
   379.20     17.65  48885.05     -0.00     -4.10      0.76 
   379.30     17.65  48884.72     -0.00     -4.32      1.18 
   379.40     17.66  48885.48      0.01     -3.67      1.18 
   379.50     17.66  48885.48      0.00     -2.81      4.12 
   379.60     17.66  48883.21      0.01     -3.67      3.18 
   379.70     17.67  48883.97      0.01     -1.19      2.82 
   379.80     17.65  48883.10     -0.00     -1.51      2.35 
   379.90     17.67  48882.24      0.01     -1.51      4.76 
   380.00     17.65  48881.48     -0.01     -2.48      3.59 
   380.10     17.65  48880.83      0.00     -4.54      1.88 
   380.20     17.66  48881.16      0.00     -3.89      3.06 
   380.30     17.66  48881.27      0.00     -3.46      4.24 
   380.40     17.66  48881.27     -0.00     -4.43      2.41 
   380.50     17.65  48879.97     -0.01     -4.97      2.35 
   380.60     17.65  48880.62     -0.01     -2.16      5.59 
   380.70     17.66  48880.29     -0.01     -3.24      5.71 
   380.80     17.66  48880.29      0.01     -2.05      6.47 
   380.90     17.66  48880.40     -0.00     -1.84      4.88 
   381.00     17.67  48880.73      0.02     -1.51      2.41 
   381.10     17.66  48880.40      0.02     -0.76      2.71 
   381.20     17.65  48880.40     -0.00     -0.76      2.00 
   381.30     17.67  48880.29      0.01     -0.97      2.41 
   381.40     17.66  48880.19      0.01     -1.08      0.76 
   381.50     17.66  48880.08      0.01      0.43      3.24 
   381.60     17.66  48880.08      0.00     -0.32      5.59 
   381.70     17.67  48879.75      0.01     -0.32      4.35 
   381.80     17.66  48879.00     -0.01     -2.05      2.76 
   381.90     17.66  48879.43     -0.00     -1.40      3.06 
   382.00     17.67  48878.78     -0.00     -2.16      1.82 
   382.10     17.67  48878.78      0.01     -2.38      1.59 
   382.20     17.67  48877.16      0.02     -3.67      2.00 
   382.30     17.66  48876.84     -0.01     -4.21      2.82 
   382.40     17.67  48875.87      0.00     -4.32      2.00 
   382.50     17.68  48876.41      0.02     -3.67      1.53 
   382.60     17.67  48876.84      0.01     -3.02      0.76 
   382.70     17.67  48876.73      0.00     -3.02      2.24 
   382.80     17.67  48876.08      0.01     -2.92      1.47 
   382.90     17.67  48876.08      0.00     -3.35      1.18 
   383.00     17.67  48875.87     -0.01     -2.59      3.24 
   383.10     17.67  48874.68      0.00     -3.35      4.06 
   383.20     17.67  48874.25     -0.00     -2.59      3.18 
   383.30     17.66  48875.00      0.01     -1.84      3.65 
   383.40     17.67  48875.76      0.00     -0.86      2.06 
   383.50     17.68  48876.08      0.00     -1.08      0.76 
   383.60     17.67  48876.73      0.00     -0.43      1.59 
