#Written by Robertson Geologging WinLogger V1.0/311
~VERSION INFORMATION
#------------------------------------------------------------------------------
 VERS. 2.0 : CWLS LOG ASCII STANDARD - VERSION 2.0
 WRAP. NO  : ONE LINE PER DEPTH STEP
~WELL INFORMATION
#MNEM.UNIT         DATA                                DESCRIPTION OF MNEMONIC
#------------------------------------------------------------------------------
 STRT.M        146.1000                            :   START DEPTH
 STOP.M        425.1000                            :   STOP DEPTH
 STEP.M          0.1000                            :   STEP VALUE
 NULL.        -999.2500                            :   NULL VALUE
 COMP.    IMC                                      :   COMPANY NAME
 WELL.    HAWTHORN SHAFT                           :   WELL NAME
 FLD.     HAWTHORN                                 :   FIELD NAME
 LOC.     N/A                                      :   LOCATION
 PROV.    N/A                                      :   PROVINCE
 SRVC.    N/A                                      :   SERVICE COMPANY NAME
 DATE.    03 Oct 03                                :   DATE
 UWI.     N/A                                      :   UNIQUE WELL IDENTIFIER
~PARAMETER INFORMATION
#MNEMO.UNIT         VALUE                 DESCRIPTION OF MNEMONIC
#------------------------------------------------------------------------------
~OTHER INFORMATION SECTION
#------------------------------------------------------------------------------
 TCDS 2822
~CURVE INFORMATION
#MNEMO.UNIT         API CODE              CURVE DESCRIPTION
#------------------------------------------------------------------------------
 DEPTH.M                                 :   0     Depth
 TEMP.DegC                               :   1     Temperature
 COND.uS/cm                              :   2     Conductivity
 DELT.DegC                               :   3     Delta T
 DELC.uS/cm                              :   4     Delta C
 NGAM.API                                :   5     Natural Gamma
#------------------------------------------------------------------------------
~A  DEPTH     TEMP      COND      DELT      DELC      NGAM      
# ...
   357.30     17.59  48909.45      0.01     -0.11      2.65 
   357.40     17.60  48910.21      0.00      0.54      2.65 
   357.50     17.60  48911.18     -0.01      0.97      2.35 
   357.60     17.60  48910.97     -0.02     -0.86      1.88 
   357.70     17.60  48910.75      0.00     -0.22      3.06 
   357.80     17.59  48911.29     -0.02      0.11      2.65 
   357.90     17.61  48912.15      0.03      1.19      3.88 
   358.00     17.60  48911.72      0.00      1.62      3.82 
   358.10     17.60  48911.51      0.00      2.48      3.29 
   358.20     17.61  48911.72     -0.00      1.94      2.18 
   358.30     17.61  48912.59      0.02      3.02      2.41 
   358.40     17.61  48913.23      0.01      2.92      4.00 
   358.50     17.59  48912.26     -0.00      1.73      3.82 
   358.60     17.60  48912.05      0.01      1.84      3.41 
   358.70     17.60  48910.43      0.01     -0.43      3.41 
   358.80     17.60  48910.97      0.01     -0.43      4.47 
   358.90     17.60  48910.75     -0.02     -0.86      4.29 
   359.00     17.60  48910.32      0.00     -1.40      3.82 
   359.10     17.60  48910.21     -0.01     -1.84      5.53 
   359.20     17.61  48911.18      0.00     -1.08      3.41 
   359.30     17.61  48912.15     -0.00     -0.32      2.71 
   359.40     17.60  48912.37     -0.00     -0.00      2.35 
   359.50     17.60  48912.15      0.00     -0.11      2.29 
   359.60     17.60  48912.37     -0.00     -0.32      2.41 
   359.70     17.60  48913.13      0.00      1.94      2.18 
   359.80     17.61  48913.34      0.01      3.02      3.29 
   359.90     17.61  48913.13      0.01      2.92      0.76 
   360.00     17.61  48912.91      0.01      2.48      1.88 
   360.10     17.61  48912.80      0.01      1.94      3.76 
   360.20     17.61  48913.67     -0.00      2.70      4.24 
   360.30     17.61  48912.80      0.00      0.65      3.88 
   360.40     17.61  48913.56      0.01      1.19      2.82 
   360.50     17.61  48912.48      0.01     -0.43      3.53 
   360.60     17.59  48911.61     -0.01     -0.76      4.00 
   360.70     17.60  48911.83     -0.00     -2.05      2.06 
   360.80     17.60  48910.64     -0.02     -2.16      3.94 
   360.90     17.61  48910.53      0.00     -2.05      3.59 
   361.00     17.61  48909.78      0.00     -2.59      2.29 
   361.10     17.60  48910.10     -0.01     -2.05      3.06 
   361.20     17.61  48910.86      0.00     -2.05      3.00 
   361.30     17.61  48910.21      0.00     -3.24      2.59 
   361.40     17.61  48909.99     -0.00     -3.67      3.12 
   361.50     17.61  48909.35     -0.00     -2.59      4.06 
   361.60     17.60  48910.32      0.01     -1.30      3.12 
   361.70     17.60  48909.56     -0.00     -2.05      1.53 
   361.80     17.60  48910.32      0.00     -0.43      1.24 
   361.90     17.61  48910.21      0.00      0.22      2.29 
   362.00     17.62  48911.07      0.01      1.30      2.24 
   362.10     17.61  48910.53      0.01     -0.43      3.47 
   362.20     17.61  48910.10     -0.00     -0.76      3.35 
   362.30     17.61  48909.35     -0.00     -1.40      3.00 
   362.40     17.61  48909.35      0.00     -0.00      2.82 
   362.50     17.61  48909.45      0.01     -0.76      2.00 
   362.60     17.62  48909.45      0.02     -1.62      2.06 
   362.70     17.61  48908.16      0.01     -2.16      3.65 
   362.80     17.61  48907.40      0.01     -2.38      2.71 
   362.90     17.61  48906.65     -0.00     -3.67      2.29 
   363.00     17.61  48906.11     -0.01     -5.83      2.65 
   363.10     17.61  48906.75      0.00     -4.43      3.71 
   363.20     17.60  48906.65     -0.00     -3.35      5.29 
   363.30     17.61  48906.75     -0.00     -2.59      3.41 
   363.40     17.60  48908.16     -0.01     -1.19      2.65 
   363.50     17.61  48908.91     -0.01     -1.30      3.12 
   363.60     17.62  48909.99      0.00      0.43      3.76 
   363.70     17.61  48910.21      0.00      2.70      4.35 
   363.80     17.63  48911.83      0.01      5.94      3.59 
   363.90     17.61  48912.05      0.00      6.05      2.88 
   364.00     17.62  48911.83      0.01      5.08      3.59 
   364.10     17.62  48912.15      0.01      5.51      3.41 
   364.20     17.62  48911.29      0.02      4.75      4.24 
   364.30     17.62  48911.72      0.02      4.21      3.24 
   364.40     17.61  48911.83      0.01      3.67      2.88 
   364.50     17.62  48912.26      0.01      2.81      2.29 
   364.60     17.62  48912.80      0.00      2.81      2.71 
   364.70     17.61  48914.64     -0.01      4.97      2.35 
   364.80     17.61  48914.42     -0.01      3.24      3.06 
   364.90     17.61  48914.42      0.00      3.13      5.41 
   365.00     17.61  48914.10     -0.00      2.48      6.18 
   365.10     17.61  48914.21     -0.01      3.56      3.47 
   365.20     17.61  48914.53     -0.01      3.24      2.41 
   365.30     17.63  48914.21      0.01      1.19      2.29 
   365.40     17.63  48915.18      0.02      2.05      2.71 
   365.50     17.62  48914.96     -0.01      2.16      2.35 
   365.60     17.62  48916.04     -0.00      2.48      3.71 
   365.70     17.61  48916.37      0.00      1.08      2.59 
   365.80     17.61  48918.42     -0.01      3.56      4.18 
   365.90     17.62  48918.63      0.01      3.46      2.65 
   366.00     17.62  48919.39      0.00      5.29      3.00 
   366.10     17.62  48919.28      0.02      5.29      2.24 
   366.20     17.61  48919.71      0.00      5.94      2.59 
   366.30     17.61  48919.50     -0.02      5.94      1.94 
   366.40     17.62  48919.17      0.00      4.75      1.18 
   366.50     17.62  48920.90      0.00      6.37      1.53 
   366.60     17.62  48921.23      0.01      4.54      4.18 
   366.70     17.62  48919.82      0.01      2.70      4.82 
   366.80     17.62  48919.28      0.01      1.30      2.94 
   366.90     17.63  48918.53      0.01     -0.76      3.29 
   367.00     17.63  48917.77      0.01     -2.05      3.82 
   367.10     17.62  48917.99      0.00     -1.30      2.76 
   367.20     17.62  48917.99      0.01     -1.94      4.35 
   367.30     17.63  48917.45      0.01     -2.05      3.35 
   367.40     17.63  48917.34      0.00     -2.27      4.24 
   367.50     17.61  48917.34     -0.01     -3.35      3.53 
   367.60     17.62  48917.45      0.00     -3.02      3.06 
   367.70     17.62  48916.80      0.00     -3.02      0.71 
   367.80     17.62  48916.15      0.00     -3.13      2.24 
   367.90     17.62  48915.93     -0.01     -2.59      3.29 
   368.00     17.62  48915.18     -0.00     -4.10      2.94 
   368.10     17.62  48916.37     -0.00     -2.27      1.65 
   368.20     17.63  48915.07      0.01     -2.92      3.12 
   368.30     17.62  48915.07     -0.00     -2.59      3.82 
   368.40     17.63  48917.34      0.00      0.00      1.18 
   368.50     17.63  48916.80      0.02     -0.54      1.65 
   368.60     17.62  48915.50      0.00     -1.73      2.00 
   368.70     17.63  48914.10      0.00     -2.48      2.71 
   368.80     17.63  48912.91      0.01     -3.24      3.47 
   368.90     17.62  48912.26      0.01     -3.67      2.35 
   369.00     17.61  48911.72     -0.01     -3.24      1.59 
   369.10     17.62  48909.67      0.00     -5.94      2.41 
   369.20     17.62  48909.13     -0.00     -6.16      3.24 
   369.30     17.63  48909.56      0.01     -6.37      3.94 
   369.40     17.63  48909.13     -0.00     -8.21      4.35 
   369.50     17.63  48909.13      0.00     -7.24      3.65 
   369.60     17.63  48908.48      0.01     -7.02      3.53 
   369.70     17.63  48908.48      0.01     -5.83      2.71 
   369.80     17.63  48907.73      0.01     -5.94      2.41 
   369.90     17.63  48908.37      0.00     -3.89      2.47 
   370.00     17.63  48907.83      0.01     -3.02      3.53 
   370.10     17.64  48907.83      0.01     -1.84      3.47 
   370.20     17.62  48908.27     -0.01     -1.73      1.94 
   370.30     17.63  48907.51      0.00     -2.16      1.53 
   370.40     17.63  48907.51     -0.00     -0.97      0.82 
