#Written by Robertson Geologging WinLogger V1.0/370
~VERSION INFORMATION
#------------------------------------------------------------------------------
 VERS. 2.0 : CWLS LOG ASCII STANDARD - VERSION 2.0
 WRAP. NO  : ONE LINE PER DEPTH STEP
~WELL INFORMATION
#MNEM.UNIT         DATA                                DESCRIPTION OF MNEMONIC
#------------------------------------------------------------------------------
 STRT.M        118.0500                            :   START DEPTH
 STOP.M        420.0800                            :   STOP DEPTH
 STEP.M          0.0100                            :   STEP VALUE
 NULL.        -999.2500                            :   NULL VALUE
 COMP.    WHITE YOUN GREEN                         :   COMPANY NAME
 WELL.    HAWTHORN SHAFT                           :   WELL NAME
 FLD.     HAWTHORN                                 :   FIELD NAME
 LOC.     N/A                                      :   LOCATION
 PROV.    N/A                                      :   PROVINCE
 SRVC.    N/A                                      :   SERVICE COMPANY NAME
 DATE.    14 Dec 06                                :   DATE
 UWI.     N/A                                      :   UNIQUE WELL IDENTIFIER
~PARAMETER INFORMATION
#MNEMO.UNIT         VALUE                 DESCRIPTION OF MNEMONIC
#------------------------------------------------------------------------------
~OTHER INFORMATION SECTION
#------------------------------------------------------------------------------
 lLOGGING DOWN
~CURVE INFORMATION
#MNEMO.UNIT         API CODE              CURVE DESCRIPTION
#------------------------------------------------------------------------------
 DEPTH.M                                 :   0     Depth
 TEMP.DegC                               :   1     Temperature
 CN25.mS/cm                              :   2     Conductivity@25DegC
 COND.mS/cm                              :   3     Conductivity
 DELT.DegC                               :   4     Delta T
 DELC.mS/cm                              :   5     Delta C
 NGAM.CPS                                :   6     Natural Gamma
#------------------------------------------------------------------------------
~A  DEPTH     TEMP      CN25      COND      DELT      DELC      NGAM      
# ...
   237.83     12.56      7.81      1.54      0.01     -0.01      0.41 
   237.84     12.56      7.80      1.54      0.01     -0.01      0.41 
   237.85     12.55      7.81      1.54      0.00     -0.00      0.41 
   237.86     12.55      7.81      1.54      0.00      0.00      0.41 
   237.87     12.55      7.81      1.54      0.00     -0.00      0.41 
   237.88     12.56      7.81      1.54      0.01     -0.01      0.41 
   237.89     12.55      7.81      1.54      0.01     -0.01      0.41 
   237.90     12.55      7.81      1.54      0.01     -0.01      0.41 
   237.91     12.55      7.81      1.54      0.00     -0.00      0.41 
   237.92     12.55      7.82      1.54     -0.00      0.00      0.41 
   237.93     12.54      7.82      1.54     -0.00      0.00      0.41 
   237.94     12.54      7.82      1.54     -0.00      0.00      0.41 
   237.95     12.54      7.82      1.54     -0.00      0.00      0.41 
   237.96     12.54      7.82      1.54      0.00      0.00      0.00 
   237.97     12.54      7.82      1.54      0.00     -0.00      0.00 
   237.98     12.54      7.82      1.54     -0.00      0.00      0.00 
   237.99     12.54      7.82      1.54     -0.00      0.01      0.00 
   238.00     12.54      7.83      1.54     -0.01      0.01      0.00 
   238.01     12.54      7.83      1.54     -0.01      0.01      0.00 
   238.02     12.54      7.83      1.54     -0.01      0.01      0.00 
   238.03     12.54      7.83      1.54     -0.01      0.01      0.00 
   238.04     12.53      7.83      1.54     -0.00      0.01      0.00 
   238.05     12.53      7.83      1.54     -0.00      0.00      0.00 
   238.06     12.53      7.83      1.54     -0.00     -0.00      0.00 
   238.07     12.53      7.83      1.54     -0.00      0.00      0.00 
   238.08     12.53      7.83      1.54     -0.00      0.01      0.00 
   238.09     12.54      7.83      1.54     -0.00      0.00      0.00 
   238.10     12.54      7.82      1.54      0.00     -0.00      0.00 
   238.11     12.54      7.82      1.54      0.01     -0.01      0.00 
   238.12     12.55      7.81      1.54      0.01     -0.01      0.00 
   238.13     12.55      7.81      1.54      0.01     -0.01      0.00 
   238.14     12.56      7.81      1.54      0.01     -0.01      0.00 
   238.15     12.56      7.80      1.54      0.01     -0.02      0.00 
   238.16     12.56      7.80      1.54      0.02     -0.02      0.00 
   238.17     12.56      7.80      1.54      0.02     -0.01      0.00 
   238.18     12.57      7.80      1.54      0.02     -0.02      0.00 
   238.19     12.57      7.79      1.54      0.02     -0.03      0.00 
   238.20     12.57      7.79      1.54      0.02     -0.03      0.00 
   238.21     12.57      7.79      1.54      0.02     -0.02      0.00 
   238.22     12.56      7.80      1.54      0.02     -0.02      0.00 
   238.23     12.56      7.80      1.54      0.02     -0.02      0.00 
   238.24     12.56      7.80      1.54      0.02     -0.02      0.00 
   238.25     12.56      7.80      1.54      0.02     -0.02      0.00 
   238.26     12.56      7.81      1.54      0.01     -0.01      0.00 
   238.27     12.55      7.81      1.54      0.01     -0.01      0.00 
   238.28     12.55      7.81      1.54      0.01     -0.02      0.00 
   238.29     12.55      7.81      1.54      0.02     -0.02      0.00 
   238.30     12.55      7.81      1.54      0.01     -0.02      0.00 
   238.31     12.54      7.82      1.54      0.01     -0.01      0.00 
   238.32     12.54      7.82      1.54      0.01     -0.01      0.00 
   238.33     12.54      7.82      1.54      0.01     -0.01      0.00 
   238.34     12.54      7.82      1.54      0.00     -0.00      0.00 
   238.35     12.54      7.82      1.54      0.00      0.00      0.00 
   238.36     12.54      7.82      1.54      0.00     -0.00      0.00 
   238.37     12.54      7.81      1.53      0.00     -0.01      0.00 
   238.38     12.54      7.81      1.53      0.00     -0.01      0.00 
   238.39     12.54      7.81      1.53      0.00     -0.01      0.00 
   238.40     12.54      7.82      1.54      0.00     -0.00      0.41 
   238.41     12.55      7.81      1.54     -0.00     -0.00      0.41 
   238.42     12.55      7.81      1.53      0.00     -0.01      0.41 
   238.43     12.55      7.81      1.53      0.00     -0.01      0.41 
   238.44     12.55      7.81      1.54      0.00     -0.01      0.41 
   238.45     12.55      7.81      1.54      0.01     -0.01      0.41 
   238.46     12.55      7.81      1.53      0.01     -0.01      0.41 
   238.47     12.55      7.81      1.53      0.00     -0.01      0.41 
   238.48     12.55      7.81      1.54      0.00     -0.00      0.82 
   238.49     12.55      7.81      1.54      0.00      0.00      0.82 
   238.50     12.55      7.81      1.54      0.00      0.00      0.82 
   238.51     12.55      7.81      1.54     -0.00     -0.00      0.82 
   238.52     12.55      7.81      1.54     -0.00      0.00      0.82 
   238.53     12.55      7.82      1.54     -0.01      0.01      0.82 
   238.54     12.55      7.82      1.54     -0.01      0.01      0.82 
   238.55     12.55      7.81      1.54     -0.01      0.01      0.82 
   238.56     12.55      7.81      1.54     -0.01      0.01      0.82 
   238.57     12.55      7.82      1.54     -0.01      0.01      0.41 
   238.58     12.55      7.82      1.54     -0.01      0.01      0.41 
   238.59     12.55      7.81      1.54     -0.01      0.00      0.41 
   238.60     12.54      7.82      1.54     -0.01      0.00      0.41 
   238.61     12.54      7.82      1.54     -0.01      0.01      0.41 
   238.62     12.54      7.82      1.54     -0.01      0.01      0.41 
   238.63     12.54      7.82      1.54     -0.01      0.01      0.41 
   238.64     12.55      7.82      1.54     -0.01      0.00      0.41 
   238.65     12.55      7.81      1.54     -0.01      0.01      0.00 
   238.66     12.55      7.82      1.54     -0.01      0.01      0.00 
   238.67     12.55      7.81      1.54     -0.01      0.01      0.00 
   238.68     12.55      7.81      1.54     -0.01      0.00      0.00 
   238.69     12.55      7.81      1.54     -0.01      0.00      0.00 
   238.70     12.55      7.81      1.54     -0.00      0.00      0.00 
   238.71     12.55      7.81      1.54     -0.01      0.01      0.00 
   238.72     12.55      7.81      1.54     -0.01      0.01      0.00 
   238.73     12.55      7.81      1.54     -0.01      0.00      0.00 
   238.74     12.55      7.81      1.54     -0.01      0.01      0.00 
   238.75     12.54      7.82      1.54     -0.01      0.02      0.00 
   238.76     12.54      7.83      1.54     -0.01      0.02      0.00 
   238.77     12.54      7.82      1.54     -0.01      0.01      0.00 
   238.78     12.53      7.83      1.54     -0.01      0.01      0.00 
   238.79     12.53      7.83      1.54     -0.02      0.02      0.00 
   238.80     12.53      7.83      1.54     -0.02      0.02      0.00 
   238.81     12.54      7.83      1.54     -0.02      0.02      0.00 
   238.82     12.54      7.82      1.54     -0.02      0.01      0.00 
   238.83     12.54      7.82      1.54     -0.01      0.01      0.00 
   238.84     12.54      7.82      1.54     -0.01      0.01      0.00 
   238.85     12.54      7.82      1.54     -0.01      0.01      0.00 
   238.86     12.54      7.82      1.54     -0.01      0.01      0.00 
   238.87     12.54      7.82      1.54     -0.01      0.01      0.00 
   238.88     12.54      7.82      1.54     -0.01      0.01      0.00 
   238.89     12.54      7.82      1.54     -0.01      0.01      0.00 
   238.90     12.54      7.82      1.54     -0.01      0.01      0.00 
   238.91     12.54      7.82      1.54     -0.01      0.00      0.00 
   238.92     12.54      7.82      1.54     -0.00      0.00      0.00 
   238.93     12.54      7.82      1.54     -0.01      0.01      0.35 
   238.94     12.54      7.83      1.54     -0.01      0.01      0.35 
   238.95     12.54      7.83      1.54     -0.01      0.01      0.35 
