~Version Information
 VERS.                2.0:  CWLS LOG ASCII STANDARD -VERSION 2.0
 WRAP.                 NO:  ONE LINE PER DEPTH STEP
~WELL INFORMATION BLOCK
#MNEM.UNIT       DATA		            DESCRIPTION OF MNEMONIC
#---------    -------------            ------------------------
 STRT.M   0.200                          :START DEPTH
 STOP.M   429.320                        :STOP DEPTH
 STEP.M   0.020                          :STEP  DOWN_HOLE  
 NULL.    0                              :NULL VALUE
 COMP.                              IMC  :COMPANY
 WELL.                        Hawthorne  :WELL
 FLD .                           Durham  :FIELD
 LOC .    None  None  None               :LOCATION
 CNTY.                      Northumbria  :COUNTY
 STAT.                   None            :STATE
 SRVC.          TRANS                    :SERVICE COMPANY
 DATE.   01/26/00                        :LOG DATE
 UWI .                       	         :UNIQUE WELL ID
 LIC .                                   :LICENSE NUMBER
~Curve Information Block
#MNEM.UNIT      API CODE     Curve Description
#---------    -------------  ------------------------
 DEPT     .M         00 001 00 00          :  1  DEPTH   
 RES(FL)  .OHM-M     00 000 00 00          :  2              RES(FL)
 TEMP     .DEG C     00 660 00 00          :  3                 TEMP
 DEL TEMP .DEG C     00 000 00 00          :  4             DEL TEMP
 SP COND  .US/CM     00 000 00 00          :  5              SP COND
~Parameter Information Block
#MNEM.UNIT   Information     Description
#---------- ---------------  ------------------------
~Other Information
#MNEM.UNIT  Information      Description
#---------- ---------------  ------------------------
 FILE.      ORIGINAL           File Type
 FIID.      9042C              File Type Identifier
 VERS.      1.0                System Version
 SER .      1                  System Serial Number
 TRUK.      0.5                Truck Calibration Number
 TOOL.         870             Tool Serial Number
 TIME.      14:33:             Time
 LAT .          None           Latitude
 LON .          None           Longitude
 LMF .         T.G.L           Log Measured From
 DMF .          None           Driller Measured From
 PD  .          None           Permanent Data
 PDEV.          None           Elevation Permanent Data
 EKB .M         None           Elevation Kelly Bushing
 ELEV.DF        None           Elevation DF
 EGL .M         None           Elevation Ground Level
 DRDP.         36.00           Driller's Depth
 CASD.        11               Casing Diameter
 CASB.         25.00           Casing Bottom
 CASX.       PLASTIC           Casing Type
 CAST.       0.5               Casing Thickness
 TNOC.          None           Time Circulation Stopped
 LOGU.       CENT              Logging Unit
 RECB.             MS/DW       Recorded By
 OSR1.          none           Other Services
 OSR2.          None           Other Services
 OSR3.          None           Other Services
 BS  .MM       11.00           Bit Size
 MST .                         Mean Surface Temperature
 TGRD.        0                Temperature Gradiant
 MAGN.            -6           Magnetic Declination
 MDEN.      2.71               Density Matrix
 MATR.      Limestone          Neutron Matrix
 DTMT.           140           Delta T Matrix
 DTFL.                         Delta T Fluid
 MUDS.               0         Mud Sample Source
 MRS .           0             Mud Resistivity
 MTP .           0             Mud Temperature
 MFRS.                         Resistivity Mud Filtrate
 MFTP.                         Temperature Mud Filtrate
 MCRS.         0               Resistivity Mud Cake
 MCTP.                         Temperature Mud Cake
 FTYP.           H20           Fluid Type
 FD  .K/M3                     Fluid Density
 DFV .S                        Fluid Viscosity
 FPH .                         Fuild PH
 ELCO.        2500             Electron Cutoff
# -------------------------- 
~A DEPTH  RES(FL) TEMP  DEL TEMP SP COND  
# ...
 254.520   14.78  13.1  0.00       676.6  
 254.540   14.78  13.1  -0.00      676.6  
 254.560   14.77  13.1  0.00       677.0  
 254.580   14.78  13.1  0.00       676.6  
 254.600   14.77  13.1  0.00       677.0  
 254.620   14.77  13.1  0.00       677.0  
 254.640   14.77  13.1  0.00       677.0  
 254.660   14.77  13.1  -0.00      677.0  
 254.680   14.77  13.1  0.00       677.0  
 254.700   14.77  13.1  -0.00      677.0  
 254.720   14.77  13.1  0.00       677.0  
 254.740   14.76  13.1  0.00       677.5  
 254.760   14.77  13.1  0.00       677.0  
 254.780   14.77  13.1  0.00       677.0  
 254.800   14.76  13.1  0.00       677.5  
 254.820   14.77  13.1  0.00       677.3  
 254.840   14.77  13.1  0.00       677.0  
 254.860   14.76  13.1  0.00       677.5  
 254.880   14.76  13.1  0.00       677.5  
 254.900   14.76  13.1  0.00       677.5  
 254.920   14.76  13.1  0.00       677.5  
 254.940   14.77  13.1  0.00       677.0  
 254.960   14.76  13.1  0.00       677.5  
 254.980   14.75  13.1  0.00       678.0  
 255.000   14.76  13.1  0.00       677.5  
 255.020   14.76  13.1  -0.00      677.5  
 255.040   14.76  13.1  0.00       677.5  
 255.060   14.75  13.1  -0.00      678.0  
 255.080   14.76  13.1  0.00       677.5  
 255.100   14.76  13.1  -0.00      677.5  
 255.120   14.75  13.1  0.00       678.0  
 255.140   14.76  13.1  -0.00      677.7  
 255.160   14.76  13.1  0.00       677.5  
 255.180   14.75  13.1  0.00       678.0  
 255.200   14.76  13.1  0.00       677.5  
 255.220   14.76  13.1  0.00       677.5  
 255.240   14.76  13.1  -0.00      677.5  
 255.260   14.76  13.1  0.00       677.5  
 255.280   14.75  13.1  0.00       678.0  
 255.300   14.76  13.1  0.00       677.5  
 255.320   14.75  13.1  -0.00      678.0  
 255.340   14.75  13.1  0.00       678.0  
 255.360   14.76  13.1  0.00       677.5  
 255.380   14.75  13.1  0.00       678.0  
 255.400   14.75  13.1  0.00       678.0  
 255.420   14.75  13.1  0.00       678.0  
 255.440   14.75  13.1  0.00       678.0  
 255.460   14.75  13.1  0.00       678.0  
 255.480   14.75  13.1  0.00       678.0  
 255.500   14.75  13.1  0.00       678.0  
 255.520   14.75  13.1  0.00       678.0  
 255.540   14.75  13.1  0.00       678.0  
 255.560   14.75  13.1  0.00       678.0  
 255.580   14.75  13.1  0.00       678.0  
 255.600   14.75  13.1  0.00       678.0  
 255.620   14.75  13.1  0.00       678.0  
 255.640   14.75  13.1  -0.00      678.0  
 255.660   14.75  13.1  0.00       678.0  
 255.680   14.75  13.1  -0.00      678.0  
 255.700   14.75  13.1  0.00       678.0  
 255.720   14.75  13.1  -0.00      678.0  
 255.740   14.75  13.1  0.00       678.0  
 255.760   14.74  13.1  0.00       678.4  
 255.780   14.74  13.1  0.00       678.4  
 255.800   14.75  13.1  0.00       678.0  
 255.820   14.75  13.1  0.00       678.0  
 255.840   14.75  13.1  0.00       678.0  
 255.860   14.75  13.1  0.00       678.0  
 255.880   14.75  13.1  0.00       678.0  
 255.900   14.74  13.1  0.00       678.4  
 255.920   14.75  13.1  -0.00      678.0  
 255.940   14.75  13.1  0.00       678.0  
 255.960   14.75  13.1  0.00       678.0  
 255.980   14.75  13.1  0.00       678.0  
 256.000   14.75  13.1  0.00       678.0  
 256.020   14.74  13.1  0.00       678.4  
 256.040   14.75  13.1  -0.00      678.0  
 256.060   14.75  13.1  0.00       678.0  
 256.080   14.75  13.1  0.00       678.0  
 256.100   14.75  13.1  0.00       678.0  
 256.120   14.74  13.1  0.00       678.4  
 256.140   14.75  13.1  0.00       678.0  
 256.160   14.75  13.1  0.00       678.0  
 256.180   14.75  13.1  0.00       678.0  
 256.200   14.75  13.1  0.00       678.0  
 256.220   14.75  13.1  0.00       678.0  
 256.240   14.74  13.1  0.00       678.2  
 256.260   14.75  13.1  0.00       678.0  
 256.280   14.75  13.1  0.00       678.0  
 256.300   14.75  13.1  0.00       678.0  
 256.320   14.75  13.1  0.00       678.0  
 256.340   14.74  13.1  -0.00      678.4  
 256.360   14.75  13.1  0.00       678.0  
 256.380   14.75  13.1  -0.00      678.0  
 256.400   14.75  13.1  0.00       678.0  
 256.420   14.75  13.1  0.00       678.0  
 256.440   14.75  13.1  -0.00      678.0  
 256.460   14.75  13.1  0.00       678.0  
 256.480   14.75  13.1  0.00       678.0  
 256.500   14.75  13.1  0.00       678.0  
 256.520   14.75  13.1  0.00       678.0  
 256.540   14.74  13.1  0.00       678.4  
 256.560   14.75  13.1  0.00       678.0  
 256.580   14.75  13.1  0.00       678.0  
 256.600   14.75  13.1  0.00       678.0  
 256.620   14.75  13.1  0.00       678.0  
 256.640   14.75  13.1  0.00       678.0  
 256.660   14.75  13.1  0.00       678.0  
 256.680   14.75  13.1  0.00       678.0  
 256.700   14.75  13.1  0.00       678.0  
 256.720   14.75  13.1  0.00       678.0  
 256.740   14.75  13.1  0.00       678.0  
 256.760   14.75  13.1  0.00       678.0  
 256.780   14.75  13.1  0.00       678.0  
 256.800   14.75  13.1  0.00       678.0  
 256.820   14.75  13.1  0.00       678.0  
 256.840   14.75  13.1  0.00       678.0  
 256.860   14.75  13.1  0.00       678.0  
 256.880   14.75  13.1  0.00       678.0  
 256.900   14.76  13.1  0.00       677.7  
 256.920   14.75  13.1  0.00       678.0  
 256.940   14.75  13.1  0.00       678.0  
 256.960   14.76  13.1  0.00       677.5  
 256.980   14.75  13.1  0.00       678.0  
 257.000   14.75  13.1  0.00       678.0  
 257.020   14.75  13.1  0.00       678.0  
 257.040   14.75  13.1  0.00       678.0  
 257.060   14.76  13.1  0.00       677.5  
 257.080   14.75  13.1  0.00       678.0  
 257.100   14.76  13.1  0.00       677.7  
 257.120   14.76  13.1  0.00       677.5  
 257.140   14.75  13.1  0.00       678.0  
 257.160   14.76  13.1  0.00       677.5  
 257.180   14.76  13.1  0.00       677.5  
 257.200   14.75  13.1  0.00       678.0  
 257.220   14.75  13.1  0.00       678.0  
 257.240   14.75  13.1  -0.00      678.0  
 257.260   14.76  13.1  -0.00      677.5  
 257.280   14.76  13.1  0.00       677.5  
 257.300   14.76  13.1  0.00       677.5  
 257.320   14.76  13.1  0.00       677.5  
 257.340   14.76  13.1  0.00       677.5  
 257.360   14.76  13.1  0.00       677.5  
 257.380   14.76  13.1  0.00       677.5  
 257.400   14.76  13.1  0.00       677.5  
 257.420   14.76  13.1  0.00       677.5  
 257.440   14.76  13.1  0.00       677.5  
 257.460   14.76  13.1  0.00       677.5  
 257.480   14.76  13.1  0.00       677.5  
 257.500   14.77  13.1  0.00       677.3  
 257.520   14.76  13.1  -0.00      677.5  
 257.540   14.76  13.1  0.00       677.5  
 257.560   14.76  13.1  0.00       677.5  
 257.580   14.76  13.1  0.00       677.5  
 257.600   14.76  13.1  0.00       677.5  
 257.620   14.76  13.1  0.00       677.5  
 257.640   14.76  13.1  0.00       677.5  
 257.660   14.76  13.1  0.00       677.5  
 257.680   14.77  13.1  0.00       677.3  
 257.700   14.77  13.1  0.00       677.0  
 257.720   14.76  13.1  0.00       677.5  
 257.740   14.77  13.1  -0.00      677.0  
 257.760   14.76  13.1  0.00       677.5  
 257.780   14.77  13.1  0.00       677.0  
 257.800   14.76  13.1  0.00       677.5  
 257.820   14.77  13.1  0.00       677.0  
 257.840   14.77  13.1  0.00       677.0  
 257.860   14.77  13.1  0.00       677.0  
 257.880   14.77  13.1  0.00       677.0  
 257.900   14.76  13.1  0.00       677.5  
 257.920   14.77  13.1  0.00       677.0  
 257.940   14.77  13.1  0.00       677.0  
 257.960   14.77  13.1  0.00       677.0  
 257.980   14.76  13.1  0.00       677.5  
 258.000   14.77  13.1  0.00       677.0  
 258.020   14.77  13.1  0.00       677.0  
 258.040   14.77  13.1  0.00       677.0  
 258.060   14.77  13.1  0.00       677.0  
 258.080   14.77  13.1  0.00       677.0  
 258.100   14.77  13.1  0.00       677.0  
 258.120   14.77  13.1  0.00       677.0  
 258.140   14.77  13.1  0.00       677.0  
 258.160   14.77  13.1  0.00       677.0  
 258.180   14.77  13.1  0.00       677.0  
 258.200   14.77  13.1  0.00       677.0  
 258.220   14.77  13.1  0.00       677.0  
 258.240   14.77  13.1  0.00       677.0  
