#Written by Robertson Geologging WinLogger V1.0/370
~VERSION INFORMATION
#------------------------------------------------------------------------------
 VERS. 2.0 : CWLS LOG ASCII STANDARD - VERSION 2.0
 WRAP. NO  : ONE LINE PER DEPTH STEP
~WELL INFORMATION
#MNEM.UNIT         DATA                                DESCRIPTION OF MNEMONIC
#------------------------------------------------------------------------------
 STRT.M        118.0500                            :   START DEPTH
 STOP.M        420.0800                            :   STOP DEPTH
 STEP.M          0.0100                            :   STEP VALUE
 NULL.        -999.2500                            :   NULL VALUE
 COMP.    WHITE YOUN GREEN                         :   COMPANY NAME
 WELL.    HAWTHORN SHAFT                           :   WELL NAME
 FLD.     HAWTHORN                                 :   FIELD NAME
 LOC.     N/A                                      :   LOCATION
 PROV.    N/A                                      :   PROVINCE
 SRVC.    N/A                                      :   SERVICE COMPANY NAME
 DATE.    14 Dec 06                                :   DATE
 UWI.     N/A                                      :   UNIQUE WELL IDENTIFIER
~PARAMETER INFORMATION
#MNEMO.UNIT         VALUE                 DESCRIPTION OF MNEMONIC
#------------------------------------------------------------------------------
~OTHER INFORMATION SECTION
#------------------------------------------------------------------------------
 lLOGGING DOWN
~CURVE INFORMATION
#MNEMO.UNIT         API CODE              CURVE DESCRIPTION
#------------------------------------------------------------------------------
 DEPTH.M                                 :   0     Depth
 TEMP.DegC                               :   1     Temperature
 CN25.mS/cm                              :   2     Conductivity@25DegC
 COND.mS/cm                              :   3     Conductivity
 DELT.DegC                               :   4     Delta T
 DELC.mS/cm                              :   5     Delta C
 NGAM.CPS                                :   6     Natural Gamma
#------------------------------------------------------------------------------
~A  DEPTH     TEMP      CN25      COND      DELT      DELC      NGAM      
# ...
   218.62     12.54      7.82      1.54     -0.01      0.01      0.00 
   218.63     12.54      7.82      1.54     -0.01      0.01      0.41 
   218.64     12.54      7.82      1.54     -0.01      0.01      0.41 
   218.65     12.54      7.82      1.54     -0.01      0.01      0.41 
   218.66     12.54      7.83      1.54     -0.01      0.01      0.41 
   218.67     12.54      7.82      1.54     -0.01      0.01      0.41 
   218.68     12.54      7.82      1.54     -0.01      0.01      0.41 
   218.69     12.54      7.82      1.54     -0.00      0.00      0.41 
   218.70     12.54      7.82      1.54     -0.00      0.00      0.41 
   218.71     12.54      7.83      1.54     -0.00      0.00      0.41 
   218.72     12.54      7.82      1.54     -0.00     -0.00      0.41 
   218.73     12.54      7.82      1.54      0.00     -0.00      0.41 
   218.74     12.54      7.82      1.54      0.00     -0.00      0.41 
   218.75     12.54      7.82      1.54      0.00     -0.00      0.41 
   218.76     12.54      7.82      1.54      0.00     -0.00      0.41 
   218.77     12.54      7.82      1.54      0.00     -0.00      0.41 
   218.78     12.54      7.82      1.54     -0.00      0.00      0.41 
   218.79     12.54      7.82      1.54     -0.00      0.00      0.41 
   218.80     12.54      7.82      1.54     -0.00      0.00      0.00 
   218.81     12.54      7.82      1.54     -0.00      0.00      0.00 
   218.82     12.54      7.82      1.54     -0.01      0.01      0.00 
   218.83     12.54      7.82      1.54     -0.01      0.01      0.00 
   218.84     12.54      7.82      1.54     -0.01      0.01      0.00 
   218.85     12.54      7.82      1.54     -0.01      0.01      0.00 
   218.86     12.54      7.83      1.54     -0.01      0.01      0.00 
   218.87     12.53      7.83      1.54     -0.02      0.02      0.00 
   218.88     12.53      7.83      1.54     -0.02      0.02      0.00 
   218.89     12.53      7.83      1.54     -0.02      0.02      0.00 
   218.90     12.53      7.83      1.54     -0.02      0.02      0.00 
   218.91     12.53      7.83      1.54     -0.01      0.02      0.00 
   218.92     12.53      7.83      1.54     -0.01      0.02      0.00 
   218.93     12.53      7.83      1.54     -0.01      0.02      0.00 
   218.94     12.53      7.83      1.54     -0.01      0.02      0.00 
   218.95     12.53      7.83      1.54     -0.01      0.01      0.00 
   218.96     12.54      7.83      1.54     -0.00      0.01      0.47 
   218.97     12.54      7.82      1.54      0.00     -0.00      0.47 
   218.98     12.54      7.82      1.54      0.01     -0.01      0.47 
   218.99     12.54      7.82      1.54      0.01     -0.01      0.47 
   219.00     12.54      7.82      1.54      0.01     -0.01      0.47 
   219.01     12.54      7.83      1.54      0.00     -0.00      0.47 
   219.02     12.54      7.82      1.54      0.00     -0.00      0.47 
   219.03     12.54      7.82      1.54     -0.00      0.00      0.47 
   219.04     12.54      7.82      1.54     -0.00      0.00      0.47 
   219.05     12.54      7.82      1.54     -0.00      0.00      0.47 
   219.06     12.54      7.83      1.54     -0.00      0.00      0.94 
   219.07     12.54      7.83      1.54     -0.01      0.01      0.94 
   219.08     12.53      7.83      1.54     -0.01      0.01      0.94 
   219.09     12.53      7.83      1.54     -0.01      0.01      0.94 
   219.10     12.53      7.83      1.54     -0.01      0.01      0.94 
   219.11     12.53      7.83      1.54     -0.01      0.01      0.94 
   219.12     12.54      7.83      1.54     -0.01      0.01      0.94 
   219.13     12.54      7.82      1.54     -0.01      0.01      0.47 
   219.14     12.54      7.82      1.54     -0.01      0.01      0.47 
   219.15     12.54      7.82      1.54     -0.01      0.01      0.47 
   219.16     12.54      7.83      1.54     -0.01      0.01      0.47 
   219.17     12.53      7.83      1.54     -0.01      0.01      0.47 
   219.18     12.53      7.83      1.54     -0.01      0.01      0.47 
   219.19     12.53      7.83      1.54     -0.01      0.01      0.47 
   219.20     12.53      7.83      1.54     -0.01      0.01      0.47 
   219.21     12.53      7.83      1.54     -0.01      0.00      0.47 
   219.22     12.54      7.83      1.54     -0.00      0.01      0.47 
   219.23     12.53      7.83      1.54     -0.01      0.01      0.00 
   219.24     12.53      7.83      1.54     -0.01      0.01      0.00 
   219.25     12.53      7.83      1.54     -0.01      0.01      0.00 
   219.26     12.53      7.83      1.54     -0.01      0.01      0.00 
   219.27     12.54      7.83      1.54     -0.01      0.01      0.00 
   219.28     12.54      7.82      1.54     -0.00      0.00      0.00 
   219.29     12.54      7.82      1.54     -0.00      0.00      0.00 
   219.30     12.54      7.82      1.54     -0.00      0.01      0.00 
   219.31     12.54      7.82      1.54     -0.00      0.00      0.00 
   219.32     12.54      7.82      1.54     -0.01      0.01      0.00 
   219.33     12.54      7.82      1.54     -0.01      0.01      0.00 
   219.34     12.54      7.82      1.54     -0.01      0.01      0.00 
   219.35     12.54      7.82      1.54     -0.01      0.01      0.00 
   219.36     12.54      7.82      1.54     -0.01      0.01      0.00 
   219.37     12.54      7.82      1.54     -0.01      0.01      0.00 
   219.38     12.54      7.82      1.54     -0.01      0.01      0.00 
   219.39     12.53      7.83      1.54     -0.02      0.02      0.00 
   219.40     12.53      7.83      1.54     -0.02      0.02      0.00 
   219.41     12.53      7.83      1.54     -0.01      0.02      0.00 
   219.42     12.53      7.83      1.54     -0.02      0.02      0.00 
   219.43     12.53      7.83      1.54     -0.01      0.02      0.00 
   219.44     12.53      7.83      1.54     -0.01      0.01      0.41 
   219.45     12.53      7.83      1.54     -0.01      0.01      0.41 
   219.46     12.53      7.83      1.54     -0.01      0.01      0.41 
   219.47     12.54      7.82      1.54     -0.01      0.01      0.41 
   219.48     12.54      7.82      1.54     -0.00      0.00      0.41 
   219.49     12.54      7.82      1.54      0.00     -0.00      0.41 
   219.50     12.55      7.81      1.54      0.01     -0.01      0.41 
   219.51     12.55      7.82      1.54      0.01     -0.01      0.41 
   219.52     12.55      7.81      1.54      0.01     -0.01      0.41 
   219.53     12.55      7.81      1.54      0.01     -0.01      0.41 
   219.54     12.55      7.81      1.54      0.01     -0.01      0.41 
   219.55     12.55      7.81      1.54      0.01     -0.01      0.41 
   219.56     12.55      7.82      1.54      0.01     -0.01      0.41 
   219.57     12.55      7.81      1.54      0.00     -0.00      0.41 
   219.58     12.54      7.82      1.54      0.00     -0.00      0.41 
   219.59     12.54      7.82      1.54      0.00     -0.00      0.41 
   219.60     12.54      7.82      1.54      0.00     -0.00      0.41 
   219.61     12.54      7.82      1.54     -0.00      0.00      0.00 
   219.62     12.54      7.82      1.54     -0.00     -0.00      0.00 
   219.63     12.54      7.82      1.54      0.00     -0.00      0.00 
   219.64     12.54      7.82      1.54      0.00     -0.00      0.00 
   219.65     12.54      7.82      1.54      0.00     -0.01      0.00 
   219.66     12.54      7.82      1.54      0.00     -0.00      0.00 
   219.67     12.54      7.82      1.54      0.01     -0.01      0.00 
   219.68     12.54      7.82      1.54      0.01     -0.01      0.00 
   219.69     12.54      7.82      1.54      0.01     -0.01      0.00 
   219.70     12.54      7.82      1.54      0.00     -0.01      0.00 
   219.71     12.54      7.82      1.54      0.00      0.00      0.00 
   219.72     12.54      7.82      1.54     -0.00      0.00      0.00 
   219.73     12.54      7.82      1.54     -0.00      0.00      0.00 
   219.74     12.54      7.82      1.54     -0.01      0.01      0.00 
