#Written by Robertson Geologging WinLogger V1.0/406
~VERSION INFORMATION
#------------------------------------------------------------------------------
 VERS. 2.0 : CWLS LOG ASCII STANDARD - VERSION 2.0
 WRAP. NO  : ONE LINE PER DEPTH STEP
~WELL INFORMATION
#MNEM.UNIT         DATA                                DESCRIPTION OF MNEMONIC
#------------------------------------------------------------------------------
 STRT.M        115.9300                            :   START DEPTH
 STOP.M        440.0000                            :   STOP DEPTH
 STEP.M          0.0100                            :   STEP VALUE
 NULL.        -999.2500                            :   NULL VALUE
 COMP.    Coal Authority                           :   COMPANY NAME
 WELL.    Hawthorn Shaft                           :   WELL NAME
 FLD.     Hawthorn                                 :   FIELD NAME
 LOC.     N/A                                      :   LOCATION
 PROV.    N/A                                      :   PROVINCE
 SRVC.    N/A                                      :   SERVICE COMPANY NAME
 DATE.    28 Aug 08                                :   DATE
 UWI.     N/A                                      :   UNIQUE WELL IDENTIFIER
~PARAMETER INFORMATION
#MNEMO.UNIT         VALUE                 DESCRIPTION OF MNEMONIC
#------------------------------------------------------------------------------
~OTHER INFORMATION SECTION
#------------------------------------------------------------------------------
 TCGS 1365
 Logged in low conductivity mode as starting readings were so low.
~CURVE INFORMATION
#MNEMO.UNIT         API CODE              CURVE DESCRIPTION
#------------------------------------------------------------------------------
 DEPTH.M                                 :   0     Depth
 TEMP.DegC                               :   1     Temperature
 CN25.uS/cm                              :   2     Conductivity@25DegC
 DELT.DegC                               :   3     Delta T
 DELC.uS/cm                              :   4     Delta C
 NGAM.CPS                                :   5     Natural Gamma
 COND.uS/cm                              :   6     Conductivity
#------------------------------------------------------------------------------
~A  DEPTH     TEMP      CN25      DELT      DELC      NGAM      COND      
   115.93     15.45     21.26      0.00      0.00     21.00     14.95 
   115.94     15.45     31.18      0.00      0.00      0.00     22.98 
   115.95     15.44     21.27      0.00      0.00     14.00     14.95 
   115.96     15.44     22.37      0.00      0.00     33.00     15.85 
   115.97     15.43     29.00      0.00      0.00     21.00     21.19 
   115.98     15.43     21.29      0.00      0.00     35.00     14.95 
   115.99     15.43     22.39      0.00      0.00      0.00     15.85 
   116.00     15.43     29.00      0.00      0.00      0.00     21.19 
   116.01     15.43     21.29      0.00      0.00     28.00     14.95 
   116.02     15.44     22.37      0.00      0.00     16.00     15.85 
   116.03     15.44     28.99      0.00      0.00     14.00     21.19 
   116.04     15.43     21.29      0.00      0.00     57.00     14.95 
   116.05     15.43     22.39      0.00      0.00     25.00     15.85 
   116.06     15.43     29.01      0.00      0.00     35.00     21.19 
   116.07     15.43     21.29      0.00      0.00     21.00     14.95 
   116.08     15.44     31.19      0.00      0.00      8.00     22.98 
   116.09     15.43     21.29      0.00      0.00     14.00     14.95 
   116.10     15.42     21.30      0.00      0.00     14.00     14.95 
   116.11     15.42     31.22      0.00      0.00     33.00     22.98 
   116.12     15.41     21.32      0.00      0.00     35.00     14.95 
   116.13     15.42     21.31      0.00      0.00     21.00     14.95 
   116.14     15.42     31.22      0.00      0.00      0.00     22.98 
   116.15     15.42     21.30      0.00      0.00     42.00     14.95 
   116.16     15.42     29.02      0.00      0.00     50.00     21.19 
   116.17     15.43     22.40      0.00      0.00      8.00     15.85 
   116.18     15.42     21.30      0.00      0.00     28.00     14.95 
   116.19     15.41     29.04      0.00      0.00      7.00     21.19 
   116.20     15.42     22.41      0.00      0.00     33.00     15.85 
   116.21     15.41     21.32      0.00      0.00     14.00     14.95 
   116.22     15.42     29.03      0.00      0.00     35.00     21.19 
   116.23     15.43     22.39      0.00      0.00     16.00     15.85 
   116.24     15.42     21.30      0.00      0.00     28.00     14.95 
   116.25     15.42     22.40      0.00      0.00      8.00     15.85 
   116.26     15.43     29.01      0.00      0.00     28.00     21.19 
   116.27     15.42     21.31      0.00      0.00     21.00     14.95 
   116.28     15.42     31.22      0.00      0.00      8.00     22.98 
   116.29     15.42     21.30      0.00      0.00      7.00     14.95 
   116.30     15.42     22.41      0.00      0.00      0.00     15.85 
   116.31     15.42     29.03      0.00      0.00     35.00     21.19 
   116.32     15.42     21.31      0.00      0.00     21.00     14.95 
   116.33     15.43     22.40      0.00      0.00     25.00     15.85 
   116.34     15.42     29.02      0.00      0.00      7.00     21.19 
   116.35     15.43     22.40      0.00      0.00     25.00     15.85 
   116.36     15.43     21.29      0.00      0.00     14.00     14.95 
   116.37     15.43     29.01      0.00      0.00     14.00     21.19 
   116.38     15.42     22.40      0.00      0.00      0.00     15.85 
   116.39     15.41     21.32      0.00      0.00     14.00     14.95 
   116.40     15.42     31.23      0.00      0.00     25.00     22.98 
   116.41     15.41     21.32      0.00      0.00      7.00     14.95 
   116.42     15.41     22.42      0.00      0.00     25.00     15.85 
   116.43     15.42     29.03      0.00      0.00     14.00     21.19 
   116.44     15.41     22.43      0.00      0.00      0.00     15.85 
   116.45     15.41     21.32      0.00      0.00     21.00     14.95 
   116.46     15.41     29.04      0.00      0.00     28.00     21.19 
   116.47     15.42     22.41      0.00      0.00      8.00     15.85 
   116.48     15.42     21.30      0.00      0.00     21.00     14.95 
   116.49     15.43     31.22      0.00      0.00     25.00     22.98 
   116.50     15.43     21.29      0.00      0.00     14.00     14.95 
   116.51     15.42     22.40      0.00      0.00      8.00     15.85 
   116.52     15.42     29.02      0.00      0.00     21.00     21.19 
   116.53     15.42     21.31      0.00      0.00     14.00     14.95 
   116.54     15.41     22.42      0.00      0.00     16.00     15.85 
   116.55     15.41     29.04      0.00      0.00     42.00     21.19 
   116.56     15.41     22.43      0.00      0.00     25.00     15.85 
   116.57     15.41     21.32      0.00      0.00     28.00     14.95 
   116.58     15.41     29.04      0.00      0.00     28.00     21.19 
   116.59     15.41     22.42      0.00      0.00     16.00     15.85 
   116.60     15.41     21.32      0.00      0.00     14.00     14.95 
   116.61     15.41     31.24      0.00      0.00      8.00     22.98 
   116.62     15.41     21.32      0.00      0.00     28.00     14.95 
   116.63     15.42     22.41      0.00      0.00     50.00     15.85 
   116.64     15.42     29.02      0.00      0.00     14.00     21.19 
   116.65     15.42     21.31      0.00      0.00     35.00     14.95 
   116.66     15.43     22.40      0.00      0.00      8.00     15.85 
   116.67     15.42     29.03      0.00      0.00     28.00     21.19 
   116.68     15.42     22.41     -0.06     -3.21     25.00     15.85 
   116.69     15.41     21.32     -0.06     -2.11     21.00     14.95 
   116.70     15.41     29.04     -0.06      2.30     28.00     21.19 
   116.71     15.41     22.42     -0.05     -2.13     25.00     15.85 
   116.72     15.41     21.32     -0.04     -3.24     14.00     14.95 
   116.73     15.41     31.24     -0.05      5.59     16.00     22.98 
   116.74     15.41     21.32     -0.05      1.18     35.00     14.95 
   116.75     15.42     22.41     -0.05     -4.33     16.00     15.85 
   116.76     15.41     29.04     -0.05      2.29      7.00     21.19 
   116.77     15.41     22.42     -0.05      1.18     25.00     15.85 
   116.78     15.41     21.32     -0.05     -5.43     28.00     14.95 
   116.79     15.40     31.26     -0.04     10.00     16.00     22.98 
   116.80     15.40     21.33     -0.05     -5.44     28.00     14.95 
   116.81     15.40     22.43     -0.04      1.16     16.00     15.85 
   116.82     15.41     29.04     -0.04      7.78      7.00     21.19 
   116.83     15.41     22.43     -0.04     -6.54     50.00     15.85 
   116.84     15.40     21.33     -0.04      0.06      0.00     14.95 
   116.85     15.41     22.43     -0.04     -6.55      0.00     15.85 
   116.86     15.40     29.05     -0.04      7.78      7.00     21.19 
   116.87     15.40     22.43     -0.03     -6.57      0.00     15.85 
   116.88     15.40     29.06     -0.04      7.78      7.00     21.19 
   116.89     15.39     22.45     -0.03      0.05     16.00     15.85 
   116.90     15.39     21.34     -0.04     -7.65     14.00     14.95 
   116.91     15.39     22.45     -0.05      1.18      8.00     15.85 
   116.92     15.40     29.06     -0.05      7.80     28.00     21.19 
   116.93     15.40     21.33     -0.04     -9.85     21.00     14.95 
   116.94     15.41     22.42     -0.03      1.15     33.00     15.85 
   116.95     15.41     29.04     -0.03      6.67      0.00     21.19 
   116.96     15.41     22.43     -0.02     -6.58     25.00     15.85 
   116.97     15.39     21.34     -0.03      0.05      7.00     14.95 
   116.98     15.39     29.08     -0.04      6.69      0.00     21.19 
   116.99     15.40     22.43     -0.03     -6.57     16.00     15.85 
   117.00     15.41     29.04     -0.02      7.75      7.00     21.19 
   117.01     15.41     21.32     -0.03     -1.06     14.00     14.95 
   117.02     15.41     22.42     -0.02     -6.58     16.00     15.85 
   117.03     15.40     29.06     -0.03      7.77     14.00     21.19 
   117.04     15.39     21.35     -0.04     -1.04     14.00     14.95 
   117.05     15.39     22.46     -0.04     -6.55      8.00     15.85 
