#Written by Robertson Geologging WinLogger V1.0/370
~VERSION INFORMATION
#------------------------------------------------------------------------------
 VERS. 2.0 : CWLS LOG ASCII STANDARD - VERSION 2.0
 WRAP. NO  : ONE LINE PER DEPTH STEP
~WELL INFORMATION
#MNEM.UNIT         DATA                                DESCRIPTION OF MNEMONIC
#------------------------------------------------------------------------------
 STRT.M        118.0500                            :   START DEPTH
 STOP.M        420.0800                            :   STOP DEPTH
 STEP.M          0.0100                            :   STEP VALUE
 NULL.        -999.2500                            :   NULL VALUE
 COMP.    WHITE YOUN GREEN                         :   COMPANY NAME
 WELL.    HAWTHORN SHAFT                           :   WELL NAME
 FLD.     HAWTHORN                                 :   FIELD NAME
 LOC.     N/A                                      :   LOCATION
 PROV.    N/A                                      :   PROVINCE
 SRVC.    N/A                                      :   SERVICE COMPANY NAME
 DATE.    14 Dec 06                                :   DATE
 UWI.     N/A                                      :   UNIQUE WELL IDENTIFIER
~PARAMETER INFORMATION
#MNEMO.UNIT         VALUE                 DESCRIPTION OF MNEMONIC
#------------------------------------------------------------------------------
~OTHER INFORMATION SECTION
#------------------------------------------------------------------------------
 lLOGGING DOWN
~CURVE INFORMATION
#MNEMO.UNIT         API CODE              CURVE DESCRIPTION
#------------------------------------------------------------------------------
 DEPTH.M                                 :   0     Depth
 TEMP.DegC                               :   1     Temperature
 CN25.mS/cm                              :   2     Conductivity@25DegC
 COND.mS/cm                              :   3     Conductivity
 DELT.DegC                               :   4     Delta T
 DELC.mS/cm                              :   5     Delta C
 NGAM.CPS                                :   6     Natural Gamma
#------------------------------------------------------------------------------
~A  DEPTH     TEMP      CN25      COND      DELT      DELC      NGAM      
# ...
   258.17     12.55      7.82      1.54      0.01     -0.01      0.00 
   258.18     12.55      7.81      1.54      0.01     -0.01      0.00 
   258.19     12.55      7.81      1.54      0.01     -0.01      0.00 
   258.20     12.55      7.81      1.54      0.00     -0.00      0.00 
   258.21     12.55      7.81      1.54      0.00      0.00      0.00 
   258.22     12.55      7.81      1.54     -0.00     -0.00      0.00 
   258.23     12.55      7.81      1.54     -0.00      0.00      0.00 
   258.24     12.55      7.81      1.54     -0.01      0.01      0.00 
   258.25     12.55      7.81      1.54     -0.01      0.01      0.00 
   258.26     12.55      7.81      1.54     -0.01      0.02      0.00 
   258.27     12.55      7.81      1.54     -0.01      0.01      0.00 
   258.28     12.55      7.81      1.54     -0.02      0.02      0.00 
   258.29     12.55      7.81      1.54     -0.02      0.02      0.00 
   258.30     12.55      7.81      1.54     -0.01      0.02      0.00 
   258.31     12.55      7.81      1.54     -0.01      0.01      0.00 
   258.32     12.55      7.81      1.54     -0.01      0.01      0.00 
   258.33     12.55      7.81      1.54     -0.01      0.01      0.00 
   258.34     12.56      7.80      1.54     -0.01      0.01      0.00 
   258.35     12.56      7.81      1.54     -0.01      0.01      0.00 
   258.36     12.56      7.81      1.54     -0.00      0.00      0.00 
   258.37     12.56      7.80      1.54     -0.00     -0.00      0.00 
   258.38     12.56      7.80      1.54      0.00     -0.00      0.00 
   258.39     12.56      7.80      1.54      0.00     -0.00      0.00 
   258.40     12.56      7.80      1.54      0.00      0.00      0.00 
   258.41     12.56      7.80      1.54      0.00     -0.00      0.00 
   258.42     12.56      7.80      1.54     -0.00      0.00      0.00 
   258.43     12.55      7.81      1.54     -0.00      0.01      0.00 
   258.44     12.55      7.81      1.54     -0.00      0.01      0.00 
   258.45     12.55      7.81      1.54     -0.00      0.00      0.00 
   258.46     12.55      7.81      1.54     -0.00     -0.00      0.00 
   258.47     12.55      7.81      1.54     -0.00      0.00      0.41 
   258.48     12.55      7.81      1.54     -0.01      0.00      0.41 
   258.49     12.55      7.82      1.54     -0.01      0.01      0.41 
   258.50     12.54      7.82      1.54     -0.01      0.01      0.41 
   258.51     12.54      7.82      1.54     -0.02      0.01      0.41 
   258.52     12.54      7.82      1.54     -0.02      0.02      0.41 
   258.53     12.54      7.82      1.54     -0.02      0.02      0.41 
   258.54     12.54      7.82      1.54     -0.02      0.02      0.41 
   258.55     12.54      7.82      1.54     -0.02      0.01      0.41 
   258.56     12.54      7.82      1.54     -0.02      0.02      0.41 
   258.57     12.54      7.82      1.54     -0.02      0.02      0.41 
   258.58     12.54      7.82      1.54     -0.02      0.03      0.41 
   258.59     12.54      7.82      1.54     -0.03      0.03      0.41 
   258.60     12.54      7.82      1.54     -0.03      0.03      0.41 
   258.61     12.54      7.82      1.54     -0.03      0.03      0.41 
   258.62     12.54      7.82      1.54     -0.03      0.03      0.41 
   258.63     12.54      7.82      1.54     -0.03      0.03      0.76 
   258.64     12.54      7.82      1.54     -0.03      0.03      0.35 
   258.65     12.54      7.82      1.54     -0.03      0.02      0.35 
   258.66     12.54      7.82      1.54     -0.03      0.03      0.35 
   258.67     12.54      7.82      1.54     -0.03      0.03      0.35 
   258.68     12.54      7.82      1.54     -0.02      0.03      0.35 
   258.69     12.54      7.82      1.54     -0.02      0.02      0.35 
   258.70     12.55      7.81      1.54     -0.02      0.02      0.35 
   258.71     12.55      7.81      1.54     -0.01      0.01      0.35 
   258.72     12.55      7.81      1.54     -0.01      0.01      0.35 
   258.73     12.55      7.81      1.54     -0.01      0.01      0.35 
   258.74     12.55      7.81      1.54     -0.01      0.01      0.35 
   258.75     12.56      7.80      1.54     -0.01      0.01      0.35 
   258.76     12.56      7.80      1.54     -0.00      0.00      0.35 
   258.77     12.56      7.80      1.54     -0.00      0.00      0.35 
   258.78     12.56      7.80      1.54      0.00     -0.01      0.35 
   258.79     12.56      7.80      1.54      0.00     -0.01      0.35 
   258.80     12.56      7.80      1.54      0.00     -0.00      0.00 
   258.81     12.56      7.80      1.54      0.00      0.00      0.00 
   258.82     12.56      7.81      1.54      0.00      0.00      0.00 
   258.83     12.55      7.81      1.54     -0.00     -0.00      0.00 
   258.84     12.55      7.81      1.54     -0.00      0.00      0.00 
   258.85     12.55      7.81      1.54     -0.00      0.00      0.00 
   258.86     12.55      7.82      1.54     -0.00      0.01      0.00 
   258.87     12.55      7.82      1.54     -0.00      0.00      0.00 
   258.88     12.54      7.82      1.54     -0.01      0.00      0.00 
   258.89     12.54      7.82      1.54     -0.01      0.01      0.00 
   258.90     12.54      7.82      1.54     -0.01      0.01      0.00 
   258.91     12.54      7.82      1.54     -0.01      0.01      0.00 
   258.92     12.55      7.81      1.54     -0.00      0.00      0.00 
   258.93     12.55      7.81      1.54     -0.00     -0.00      0.00 
   258.94     12.55      7.81      1.54      0.00     -0.00      0.00 
   258.95     12.56      7.81      1.54      0.01     -0.00      0.00 
   258.96     12.56      7.81      1.54      0.01     -0.01      0.00 
   258.97     12.56      7.80      1.54      0.01     -0.02      0.00 
   258.98     12.56      7.80      1.54      0.01     -0.01      0.00 
   258.99     12.56      7.80      1.54      0.01     -0.01      0.00 
   259.00     12.56      7.80      1.54      0.01     -0.01      0.00 
   259.01     12.56      7.80      1.54      0.01     -0.01      0.00 
   259.02     12.56      7.80      1.54      0.01     -0.01      0.00 
   259.03     12.56      7.80      1.54      0.01     -0.01      0.00 
   259.04     12.56      7.80      1.54      0.01     -0.01      0.00 
   259.05     12.56      7.81      1.54      0.00     -0.00      0.41 
   259.06     12.55      7.81      1.54      0.00     -0.01      0.41 
   259.07     12.55      7.81      1.54      0.00     -0.00      0.41 
   259.08     12.55      7.81      1.54      0.00     -0.00      0.41 
   259.09     12.55      7.81      1.54      0.01     -0.00      0.41 
   259.10     12.55      7.81      1.54      0.01     -0.01      0.41 
   259.11     12.56      7.80      1.54      0.01     -0.01      0.41 
   259.12     12.56      7.80      1.54      0.01     -0.01      0.41 
   259.13     12.56      7.80      1.54      0.01     -0.01      0.41 
   259.14     12.56      7.81      1.54      0.01     -0.01      0.41 
   259.15     12.55      7.81      1.54      0.01     -0.01      0.41 
   259.16     12.55      7.81      1.54      0.01     -0.01      0.41 
   259.17     12.55      7.81      1.54      0.00     -0.00      0.41 
   259.18     12.55      7.81      1.54      0.00     -0.00      0.41 
   259.19     12.55      7.81      1.54      0.00      0.00      0.41 
   259.20     12.55      7.81      1.54      0.00     -0.00      0.41 
   259.21     12.55      7.81      1.54     -0.00      0.00      0.41 
   259.22     12.55      7.81      1.54     -0.00      0.00      0.00 
   259.23     12.55      7.81      1.54     -0.00      0.01      0.41 
   259.24     12.55      7.81      1.54     -0.00      0.01      0.41 
   259.25     12.55      7.81      1.54     -0.00     -0.00      0.41 
   259.26     12.55      7.81      1.54     -0.00      0.00      0.41 
   259.27     12.55      7.81      1.54     -0.00      0.00      0.41 
   259.28     12.55      7.82      1.54     -0.00      0.00      0.41 
   259.29     12.55      7.81      1.54     -0.00     -0.00      0.41 
