#Written by Robertson Geologging WinLogger V1.0/311
~VERSION INFORMATION
#------------------------------------------------------------------------------
 VERS. 2.0 : CWLS LOG ASCII STANDARD - VERSION 2.0
 WRAP. NO  : ONE LINE PER DEPTH STEP
~WELL INFORMATION
#MNEM.UNIT         DATA                                DESCRIPTION OF MNEMONIC
#------------------------------------------------------------------------------
 STRT.M        146.1000                            :   START DEPTH
 STOP.M        425.1000                            :   STOP DEPTH
 STEP.M          0.1000                            :   STEP VALUE
 NULL.        -999.2500                            :   NULL VALUE
 COMP.    IMC                                      :   COMPANY NAME
 WELL.    HAWTHORN SHAFT                           :   WELL NAME
 FLD.     HAWTHORN                                 :   FIELD NAME
 LOC.     N/A                                      :   LOCATION
 PROV.    N/A                                      :   PROVINCE
 SRVC.    N/A                                      :   SERVICE COMPANY NAME
 DATE.    03 Oct 03                                :   DATE
 UWI.     N/A                                      :   UNIQUE WELL IDENTIFIER
~PARAMETER INFORMATION
#MNEMO.UNIT         VALUE                 DESCRIPTION OF MNEMONIC
#------------------------------------------------------------------------------
~OTHER INFORMATION SECTION
#------------------------------------------------------------------------------
 TCDS 2822
~CURVE INFORMATION
#MNEMO.UNIT         API CODE              CURVE DESCRIPTION
#------------------------------------------------------------------------------
 DEPTH.M                                 :   0     Depth
 TEMP.DegC                               :   1     Temperature
 COND.uS/cm                              :   2     Conductivity
 DELT.DegC                               :   3     Delta T
 DELC.uS/cm                              :   4     Delta C
 NGAM.API                                :   5     Natural Gamma
#------------------------------------------------------------------------------
~A  DEPTH     TEMP      COND      DELT      DELC      NGAM      
# ...
   291.30     17.33  49275.24     -0.02      0.00      4.94 
   291.40     17.34  49276.00     -0.01      1.08      4.94 
   291.50     17.34  49275.13      0.02      0.65      3.71 
   291.60     17.35  49274.48      0.01      1.41      1.24 
   291.70     17.34  49273.94      0.01      0.22      1.24 
   291.80     17.35  49273.94      0.02      0.54      3.71 
   291.90     17.34  49272.97      0.01     -0.76      6.18 
   292.00     17.33  49271.45     -0.01     -2.81      3.29 
   292.10     17.35  49269.72      0.01     -4.54      0.82 
   292.20     17.35  49268.32      0.03     -6.17      2.88 
   292.30     17.36  49267.56      0.03     -6.92      2.06 
   292.40     17.37  49266.04      0.03     -9.95      3.59 
   292.50     17.35  49264.64      0.02    -10.49      3.29 
   292.60     17.35  49263.02     -0.00    -11.47      1.65 
   292.70     17.35  49263.23      0.02    -10.71      3.35 
   292.80     17.36  49262.37      0.01    -11.58      2.94 
   292.90     17.35  49263.12      0.01     -9.84      2.76 
   293.00     17.36  49262.58      0.03     -8.65      3.24 
   293.10     17.37  49262.37      0.02     -7.36      2.06 
   293.20     17.36  49262.37      0.01     -5.95      1.94 
   293.30     17.36  49261.50     -0.01     -5.30      3.00 
   293.40     17.37  49260.74      0.01     -4.54      3.94 
   293.50     17.37  49258.36      0.01     -6.27      3.71 
   293.60     17.37  49256.74      0.02     -5.52      4.53 
   293.70     17.37  49256.85      0.02     -5.63      3.71 
   293.80     17.36  49256.74      0.01     -5.63      3.29 
   293.90     17.37  49256.09      0.01     -6.27      3.76 
   294.00     17.36  49255.12     -0.00     -7.36      3.71 
   294.10     17.37  49256.09      0.00     -6.27      5.29 
   294.20     17.37  49254.25      0.00     -7.36      4.47 
   294.30     17.36  49253.60      0.01     -7.90      1.24 
   294.40     17.36  49252.96     -0.02     -6.92      2.47 
   294.50     17.38  49254.47      0.02     -3.14      2.06 
   294.60     17.38  49255.23      0.02     -2.38      2.88 
   294.70     17.38  49256.20      0.01     -1.51      3.76 
   294.80     17.37  49258.47      0.00      0.87      2.82 
   294.90     17.37  49258.47      0.00      1.51      3.65 
   295.00     17.36  49258.58      0.00      2.60      3.24 
   295.10     17.38  49257.61      0.02      1.51      2.88 
   295.20     17.38  49256.09      0.02      0.97      4.00 
   295.30     17.37  49255.34      0.02      0.87      5.88 
   295.40     17.38  49253.60      0.02     -0.97      5.53 
   295.50     17.37  49252.74     -0.01     -1.73      2.76 
   295.60     17.37  49253.82     -0.01     -1.41      3.47 
   295.70     17.38  49254.58     -0.01     -2.49      2.29 
   295.80     17.38  49254.79      0.01     -3.68      1.65 
   295.90     17.38  49256.20      0.01     -2.27      3.65 
   296.00     17.38  49254.58      0.01     -4.00      4.41 
   296.10     17.38  49253.71     -0.00     -3.89      4.88 
   296.20     17.38  49251.12     -0.00     -4.98      3.18 
   296.30     17.38  49247.11      0.01     -7.36      2.82 
   296.40     17.38  49245.28     -0.00     -8.33      3.47 
   296.50     17.38  49242.68      0.01    -10.93      5.29 
   296.60     17.38  49240.41      0.00    -13.52      2.76 
   296.70     17.38  49238.24      0.00    -15.47      1.24 
   296.80     17.38  49235.32      0.01    -19.47      2.76 
   296.90     17.40  49234.89      0.02    -21.31      2.76 
   297.00     17.39  49232.62      0.02    -21.09      3.71 
   297.10     17.39  49232.73      0.01    -20.12      5.29 
   297.20     17.39  49231.86      0.01    -18.39      2.82 
   297.30     17.39  49231.97      0.01    -15.14      2.71 
   297.40     17.38  49231.21      0.00    -14.06      4.00 
   297.50     17.39  49230.13      0.01    -11.79      2.41 
   297.60     17.39  49228.94      0.01    -10.49      4.06 
   297.70     17.39  49228.19      0.01     -9.30      2.35 
   297.80     17.38  49226.02     -0.01     -9.63      3.47 
   297.90     17.38  49224.72     -0.01    -10.49      2.29 
   298.00     17.38  49224.62     -0.02     -8.76      2.41 
   298.10     17.39  49224.29     -0.00     -8.44      3.94 
   298.20     17.40  49223.86      0.01     -8.00      4.71 
   298.30     17.39  49223.21      0.01     -8.44      2.88 
   298.40     17.38  49222.34      0.00     -8.54      3.65 
   298.50     17.40  49222.02      0.01     -8.11      3.59 
   298.60     17.40  49221.91      0.01     -7.03      2.82 
   298.70     17.39  49222.02      0.00     -5.41      4.47 
   298.80     17.41  49222.02      0.03     -4.00      3.18 
   298.90     17.39  49220.07      0.01     -4.98      3.00 
   299.00     17.40  49217.48      0.02     -7.14      3.88 
   299.10     17.39  49215.86      0.00     -8.00      4.76 
   299.20     17.41  49214.77      0.01     -9.09      3.88 
   299.30     17.40  49213.69      0.00     -9.52      2.41 
   299.40     17.40  49212.50      0.02     -9.41      5.41 
   299.50     17.40  49211.31      0.00     -9.95      5.00 
   299.60     17.40  49209.80     -0.00    -11.14      2.35 
   299.70     17.38  49209.69     -0.01    -11.36      2.35 
   299.80     17.39  49209.47     -0.02    -11.57      4.47 
   299.90     17.40  49207.85      0.01    -12.22      2.82 
   300.00     17.41  49207.96      0.00     -9.52      3.12 
   300.10     17.40  49208.83      0.01     -7.03      3.82 
   300.20     17.39  49209.58     -0.01     -5.19      3.12 
   300.30     17.40  49209.15      0.00     -3.35      3.88 
   300.40     17.39  49210.56     -0.01     -0.76      5.06 
   300.50     17.41  49210.56      0.01      0.00      3.65 
   300.60     17.41  49211.53      0.01      1.51      3.53 
   300.70     17.40  49210.12      0.02      0.54      3.47 
   300.80     17.41  49209.37      0.02      0.76      4.35 
   300.90     17.40  49209.47     -0.01      1.62      4.76 
   301.00     17.40  49209.26     -0.01      0.54      1.59 
   301.10     17.40  49209.15     -0.00      0.32      1.59 
   301.20     17.40  49210.12      0.00      1.30      2.41 
   301.30     17.41  49211.64      0.01      3.24      6.00 
   301.40     17.41  49212.83      0.02      2.49      5.24 
   301.50     17.39  49214.02     -0.01      3.68      5.12 
   301.60     17.40  49214.88     -0.01      4.11      4.06 
   301.70     17.41  49215.64      0.00      7.03      2.35 
   301.80     17.40  49216.29     -0.01      7.68      4.82 
   301.90     17.40  49216.61      0.01      7.90      4.47 
   302.00     17.41  49216.94      0.01      8.44      3.47 
   302.10     17.41  49214.99      0.01      5.84      3.06 
   302.20     17.41  49214.34      0.02      4.22      4.35 
   302.30     17.41  49213.26      0.00      1.62      4.35 
   302.40     17.42  49213.58      0.01      0.76      3.12 
   302.50     17.41  49213.04      0.02     -1.19      2.71 
   302.60     17.41  49212.18      0.01     -2.70      3.53 
   302.70     17.41  49212.72      0.00     -2.92      2.71 
   302.80     17.41  49212.72      0.01     -3.14      3.88 
   302.90     17.41  49212.94      0.00     -3.68      6.24 
   303.00     17.42  49214.23      0.02     -1.73      4.35 
   303.10     17.41  49213.80     -0.00     -0.43      2.82 
   303.20     17.42  49213.04      0.01     -1.51      4.24 
   303.30     17.40  49213.04     -0.01     -1.19      4.24 
   303.40     17.40  49213.15     -0.01     -0.65      2.82 
   303.50     17.41  49212.83      0.00     -0.43      3.88 
   303.60     17.41  49214.02      0.00      1.08      2.71 
   303.70     17.42  49213.04      0.00      0.32      3.12 
   303.80     17.41  49213.91      0.00      1.19      3.06 
   303.90     17.41  49212.83     -0.00     -0.11      3.76 
   304.00     17.42  49212.83     -0.00     -0.87      5.06 
   304.10     17.42  49213.58      0.01      0.54      4.88 
   304.20     17.41  49213.80     -0.01     -0.00      4.06 
   304.30     17.41  49213.69      0.01     -0.22      3.12 
   304.40     17.42  49212.29      0.01     -0.87      2.35 
