#Written by Robertson Geologging WinLogger V1.0/370
~VERSION INFORMATION
#------------------------------------------------------------------------------
 VERS. 2.0 : CWLS LOG ASCII STANDARD - VERSION 2.0
 WRAP. NO  : ONE LINE PER DEPTH STEP
~WELL INFORMATION
#MNEM.UNIT         DATA                                DESCRIPTION OF MNEMONIC
#------------------------------------------------------------------------------
 STRT.M        118.0500                            :   START DEPTH
 STOP.M        420.0800                            :   STOP DEPTH
 STEP.M          0.0100                            :   STEP VALUE
 NULL.        -999.2500                            :   NULL VALUE
 COMP.    WHITE YOUN GREEN                         :   COMPANY NAME
 WELL.    HAWTHORN SHAFT                           :   WELL NAME
 FLD.     HAWTHORN                                 :   FIELD NAME
 LOC.     N/A                                      :   LOCATION
 PROV.    N/A                                      :   PROVINCE
 SRVC.    N/A                                      :   SERVICE COMPANY NAME
 DATE.    14 Dec 06                                :   DATE
 UWI.     N/A                                      :   UNIQUE WELL IDENTIFIER
~PARAMETER INFORMATION
#MNEMO.UNIT         VALUE                 DESCRIPTION OF MNEMONIC
#------------------------------------------------------------------------------
~OTHER INFORMATION SECTION
#------------------------------------------------------------------------------
 lLOGGING DOWN
~CURVE INFORMATION
#MNEMO.UNIT         API CODE              CURVE DESCRIPTION
#------------------------------------------------------------------------------
 DEPTH.M                                 :   0     Depth
 TEMP.DegC                               :   1     Temperature
 CN25.mS/cm                              :   2     Conductivity@25DegC
 COND.mS/cm                              :   3     Conductivity
 DELT.DegC                               :   4     Delta T
 DELC.mS/cm                              :   5     Delta C
 NGAM.CPS                                :   6     Natural Gamma
#------------------------------------------------------------------------------
~A  DEPTH     TEMP      CN25      COND      DELT      DELC      NGAM      
# ...
   418.63     18.55     84.22     73.99      0.05      0.05      0.76 
   418.64     18.55     84.22     73.99      0.05      0.04      1.18 
   418.65     18.55     84.21     73.98      0.05      0.03      1.18 
   418.66     18.55     84.22     73.98      0.04      0.04      1.18 
   418.67     18.55     84.21     73.98      0.04      0.02      1.18 
   418.68     18.55     84.19     73.97      0.05      0.01      1.18 
   418.69     18.55     84.18     73.97      0.05      0.00      1.18 
   418.70     18.56     84.17     73.97      0.04     -0.00      1.18 
   418.71     18.56     84.16     73.96      0.04     -0.01      1.18 
   418.72     18.56     84.15     73.96      0.04     -0.02      1.53 
   418.73     18.56     84.14     73.95      0.05     -0.04      1.12 
   418.74     18.56     84.13     73.95      0.05     -0.06      1.12 
   418.75     18.57     84.12     73.94      0.06     -0.09      1.12 
   418.76     18.57     84.11     73.94      0.06     -0.11      1.47 
   418.77     18.57     84.10     73.93      0.07     -0.14      1.88 
   418.78     18.57     84.09     73.93      0.07     -0.15      1.88 
   418.79     18.57     84.08     73.93      0.07     -0.17      1.53 
   418.80     18.57     84.07     73.92      0.07     -0.19      1.94 
   418.81     18.57     84.06     73.92      0.08     -0.21      1.53 
   418.82     18.57     84.06     73.91      0.08     -0.24      1.94 
   418.83     18.57     84.05     73.91      0.09     -0.25      1.94 
   418.84     18.57     84.05     73.90      0.09     -0.26      1.94 
   418.85     18.57     84.04     73.90      0.09     -0.28      1.94 
   418.86     18.58     84.03     73.89      0.09     -0.29      2.29 
   418.87     18.58     84.01     73.89      0.09     -0.30      2.29 
   418.88     18.58     83.99     73.88      0.09     -0.32      2.71 
   418.89     18.59     83.98     73.87      0.09     -0.34      2.71 
   418.90     18.59     83.96     73.87      0.09     -0.35      2.71 
   418.91     18.59     83.96     73.87      0.09     -0.35      2.71 
   418.92     18.59     83.95     73.86      0.09     -0.36      2.71 
   418.93     18.59     83.94     73.86      0.09     -0.36      2.35 
   418.94     18.59     83.94     73.86      0.09     -0.37      2.76 
   418.95     18.59     83.93     73.85      0.09     -0.37      2.76 
   418.96     18.59     83.93     73.85      0.09     -0.37      2.76 
   418.97     18.59     83.93     73.84      0.08     -0.37      2.35 
   418.98     18.59     83.93     73.84      0.08     -0.37      2.35 
   418.99     18.59     83.93     73.84      0.08     -0.37      1.94 
   419.00     18.58     83.93     73.84      0.08     -0.37      2.35 
   419.01     18.58     83.93     73.83      0.08     -0.38      2.35 
   419.02     18.58     83.93     73.83      0.08     -0.39      2.35 
   419.03     18.58     83.93     73.82      0.08     -0.39      2.00 
   419.04     18.58     83.93     73.81      0.07     -0.39      2.41 
   419.05     18.58     83.93     73.81      0.07     -0.39      2.00 
   419.06     18.58     83.93     73.81      0.07     -0.39      1.65 
   419.07     18.58     83.91     73.80      0.07     -0.41      2.06 
   419.08     18.58     83.91     73.80      0.07     -0.41      2.41 
   419.09     18.58     83.90     73.79      0.07     -0.41      2.41 
   419.10     18.58     83.90     73.79      0.06     -0.41      2.82 
   419.11     18.58     83.88     73.78      0.07     -0.43      2.00 
   419.12     18.59     83.86     73.78      0.07     -0.45      2.41 
   419.13     18.59     83.85     73.78      0.08     -0.48      2.41 
   419.14     18.59     83.83     73.77      0.08     -0.52      2.41 
   419.15     18.60     83.82     73.77      0.09     -0.53      2.41 
   419.16     18.60     83.82     73.76      0.09     -0.56      2.41 
   419.17     18.60     83.81     73.76      0.09     -0.58      2.35 
   419.18     18.60     83.80     73.75      0.10     -0.59      3.18 
   419.19     18.60     83.80     73.75      0.10     -0.61      3.18 
   419.20     18.60     83.78     73.74      0.10     -0.63      3.18 
   419.21     18.60     83.78     73.74      0.11     -0.64      2.76 
   419.22     18.60     83.78     73.74      0.10     -0.64      3.18 
   419.23     18.60     83.78     73.73      0.10     -0.64      3.18 
   419.24     18.59     83.78     73.73      0.10     -0.64      2.76 
   419.25     18.59     83.78     73.73      0.09     -0.63      2.76 
   419.26     18.59     83.77     73.72      0.09     -0.64      2.76 
   419.27     18.60     83.77     73.72      0.09     -0.64      2.35 
   419.28     18.59     83.76     73.72      0.09     -0.64      2.35 
   419.29     18.60     83.76     73.72      0.09     -0.64      1.94 
   419.30     18.60     83.75     73.71      0.09     -0.66      1.94 
   419.31     18.60     83.75     73.71      0.09     -0.66      1.94 
   419.32     18.60     83.73     73.70      0.09     -0.66      1.94 
   419.33     18.60     83.73     73.70      0.09     -0.67      2.35 
   419.34     18.60     83.73     73.70      0.09     -0.66      2.00 
   419.35     18.60     83.73     73.69      0.09     -0.66      1.18 
   419.36     18.60     83.72     73.69      0.08     -0.66      1.53 
   419.37     18.60     83.72     73.69      0.08     -0.65      1.53 
   419.38     18.60     83.72     73.68      0.08     -0.65      1.53 
   419.39     18.60     83.71     73.68      0.08     -0.65      1.12 
   419.40     18.60     83.70     73.68      0.08     -0.66      1.47 
   419.41     18.60     83.70     73.68      0.08     -0.65      1.88 
   419.42     18.60     83.70     73.68      0.08     -0.65      1.53 
   419.43     18.60     83.70     73.67      0.08     -0.66      1.94 
   419.44     18.60     83.69     73.67      0.08     -0.67      2.35 
   419.45     18.60     83.68     73.67      0.08     -0.68      2.71 
   419.46     18.61     83.66     73.66      0.09     -0.70      3.12 
   419.47     18.61     83.65     73.66      0.09     -0.71      3.12 
   419.48     18.62     83.64     73.66      0.09     -0.71      3.12 
   419.49     18.62     83.62     73.66      0.09     -0.72      3.12 
   419.50     18.62     83.62     73.66      0.09     -0.72      3.06 
   419.51     18.62     83.61     73.65      0.09     -0.71      3.06 
   419.52     18.62     83.61     73.66      0.09     -0.70      3.06 
   419.53     18.62     83.61     73.65      0.09     -0.69      2.71 
   419.54     18.62     83.61     73.65      0.08     -0.67      2.71 
   419.55     18.62     83.60     73.65      0.08     -0.66      2.71 
   419.56     18.62     83.61     73.65      0.07     -0.66      2.71 
   419.57     18.62     83.61     73.65      0.07     -0.64      2.35 
   419.58     18.62     83.62     73.66      0.07     -0.63      1.94 
   419.59     18.62     83.61     73.65      0.07     -0.64      1.94 
   419.60     18.62     83.62     73.65      0.07     -0.62      1.53 
   419.61     18.62     83.62     73.65      0.07     -0.61      1.12 
   419.62     18.62     83.61     73.65      0.07     -0.61      0.76 
   419.63     18.62     83.61     73.65      0.07     -0.61      0.35 
   419.64     18.62     83.60     73.65      0.07     -0.61      0.35 
   419.65     18.63     83.59     73.65      0.08     -0.62      0.71 
   419.66     18.63     83.59     73.65      0.08     -0.62      1.12 
   419.67     18.63     83.58     73.64      0.08     -0.61      0.76 
   419.68     18.63     83.58     73.65      0.07     -0.60      0.76 
   419.69     18.63     83.57     73.64      0.07     -0.60      0.76 
   419.70     18.63     83.57     73.64      0.07     -0.58      1.18 
   419.71     18.63     83.58     73.65      0.07     -0.58      1.18 
   419.72     18.63     83.56     73.64      0.07     -0.58      1.18 
   419.73     18.64     83.55     73.64      0.07     -0.58      1.18 
   419.74     18.64     83.55     73.64      0.07     -0.57      1.59 
   419.75     18.64     83.54     73.64      0.07     -0.57      1.59 
