#Written by Robertson Geologging WinLogger V1.0/406
~VERSION INFORMATION
#------------------------------------------------------------------------------
 VERS. 2.0 : CWLS LOG ASCII STANDARD - VERSION 2.0
 WRAP. NO  : ONE LINE PER DEPTH STEP
~WELL INFORMATION
#MNEM.UNIT         DATA                                DESCRIPTION OF MNEMONIC
#------------------------------------------------------------------------------
 STRT.M        115.9300                            :   START DEPTH
 STOP.M        440.0000                            :   STOP DEPTH
 STEP.M          0.0100                            :   STEP VALUE
 NULL.        -999.2500                            :   NULL VALUE
 COMP.    Coal Authority                           :   COMPANY NAME
 WELL.    Hawthorn Shaft                           :   WELL NAME
 FLD.     Hawthorn                                 :   FIELD NAME
 LOC.     N/A                                      :   LOCATION
 PROV.    N/A                                      :   PROVINCE
 SRVC.    N/A                                      :   SERVICE COMPANY NAME
 DATE.    28 Aug 08                                :   DATE
 UWI.     N/A                                      :   UNIQUE WELL IDENTIFIER
~PARAMETER INFORMATION
#MNEMO.UNIT         VALUE                 DESCRIPTION OF MNEMONIC
#------------------------------------------------------------------------------
~OTHER INFORMATION SECTION
#------------------------------------------------------------------------------
 TCGS 1365
 Logged in low conductivity mode as starting readings were so low.
~CURVE INFORMATION
#MNEMO.UNIT         API CODE              CURVE DESCRIPTION
#------------------------------------------------------------------------------
 DEPTH.M                                 :   0     Depth
 TEMP.DegC                               :   1     Temperature
 CN25.uS/cm                              :   2     Conductivity@25DegC
 DELT.DegC                               :   3     Delta T
 DELC.uS/cm                              :   4     Delta C
 NGAM.CPS                                :   5     Natural Gamma
 COND.uS/cm                              :   6     Conductivity
#------------------------------------------------------------------------------
~A  DEPTH     TEMP      CN25      DELT      DELC      NGAM      COND      
# ...
   374.70     17.04  21544.25      0.01    -13.49      0.00  18112.70 
   374.71     17.03  21546.73      0.01     -4.96      0.00  18112.70 
   374.72     17.03  21555.26      0.00     -3.70      0.00  18119.87 
   374.73     17.03  21558.96      0.00      9.75      0.00  18120.89 
   374.74     17.03  21546.73     -0.00     -7.27      0.00  18112.70 
   374.75     17.04  21554.00     -0.00      3.70      0.00  18120.89 
   374.76     17.03  21557.74     -0.01     13.49      0.00  18119.87 
   374.77     17.03  21546.73     -0.00     -6.05      0.00  18112.70 
   374.78     17.04  21552.78      0.00      8.53      0.00  18119.87 
   374.79     17.04  21544.25      0.00     -8.53      0.00  18112.70 
   374.80     17.04  21552.78      0.00     -3.70      0.00  18119.87 
   374.81     17.03  21556.48     -0.00     12.23      0.00  18120.89 
   374.82     17.03  21549.21     -0.00     -7.27      0.00  18112.70 
   374.83     17.03  21558.96     -0.00     12.23      0.00  18120.89 
   374.84     17.03  21557.74     -0.00      2.48      0.00  18119.87 
   374.85     17.03  21549.21     -0.00      2.48      0.00  18112.70 
   374.86     17.03  21555.26      0.00      0.00      0.00  18119.87 
   374.87     17.03  21556.48     -0.00      2.48      0.00  18120.89 
   374.88     17.03  21546.73     -0.01     15.92      0.00  18112.70 
   374.89     17.03  21556.48     -0.00      3.70      0.00  18120.89 
   374.90     17.04  21544.25      0.00      0.00      0.00  18112.70 
   374.91     17.03  21555.26     -0.00      1.26      0.00  18119.87 
   374.92     17.03  21556.48      0.00      1.22      0.00  18120.89 
   374.93     17.03  21549.21     -0.00      2.48      0.00  18112.70 
   374.94     17.02  21563.92     -0.01      7.44      0.00  18120.89 
   374.95     17.02  21561.44      0.00      9.75      0.00  18120.89 
   374.96     17.02  21551.69      0.00     -9.75      0.00  18112.70 
   374.97     17.03  21549.21      0.00    -11.01      0.00  18112.70 
   374.98     17.03  21549.21      0.01     -4.96      0.00  18112.70 
   374.99     17.03  21557.74      0.00      0.00      0.00  18119.87 
   375.00     17.03  21558.96      0.00     -2.48      0.00  18120.89 
   375.01     17.02  21551.69      0.00      0.00      0.00  18112.70 
   375.02     17.03  21558.96      0.00      0.00      0.00  18120.89 
   375.03     17.03  21556.48      0.00     -1.26      0.00  18120.89 
   375.04     17.04  21544.25      0.00      0.00      0.00  18112.70 
   375.05     17.04  21551.52      0.00      1.22      0.00  18120.89 
   375.06     17.04  21552.78     -0.01     15.96      0.00  18119.87 
   375.07     17.04  21544.25     -0.01     -3.57      0.00  18112.70 
   375.08     17.03  21557.74     -0.01      6.22      0.00  18119.87 
   375.09     17.03  21558.96     -0.01     14.71      0.00  18120.89 
   375.10     17.03  21549.21     -0.00     -7.27      0.00  18112.70 
   375.11     17.02  21561.44     -0.01      6.18      0.00  18120.89 
   375.12     17.03  21557.74     -0.01     13.49      0.00  18119.87 
   375.13     17.03  21546.73     -0.01     -3.57      0.00  18112.70 
   375.14     17.03  21555.26     -0.01     13.49      0.00  18119.87 
   375.15     17.03  21555.26     -0.01     13.49      0.00  18119.87 
   375.16     17.03  21546.73     -0.01     -4.79      0.00  18112.70 
   375.17     17.02  21560.22     -0.01     15.97      0.00  18119.87 
   375.18     17.02  21561.44     -0.01      7.44      0.00  18120.89 
   375.19     17.02  21551.69     -0.02      1.39      0.00  18112.70 
   375.20     17.02  21561.44     -0.01     17.19      0.00  18120.89 
   375.21     17.03  21557.74     -0.01      3.74      0.00  18119.87 
   375.22     17.03  21549.21     -0.01      4.96      0.00  18112.70 
   375.23     17.03  21549.21     -0.00     -7.27      7.00  18112.70 
   375.24     17.03  21556.48      0.00     -1.26      0.00  18120.89 
   375.25     17.03  21546.73      0.00      0.00      0.00  18112.70 
   375.26     17.04  21551.52      0.01     -6.22      0.00  18120.89 
   375.27     17.05  21547.82      0.02     -1.39      0.00  18119.87 
   375.28     17.05  21549.04      0.02     -8.70      0.00  18120.89 
   375.29     17.04  21541.77      0.01    -17.19      7.00  18112.70 
   375.30     17.03  21556.48      0.00      7.27      8.00  18120.89 
   375.31     17.03  21555.26      0.00     -1.22      0.00  18119.87 
   375.32     17.03  21546.73     -0.00      2.48      7.00  18112.70 
   375.33     17.04  21554.00      0.00      0.00      0.00  18120.89 
   375.34     17.04  21552.78      0.00      0.00      0.00  18119.87 
   375.35     17.03  21546.73     -0.00      2.48      0.00  18112.70 
   375.36     17.02  21560.22     -0.01      4.96      0.00  18119.87 
   375.37     17.03  21558.96     -0.01      4.96      0.00  18120.89 
   375.38     17.03  21557.74     -0.01     15.97      0.00  18119.87 
   375.39     17.03  21546.73     -0.01     -4.79      0.00  18112.70 
   375.40     17.04  21550.30     -0.00      2.48      7.00  18119.87 
   375.41     17.05  21549.04      0.00      7.27      0.00  18120.89 
   375.42     17.05  21539.30      0.00     -2.48      0.00  18112.70 
   375.43     17.05  21546.56      0.01      2.31      0.00  18120.89 
   375.44     17.05  21547.82      0.01     -8.66      0.00  18119.87 
   375.45     17.05  21539.30      0.02    -20.93      0.00  18112.70 
   375.46     17.05  21547.82      0.02     -3.87      0.00  18119.87 
   375.47     17.04  21551.52      0.02    -11.19      0.00  18120.89 
   375.48     17.04  21550.30      0.02    -13.62      0.00  18119.87 
   375.49     17.04  21541.77      0.01     -7.44      0.00  18112.70 
   375.50     17.04  21541.77      0.02    -20.93      0.00  18112.70 
   375.51     17.04  21550.30      0.01     -8.66      0.00  18119.87 
   375.52     17.04  21544.25      0.01     -7.44      0.00  18112.70 
   375.53     17.03  21555.26      0.00     -3.70      0.00  18119.87 
   375.54     17.03  21558.96      0.00      9.75      0.00  18120.89 
   375.55     17.03  21556.48      0.01     -6.23      0.00  18120.89 
   375.56     17.03  21549.21      0.01    -14.71      0.00  18112.70 
   375.57     17.03  21558.96      0.00      9.75      8.00  18120.89 
   375.58     17.03  21555.26      0.00     -2.48      0.00  18119.87 
   375.59     17.03  21549.21     -0.00     -7.27      0.00  18112.70 
   375.60     17.04  21554.00      0.00      9.75      0.00  18120.89 
   375.61     17.04  21552.78      0.01     -6.18      0.00  18119.87 
   375.62     17.03  21556.48     -0.00      2.48      0.00  18120.89 
   375.63     17.04  21541.77      0.01     -4.96      0.00  18112.70 
   375.64     17.04  21552.78     -0.00      1.26      0.00  18119.87 
   375.65     17.03  21556.48     -0.00     12.23      8.00  18120.89 
   375.66     17.03  21546.73      0.00    -12.23      0.00  18112.70 
   375.67     17.03  21558.96     -0.00      3.70      0.00  18120.89 
   375.68     17.03  21556.48      0.00      9.75      0.00  18120.89 
   375.69     17.04  21552.78      0.00      8.53      0.00  18119.87 
   375.70     17.04  21544.25      0.00     -2.48      8.00  18112.70 
   375.71     17.04  21554.00      0.00     -1.26      0.00  18120.89 
   375.72     17.03  21555.26      0.00     -3.70      0.00  18119.87 
   375.73     17.04  21544.25      0.00     -2.48      0.00  18112.70 
   375.74     17.04  21552.78      0.00     -1.22      0.00  18119.87 
   375.75     17.04  21554.00      0.01     -3.74      0.00  18120.89 
   375.76     17.03  21555.26      0.00      8.53      0.00  18119.87 
   375.77     17.02  21540.72     -0.01    -12.06      0.00  18103.48 
   375.78     17.02  21560.22     -0.01     15.97      0.00  18119.87 
   375.79     17.03  21558.96     -0.01      6.18      0.00  18120.89 
   375.80     17.03  21555.26      0.00     -1.22      0.00  18119.87 
   375.81     17.04  21544.25      0.01     -4.96      0.00  18112.70 
   375.82     17.04  21554.00      0.01     -4.96      0.00  18120.89 
