#Written by Robertson Geologging WinLogger V1.0/406
~VERSION INFORMATION
#------------------------------------------------------------------------------
 VERS. 2.0 : CWLS LOG ASCII STANDARD - VERSION 2.0
 WRAP. NO  : ONE LINE PER DEPTH STEP
~WELL INFORMATION
#MNEM.UNIT         DATA                                DESCRIPTION OF MNEMONIC
#------------------------------------------------------------------------------
 STRT.M        115.9300                            :   START DEPTH
 STOP.M        440.0000                            :   STOP DEPTH
 STEP.M          0.0100                            :   STEP VALUE
 NULL.        -999.2500                            :   NULL VALUE
 COMP.    Coal Authority                           :   COMPANY NAME
 WELL.    Hawthorn Shaft                           :   WELL NAME
 FLD.     Hawthorn                                 :   FIELD NAME
 LOC.     N/A                                      :   LOCATION
 PROV.    N/A                                      :   PROVINCE
 SRVC.    N/A                                      :   SERVICE COMPANY NAME
 DATE.    28 Aug 08                                :   DATE
 UWI.     N/A                                      :   UNIQUE WELL IDENTIFIER
~PARAMETER INFORMATION
#MNEMO.UNIT         VALUE                 DESCRIPTION OF MNEMONIC
#------------------------------------------------------------------------------
~OTHER INFORMATION SECTION
#------------------------------------------------------------------------------
 TCGS 1365
 Logged in low conductivity mode as starting readings were so low.
~CURVE INFORMATION
#MNEMO.UNIT         API CODE              CURVE DESCRIPTION
#------------------------------------------------------------------------------
 DEPTH.M                                 :   0     Depth
 TEMP.DegC                               :   1     Temperature
 CN25.uS/cm                              :   2     Conductivity@25DegC
 DELT.DegC                               :   3     Delta T
 DELC.uS/cm                              :   4     Delta C
 NGAM.CPS                                :   5     Natural Gamma
 COND.uS/cm                              :   6     Conductivity
#------------------------------------------------------------------------------
~A  DEPTH     TEMP      CN25      DELT      DELC      NGAM      COND      
# ...
   417.64     18.61  54193.64      0.00   1065.43      8.00  47269.95 
   417.65     18.62  54178.86      0.01   1028.58      0.00  47267.54 
   417.66     18.62  54194.10      0.00   1043.18      0.00  47280.83 
   417.67     18.63  54192.25      0.01   1018.89      7.00  47284.45 
   417.68     18.64  54170.10      0.03    994.99      8.00  47280.83 
   417.69     18.64  54164.56      0.03    966.00      0.00  47276.00 
   417.70     18.65  54169.19      0.05    936.74      0.00  47290.50 
   417.71     18.65  54177.95      0.04    940.37      0.00  47292.91 
   417.72     18.63  54204.26      0.02    946.35     16.00  47300.17 
   417.73     18.64  54192.26      0.02    937.87      8.00  47300.17 
   417.74     18.62  54223.66      0.00    967.89      0.00  47301.38 
   417.75     18.62  54228.73     -0.01    957.55      0.00  47311.04 
   417.76     18.62  54217.65     -0.01    929.91      7.00  47301.38 
   417.77     18.62  54228.73     -0.00    925.43     16.00  47311.04 
   417.78     18.63  54232.42      0.00    920.85      7.00  47319.51 
   417.79     18.63  54216.72      0.02    859.43      8.00  47311.04 
   417.80     18.64  54224.11      0.03    865.43      7.00  47327.97 
   417.81     18.64  54210.72      0.03    814.76      7.00  47311.04 
   417.82     18.64  54215.80      0.03    822.60      0.00  47320.71 
   417.83     18.64  54239.81      0.02    829.05      0.00  47336.43 
   417.84     18.63  54238.89      0.01    814.72      0.00  47330.38 
   417.85     18.62  54248.13      0.00    814.69      0.00  47327.97 
   417.86     18.62  54263.84     -0.01    822.51      0.00  47336.43 
   417.87     18.63  54257.36     -0.00    801.24      0.00  47341.26 
   417.88     18.62  54267.53     -0.01    801.74      0.00  47344.89 
   417.89     18.63  54251.82      0.00    764.52      0.00  47336.43 
   417.90     18.63  54262.44      0.01    759.95     16.00  47350.93 
   417.91     18.63  54261.52      0.01    733.36      0.00  47344.89 
   417.92     18.63  54261.52      0.01    723.69      0.00  47344.89 
   417.93     18.64  54256.43      0.01    714.28      0.00  47350.93 
   417.94     18.63  54265.21      0.00    705.10      7.00  47353.35 
   417.95     18.64  54253.19      0.00    695.28      7.00  47353.35 
   417.96     18.65  54243.49      0.01    673.55      0.00  47360.61 
   417.97     18.65  54250.88      0.02    656.65      0.00  47361.82 
   417.98     18.65  54244.87      0.02    639.59      7.00  47361.82 
   417.99     18.65  54243.49      0.03    608.37      0.00  47360.61 
   418.00     18.65  54256.88      0.02    618.03      0.00  47361.82 
   418.01     18.65  54261.96      0.02    616.19      8.00  47371.49 
   418.02     18.65  54256.88      0.02    592.74      7.00  47361.82 
   418.03     18.64  54273.97      0.01    600.98      0.00  47371.49 
   418.04     18.65  54279.04      0.01    593.62      0.00  47381.16 
   418.05     18.64  54279.98      0.01    581.69      0.00  47371.49 
   418.06     18.64  54283.67      0.00    586.63      0.00  47379.95 
   418.07     18.65  54267.96      0.01    546.60      0.00  47371.49 
   418.08     18.64  54289.68      0.01    545.35      0.00  47379.95 
   418.09     18.64  54285.05      0.02    529.67      0.00  47381.16 
   418.10     18.65  54277.66      0.03    492.38      0.00  47379.95 
   418.11     18.65  54287.36      0.03    498.36      0.00  47388.41 
   418.12     18.65  54273.04      0.02    489.04      0.00  47381.16 
   418.13     18.65  54261.96      0.02    481.15      0.00  47371.49 
   418.14     18.65  54297.05      0.01    501.46      0.00  47396.88 
   418.15     18.65  54267.03      0.02    461.76      0.00  47381.16 
   418.16     18.65  54275.34      0.02    450.71      0.00  47388.41 
   418.17     18.65  54287.36     -0.00    475.07      0.00  47388.41 
   418.18     18.65  54290.13      0.00    461.78      8.00  47390.83 
   418.19     18.63  54315.09     -0.01    474.73      0.00  47396.88 
   418.20     18.64  54296.14      0.00    448.43      0.00  47390.83 
   418.21     18.65  54297.05      0.02    409.33      0.00  47396.88 
   418.22     18.65  54285.03      0.03    392.72      0.00  47396.88 
   418.23     18.65  54278.11      0.03    379.32      0.00  47390.83 
   418.24     18.65  54287.36      0.02    385.36      0.00  47388.41 
   418.25     18.66  54284.57      0.03    368.23      0.00  47401.72 
   418.26     18.65  54291.04      0.02    362.25      7.00  47396.88 
   418.27     18.66  54284.57      0.03    351.19      8.00  47401.72 
   418.28     18.66  54273.02      0.03    333.16      7.00  47396.88 
   418.29     18.66  54278.56      0.03    338.70      8.00  47401.72 
   418.30     18.66  54282.71      0.03    329.46      0.00  47405.34 
   418.31     18.66  54272.10      0.01    328.03      0.00  47390.83 
   418.32     18.66  54288.72      0.01    337.73      0.00  47405.34 
   418.33     18.66  54284.57      0.02    311.94      0.00  47401.72 
   418.34     18.66  54282.71      0.03    303.17      0.00  47405.34 
   418.35     18.67  54266.55      0.04    278.26      8.00  47401.72 
   418.36     18.68  54249.01      0.05    239.97      0.00  47396.88 
   418.37     18.68  54260.55      0.05    235.83      0.00  47401.72 
   418.38     18.67  54270.70      0.04    257.95      0.00  47405.34 
   418.39     18.67  54266.55      0.03    247.33      0.00  47401.72 
   418.40     18.66  54288.72      0.01    278.24      7.00  47405.34 
   418.41     18.66  54282.71      0.02    257.02      0.00  47405.34 
   418.42     18.67  54283.63      0.02    244.10     16.00  47411.39 
   418.43     18.66  54282.71      0.03    240.90     14.00  47405.34 
   418.44     18.69  54252.70      0.05    191.51      0.00  47405.34 
   418.45     18.69  54248.55      0.06    182.76      0.00  47401.72 
   418.46     18.69  54256.39      0.07    177.24      0.00  47413.81 
   418.47     18.70  54236.55      0.07    152.31      0.00  47401.72 
   418.48     18.69  54246.70      0.07    152.77      0.00  47405.34 
   418.49     18.69  54252.70      0.06    149.08      0.00  47405.34 
   418.50     18.69  54253.62      0.06    153.22     16.00  47411.39 
   418.51     18.69  54256.39      0.06    149.07      0.00  47413.81 
   418.52     18.69  54246.70      0.07    123.69      0.00  47405.34 
   418.53     18.70  54241.63      0.07    128.76      0.00  47411.39 
   418.54     18.69  54256.39      0.06    145.37      0.00  47413.81 
   418.55     18.70  54250.39      0.06    119.98      0.00  47413.81 
   418.56     18.69  54242.55      0.05    119.52      0.00  47401.72 
   418.57     18.69  54262.39      0.05    147.67      0.00  47413.81 
   418.58     18.69  54242.55      0.05    107.06      0.00  47401.72 
   418.59     18.68  54268.39      0.04    132.90      0.00  47413.81 
   418.60     18.70  54250.39      0.07     93.22      0.00  47413.81 
   418.61     18.70  54247.62      0.07     89.07      8.00  47411.39 
   418.62     18.69  54246.70      0.08     61.84      0.00  47405.34 
   418.63     18.71  54235.63      0.10     41.99      0.00  47411.39 
   418.64     18.70  54250.39      0.08     71.53      0.00  47413.81 
   418.65     18.70  54250.39      0.08     56.29      0.00  47413.81 
   418.66     18.70  54241.63      0.08     49.37      0.00  47411.39 
   418.67     18.71  54232.40      0.07     62.30      0.00  47413.81 
   418.68     18.71  54229.64      0.07     65.07      0.00  47411.39 
   418.69     18.71  54222.72      0.06     53.54      0.00  47405.34 
   418.70     18.71  54229.64      0.07     51.69      8.00  47411.39 
   418.71     18.71  54224.56      0.08     20.31      0.00  47401.72 
   418.72     18.69  54256.39      0.05     64.13      0.00  47413.81 
   418.73     18.69  54253.62      0.08     29.97      0.00  47411.39 
   418.74     18.69  54252.70      0.07     23.97      0.00  47405.34 
   418.75     18.69  54253.62      0.07     35.97      0.00  47411.39 
   418.76     18.70  54240.70      0.08     11.97      0.00  47405.34 
