#Written by Robertson Geologging WinLogger V1.0/370
~VERSION INFORMATION
#------------------------------------------------------------------------------
 VERS. 2.0 : CWLS LOG ASCII STANDARD - VERSION 2.0
 WRAP. NO  : ONE LINE PER DEPTH STEP
~WELL INFORMATION
#MNEM.UNIT         DATA                                DESCRIPTION OF MNEMONIC
#------------------------------------------------------------------------------
 STRT.M        118.0500                            :   START DEPTH
 STOP.M        420.0800                            :   STOP DEPTH
 STEP.M          0.0100                            :   STEP VALUE
 NULL.        -999.2500                            :   NULL VALUE
 COMP.    WHITE YOUN GREEN                         :   COMPANY NAME
 WELL.    HAWTHORN SHAFT                           :   WELL NAME
 FLD.     HAWTHORN                                 :   FIELD NAME
 LOC.     N/A                                      :   LOCATION
 PROV.    N/A                                      :   PROVINCE
 SRVC.    N/A                                      :   SERVICE COMPANY NAME
 DATE.    14 Dec 06                                :   DATE
 UWI.     N/A                                      :   UNIQUE WELL IDENTIFIER
~PARAMETER INFORMATION
#MNEMO.UNIT         VALUE                 DESCRIPTION OF MNEMONIC
#------------------------------------------------------------------------------
~OTHER INFORMATION SECTION
#------------------------------------------------------------------------------
 lLOGGING DOWN
~CURVE INFORMATION
#MNEMO.UNIT         API CODE              CURVE DESCRIPTION
#------------------------------------------------------------------------------
 DEPTH.M                                 :   0     Depth
 TEMP.DegC                               :   1     Temperature
 CN25.mS/cm                              :   2     Conductivity@25DegC
 COND.mS/cm                              :   3     Conductivity
 DELT.DegC                               :   4     Delta T
 DELC.mS/cm                              :   5     Delta C
 NGAM.CPS                                :   6     Natural Gamma
#------------------------------------------------------------------------------
~A  DEPTH     TEMP      CN25      COND      DELT      DELC      NGAM      
# ...
   398.29     17.03     28.19     22.84      0.01     -0.02      0.00 
   398.30     17.03     28.19     22.84      0.01     -0.02      0.00 
   398.31     17.03     28.20     22.84      0.00     -0.01      0.00 
   398.32     17.03     28.19     22.84      0.00     -0.00      0.00 
   398.33     17.03     28.20     22.84      0.00     -0.00      0.00 
   398.34     17.03     28.20     22.84     -0.00     -0.00      0.00 
   398.35     17.03     28.20     22.84     -0.00     -0.00      0.00 
   398.36     17.03     28.20     22.84     -0.00      0.00      0.00 
   398.37     17.03     28.20     22.84     -0.00     -0.00      0.00 
   398.38     17.03     28.20     22.84     -0.00      0.00      0.00 
   398.39     17.03     28.20     22.84     -0.00     -0.00      0.00 
   398.40     17.03     28.20     22.84      0.00     -0.00      0.00 
   398.41     17.03     28.20     22.84      0.00     -0.00      0.00 
   398.42     17.03     28.20     22.84      0.01     -0.01      0.00 
   398.43     17.03     28.20     22.84      0.00     -0.00      0.00 
   398.44     17.03     28.20     22.84      0.00      0.00      0.00 
   398.45     17.03     28.20     22.84     -0.00      0.01      0.00 
   398.46     17.03     28.20     22.84     -0.00      0.01      0.00 
   398.47     17.03     28.20     22.84     -0.00      0.01      0.00 
   398.48     17.03     28.20     22.84     -0.00      0.01      0.00 
   398.49     17.03     28.20     22.84     -0.00      0.01      0.00 
   398.50     17.03     28.20     22.84     -0.00      0.01      0.00 
   398.51     17.03     28.21     22.84     -0.00      0.01      0.00 
   398.52     17.03     28.20     22.84     -0.00      0.01      0.00 
   398.53     17.02     28.21     22.84     -0.00      0.01      0.00 
   398.54     17.03     28.20     22.84     -0.00      0.00      0.00 
   398.55     17.03     28.21     22.84      0.00      0.00      0.00 
   398.56     17.03     28.20     22.84      0.00     -0.01      0.41 
   398.57     17.03     28.20     22.84      0.01     -0.01      0.41 
   398.58     17.03     28.20     22.84      0.01     -0.01      0.41 
   398.59     17.03     28.19     22.84      0.01     -0.01      0.41 
   398.60     17.03     28.20     22.84      0.01     -0.01      0.41 
   398.61     17.03     28.20     22.84      0.01     -0.01      0.41 
   398.62     17.03     28.20     22.84      0.00     -0.00      0.41 
   398.63     17.03     28.20     22.84      0.00      0.00      0.41 
   398.64     17.03     28.19     22.84      0.00      0.00      0.41 
   398.65     17.03     28.20     22.84     -0.00      0.00      0.41 
   398.66     17.03     28.20     22.84     -0.00      0.00      0.41 
   398.67     17.03     28.20     22.84     -0.00      0.01      0.41 
   398.68     17.03     28.20     22.84     -0.01      0.01      0.41 
   398.69     17.03     28.20     22.84     -0.01      0.01      0.41 
   398.70     17.03     28.20     22.84     -0.00      0.01      0.41 
   398.71     17.03     28.20     22.84     -0.00      0.01      0.41 
   398.72     17.03     28.20     22.84     -0.00      0.00      0.76 
   398.73     17.03     28.19     22.84      0.00     -0.00      0.35 
   398.74     17.03     28.19     22.84      0.00     -0.00      0.35 
   398.75     17.03     28.19     22.84      0.00     -0.00      0.35 
   398.76     17.03     28.19     22.84      0.00     -0.00      0.35 
   398.77     17.03     28.19     22.84      0.00     -0.01      0.35 
   398.78     17.04     28.19     22.84      0.01     -0.01      0.35 
   398.79     17.04     28.18     22.84      0.01     -0.01      0.35 
   398.80     17.04     28.18     22.84      0.01     -0.01      0.35 
   398.81     17.04     28.19     22.84      0.00     -0.00      0.35 
   398.82     17.03     28.18     22.83      0.00     -0.01      0.35 
   398.83     17.03     28.19     22.84      0.00      0.00      0.35 
   398.84     17.03     28.19     22.84      0.00      0.00      0.35 
   398.85     17.03     28.19     22.84      0.00     -0.00      0.35 
   398.86     17.03     28.20     22.84      0.00     -0.00      0.35 
   398.87     17.03     28.20     22.84      0.00      0.00      0.35 
   398.88     17.03     28.20     22.84     -0.00      0.00      0.35 
   398.89     17.02     28.21     22.84     -0.00      0.00      0.00 
   398.90     17.02     28.21     22.84     -0.00      0.01      0.00 
   398.91     17.02     28.21     22.84     -0.00      0.01      0.00 
   398.92     17.02     28.21     22.84     -0.00      0.01      0.00 
   398.93     17.02     28.22     22.84     -0.01      0.01      0.00 
   398.94     17.02     28.21     22.84     -0.01      0.01      0.00 
   398.95     17.02     28.21     22.84     -0.01      0.02      0.00 
   398.96     17.02     28.21     22.84     -0.01      0.02      0.00 
   398.97     17.02     28.21     22.84     -0.01      0.02      0.00 
   398.98     17.02     28.21     22.84     -0.01      0.02      0.00 
   398.99     17.02     28.22     22.84     -0.01      0.02      0.00 
   399.00     17.02     28.21     22.84     -0.01      0.03      0.00 
   399.01     17.02     28.22     22.84     -0.02      0.03      0.00 
   399.02     17.02     28.22     22.84     -0.02      0.03      0.00 
   399.03     17.02     28.22     22.84     -0.02      0.03      0.00 
   399.04     17.02     28.22     22.84     -0.02      0.03      0.00 
   399.05     17.02     28.22     22.84     -0.02      0.03      0.00 
   399.06     17.02     28.22     22.84     -0.01      0.03      0.00 
   399.07     17.02     28.22     22.84     -0.01      0.02      0.00 
   399.08     17.02     28.22     22.84     -0.01      0.02      0.00 
   399.09     17.02     28.22     22.84     -0.01      0.01      0.00 
   399.10     17.02     28.21     22.84     -0.00      0.01      0.00 
   399.11     17.02     28.22     22.84     -0.00      0.01      0.00 
   399.12     17.02     28.22     22.84     -0.00      0.01      0.35 
   399.13     17.02     28.21     22.83     -0.00      0.00      0.35 
   399.14     17.02     28.21     22.84     -0.00      0.00      0.35 
   399.15     17.02     28.21     22.83      0.00     -0.00      0.35 
   399.16     17.02     28.20     22.83      0.00     -0.01      0.35 
   399.17     17.03     28.20     22.83      0.01     -0.02      0.35 
   399.18     17.03     28.20     22.83      0.00     -0.01      0.35 
   399.19     17.03     28.19     22.83      0.00     -0.01      0.35 
   399.20     17.03     28.20     22.84      0.00     -0.00      0.35 
   399.21     17.03     28.20     22.83     -0.00     -0.00      0.35 
   399.22     17.03     28.19     22.83     -0.00     -0.00      0.35 
   399.23     17.03     28.19     22.84      0.00     -0.00      0.35 
   399.24     17.03     28.19     22.84      0.00     -0.00      0.35 
   399.25     17.03     28.19     22.84      0.00     -0.00      0.35 
   399.26     17.03     28.20     22.84     -0.00      0.01      0.35 
   399.27     17.03     28.20     22.84     -0.01      0.01      0.35 
   399.28     17.02     28.20     22.84     -0.01      0.01      0.35 
   399.29     17.02     28.21     22.84     -0.01      0.02      0.00 
   399.30     17.02     28.21     22.84     -0.01      0.01      0.00 
   399.31     17.02     28.21     22.84     -0.00      0.01      0.00 
   399.32     17.02     28.21     22.84     -0.00      0.01      0.00 
   399.33     17.02     28.21     22.84     -0.00      0.01      0.00 
   399.34     17.02     28.21     22.84     -0.00      0.01      0.00 
   399.35     17.02     28.21     22.84     -0.00      0.01      0.00 
   399.36     17.02     28.21     22.84     -0.00      0.01      0.00 
   399.37     17.02     28.20     22.84     -0.00     -0.00      0.00 
   399.38     17.03     28.20     22.84     -0.00      0.00      0.00 
   399.39     17.03     28.21     22.84     -0.00      0.01      0.00 
   399.40     17.02     28.21     22.84     -0.00      0.00      0.00 
   399.41     17.02     28.21     22.84     -0.01      0.01      0.00 
