#Written by Robertson Geologging WinLogger V1.0/370
~VERSION INFORMATION
#------------------------------------------------------------------------------
 VERS. 2.0 : CWLS LOG ASCII STANDARD - VERSION 2.0
 WRAP. NO  : ONE LINE PER DEPTH STEP
~WELL INFORMATION
#MNEM.UNIT         DATA                                DESCRIPTION OF MNEMONIC
#------------------------------------------------------------------------------
 STRT.M        124.0500                            :   START DEPTH
 STOP.M        430.1300                            :   STOP DEPTH
 STEP.M          0.0100                            :   STEP VALUE
 NULL.        -999.2500                            :   NULL VALUE
 COMP.    White Young Green                        :   COMPANY NAME
 WELL.    Hawthorn                                 :   WELL NAME
 FLD.     Hawthorn                                 :   FIELD NAME
 LOC.     N/A                                      :   LOCATION
 PROV.    N/A                                      :   PROVINCE
 SRVC.    N/A                                      :   SERVICE COMPANY NAME
 DATE.    05 Oct 05                                :   DATE
 UWI.     N/A                                      :   UNIQUE WELL IDENTIFIER
~PARAMETER INFORMATION
#MNEMO.UNIT         VALUE                 DESCRIPTION OF MNEMONIC
#------------------------------------------------------------------------------
~OTHER INFORMATION SECTION
#------------------------------------------------------------------------------
 TCGS1365
~CURVE INFORMATION
#MNEMO.UNIT         API CODE              CURVE DESCRIPTION
#------------------------------------------------------------------------------
 DEPTH.M                                 :   0     Depth
 TEMP.DegC                               :   1     Temperature
 CN25.mS/cm                              :   2     Conductivity@25DegC
 COND.mS/cm                              :   3     Conductivity
 DELT.DegC                               :   4     Delta T
 DELC.mS/cm                              :   5     Delta C
 NGAM.CPS                                :   6     Natural Gamma
#------------------------------------------------------------------------------
~A  DEPTH     TEMP      CN25      COND      DELT      DELC      NGAM      
# ...
   266.43     16.39     36.05     28.40     -0.01      0.04      2.18 
   266.44     16.39     36.05     28.40     -0.01      0.04      2.18 
   266.45     16.39     36.05     28.40     -0.01      0.04      1.76 
   266.46     16.39     36.05     28.40     -0.01      0.03      2.18 
   266.47     16.39     36.05     28.40     -0.01      0.03      1.71 
   266.48     16.39     36.05     28.40     -0.01      0.03      1.71 
   266.49     16.39     36.05     28.40     -0.01      0.03      2.18 
   266.50     16.39     36.04     28.40     -0.01      0.03      2.18 
   266.51     16.39     36.04     28.40     -0.01      0.03      2.65 
   266.52     16.40     36.04     28.40     -0.00      0.02      2.59 
   266.53     16.40     36.04     28.40     -0.00      0.00      2.24 
   266.54     16.40     36.03     28.40      0.00     -0.01      2.65 
   266.55     16.40     36.03     28.40      0.01     -0.01      2.65 
   266.56     16.40     36.03     28.40      0.01     -0.01      3.06 
   266.57     16.40     36.03     28.40      0.00     -0.00      3.47 
   266.58     16.40     36.03     28.40      0.00     -0.00      3.47 
   266.59     16.41     36.02     28.40      0.01     -0.00      3.47 
   266.60     16.41     36.02     28.40      0.01     -0.01      3.47 
   266.61     16.41     36.01     28.40      0.01     -0.02      3.47 
   266.62     16.41     36.01     28.40      0.01     -0.02      3.47 
   266.63     16.41     36.02     28.40      0.01     -0.01      3.53 
   266.64     16.41     36.01     28.40      0.01     -0.01      3.53 
   266.65     16.41     36.01     28.40      0.01     -0.01      3.53 
   266.66     16.41     36.01     28.40      0.01     -0.02      3.06 
   266.67     16.41     36.01     28.40      0.01     -0.02      3.06 
   266.68     16.41     36.01     28.40      0.02     -0.02      3.00 
   266.69     16.41     36.02     28.40      0.01     -0.02      2.59 
   266.70     16.41     36.02     28.40      0.01     -0.02      2.59 
   266.71     16.40     36.03     28.40      0.01     -0.01      2.59 
   266.72     16.40     36.03     28.40      0.00     -0.00      2.59 
   266.73     16.40     36.03     28.40      0.00      0.00      2.65 
   266.74     16.40     36.03     28.40     -0.00      0.01      2.24 
   266.75     16.40     36.03     28.40     -0.00      0.01      2.24 
   266.76     16.40     36.04     28.40     -0.00      0.01      2.71 
   266.77     16.40     36.04     28.40     -0.01      0.02      2.71 
   266.78     16.40     36.04     28.40     -0.01      0.02      2.71 
   266.79     16.40     36.04     28.40     -0.01      0.02      2.71 
   266.80     16.40     36.04     28.40     -0.01      0.02      2.24 
   266.81     16.40     36.03     28.40     -0.01      0.02      2.24 
   266.82     16.40     36.04     28.40     -0.01      0.02      2.24 
   266.83     16.40     36.04     28.40     -0.00      0.01      2.24 
   266.84     16.39     36.04     28.40     -0.00      0.01      2.24 
   266.85     16.39     36.05     28.40     -0.00      0.01      2.24 
   266.86     16.39     36.05     28.40     -0.01      0.02      2.24 
   266.87     16.39     36.05     28.40     -0.01      0.02      1.76 
   266.88     16.39     36.06     28.40     -0.01      0.03      1.76 
   266.89     16.39     36.06     28.40     -0.01      0.03      1.76 
   266.90     16.39     36.06     28.40     -0.01      0.03      1.29 
   266.91     16.39     36.06     28.40     -0.01      0.03      1.71 
   266.92     16.39     36.06     28.40     -0.01      0.02      1.71 
   266.93     16.39     36.05     28.40     -0.01      0.02      1.71 
   266.94     16.40     36.04     28.40     -0.00      0.01      1.71 
   266.95     16.40     36.03     28.40     -0.00      0.00      1.71 
   266.96     16.40     36.03     28.40      0.00      0.01      1.71 
   266.97     16.40     36.02     28.40      0.00     -0.00      1.71 
   266.98     16.41     36.02     28.40      0.01     -0.01      1.71 
   266.99     16.41     36.02     28.40      0.01     -0.01      1.71 
   267.00     16.41     36.02     28.40      0.01     -0.02      1.71 
   267.01     16.41     36.02     28.40      0.01     -0.02      2.12 
   267.02     16.41     36.02     28.40      0.01     -0.02      2.18 
   267.03     16.40     36.02     28.40      0.01     -0.01      2.18 
   267.04     16.40     36.03     28.40      0.01     -0.01      2.18 
   267.05     16.40     36.03     28.40      0.00     -0.01      1.76 
   267.06     16.40     36.03     28.40      0.00     -0.00      1.76 
   267.07     16.40     36.03     28.40      0.00     -0.01      1.76 
   267.08     16.40     36.04     28.41      0.01     -0.00      1.35 
   267.09     16.40     36.04     28.41      0.01     -0.01      1.35 
   267.10     16.40     36.03     28.41      0.01     -0.01      0.88 
   267.11     16.41     36.02     28.40      0.01     -0.02      0.88 
   267.12     16.41     36.02     28.40      0.01     -0.02      0.88 
   267.13     16.41     36.02     28.40      0.01     -0.02      0.88 
   267.14     16.41     36.02     28.40      0.01     -0.02      0.88 
   267.15     16.41     36.02     28.41      0.01     -0.02      1.35 
   267.16     16.41     36.02     28.41      0.01     -0.02      1.35 
   267.17     16.41     36.02     28.41      0.02     -0.02      1.35 
   267.18     16.41     36.02     28.41      0.02     -0.03      0.94 
   267.19     16.41     36.02     28.40      0.02     -0.03      0.47 
   267.20     16.41     36.02     28.41      0.02     -0.03      0.47 
   267.21     16.41     36.02     28.41      0.02     -0.02      1.29 
   267.22     16.41     36.02     28.41      0.02     -0.02      1.29 
   267.23     16.41     36.02     28.41      0.02     -0.02      1.76 
   267.24     16.41     36.02     28.41      0.02     -0.02      1.76 
   267.25     16.41     36.02     28.41      0.02     -0.02      1.76 
   267.26     16.41     36.02     28.41      0.02     -0.02      1.76 
   267.27     16.41     36.02     28.41      0.02     -0.02      1.76 
   267.28     16.41     36.02     28.41      0.02     -0.02      1.76 
   267.29     16.41     36.02     28.41      0.02     -0.02      1.76 
   267.30     16.41     36.02     28.41      0.02     -0.03      1.76 
   267.31     16.41     36.02     28.40      0.02     -0.02      2.18 
   267.32     16.41     36.02     28.41      0.02     -0.02      1.71 
   267.33     16.41     36.02     28.41      0.02     -0.02      1.71 
   267.34     16.41     36.03     28.41      0.01     -0.02      1.71 
   267.35     16.41     36.03     28.41      0.02     -0.02      1.71 
   267.36     16.40     36.03     28.41      0.02     -0.02      1.71 
   267.37     16.41     36.03     28.41      0.02     -0.03      1.71 
   267.38     16.41     36.02     28.41      0.02     -0.03      1.35 
   267.39     16.41     36.02     28.41      0.02     -0.03      1.35 
   267.40     16.41     36.02     28.41      0.02     -0.03      0.88 
   267.41     16.41     36.02     28.41      0.02     -0.03      0.88 
   267.42     16.41     36.02     28.41      0.02     -0.03      0.88 
   267.43     16.41     36.02     28.41      0.02     -0.03      0.88 
   267.44     16.41     36.02     28.41      0.02     -0.03      1.29 
   267.45     16.41     36.02     28.41      0.02     -0.03      1.29 
   267.46     16.41     36.03     28.41      0.02     -0.02      1.29 
   267.47     16.41     36.02     28.41      0.02     -0.03      1.29 
   267.48     16.41     36.03     28.41      0.01     -0.02      1.35 
   267.49     16.41     36.03     28.41      0.01     -0.02      1.35 
   267.50     16.41     36.03     28.41      0.01     -0.01      1.35 
   267.51     16.40     36.03     28.41      0.01     -0.01      1.35 
   267.52     16.40     36.04     28.41      0.00      0.00      1.35 
   267.53     16.40     36.03     28.41      0.00      0.00      1.35 
   267.54     16.40     36.03     28.41      0.00      0.00      1.82 
   267.55     16.41     36.03     28.41      0.00      0.00      1.35 
