#Written by Robertson Geologging WinLogger V1.0/370
~VERSION INFORMATION
#------------------------------------------------------------------------------
 VERS. 2.0 : CWLS LOG ASCII STANDARD - VERSION 2.0
 WRAP. NO  : ONE LINE PER DEPTH STEP
~WELL INFORMATION
#MNEM.UNIT         DATA                                DESCRIPTION OF MNEMONIC
#------------------------------------------------------------------------------
 STRT.M        124.0500                            :   START DEPTH
 STOP.M        430.1300                            :   STOP DEPTH
 STEP.M          0.0100                            :   STEP VALUE
 NULL.        -999.2500                            :   NULL VALUE
 COMP.    White Young Green                        :   COMPANY NAME
 WELL.    Hawthorn                                 :   WELL NAME
 FLD.     Hawthorn                                 :   FIELD NAME
 LOC.     N/A                                      :   LOCATION
 PROV.    N/A                                      :   PROVINCE
 SRVC.    N/A                                      :   SERVICE COMPANY NAME
 DATE.    05 Oct 05                                :   DATE
 UWI.     N/A                                      :   UNIQUE WELL IDENTIFIER
~PARAMETER INFORMATION
#MNEMO.UNIT         VALUE                 DESCRIPTION OF MNEMONIC
#------------------------------------------------------------------------------
~OTHER INFORMATION SECTION
#------------------------------------------------------------------------------
 TCGS1365
~CURVE INFORMATION
#MNEMO.UNIT         API CODE              CURVE DESCRIPTION
#------------------------------------------------------------------------------
 DEPTH.M                                 :   0     Depth
 TEMP.DegC                               :   1     Temperature
 CN25.mS/cm                              :   2     Conductivity@25DegC
 COND.mS/cm                              :   3     Conductivity
 DELT.DegC                               :   4     Delta T
 DELC.mS/cm                              :   5     Delta C
 NGAM.CPS                                :   6     Natural Gamma
#------------------------------------------------------------------------------
~A  DEPTH     TEMP      CN25      COND      DELT      DELC      NGAM      
# ...
   185.07     12.17      7.96      1.36      0.00     -0.00      3.06 
   185.08     12.18      7.96      1.36      0.01     -0.01      3.06 
   185.09     12.18      7.96      1.36      0.01     -0.01      3.47 
   185.10     12.18      7.95      1.36      0.01     -0.01      3.06 
   185.11     12.18      7.95      1.36      0.00     -0.01      3.06 
   185.12     12.18      7.95      1.36      0.01     -0.01      3.06 
   185.13     12.18      7.95      1.36      0.01     -0.01      2.76 
   185.14     12.18      7.95      1.36      0.01     -0.01      2.76 
   185.15     12.18      7.95      1.36      0.01     -0.02      2.76 
   185.16     12.18      7.95      1.36      0.01     -0.02      2.76 
   185.17     12.18      7.95      1.36      0.01     -0.01      2.59 
   185.18     12.18      7.95      1.36      0.01     -0.02      2.71 
   185.19     12.18      7.96      1.36      0.01     -0.01      2.71 
   185.20     12.18      7.95      1.36      0.01     -0.01      2.71 
   185.21     12.17      7.96      1.36      0.01     -0.01      2.71 
   185.22     12.17      7.96      1.36      0.01     -0.01      3.06 
   185.23     12.17      7.96      1.36      0.00     -0.01      3.06 
   185.24     12.17      7.96      1.36      0.00     -0.01      3.47 
   185.25     12.17      7.96      1.36      0.00     -0.01      3.47 
   185.26     12.17      7.97      1.36     -0.00      0.00      3.06 
   185.27     12.17      7.97      1.36     -0.00      0.00      3.06 
   185.28     12.16      7.97      1.36     -0.01      0.01      3.06 
   185.29     12.16      7.97      1.36     -0.00      0.00      3.06 
   185.30     12.17      7.96      1.36     -0.00     -0.00      3.06 
   185.31     12.17      7.97      1.36      0.00     -0.00      3.06 
   185.32     12.17      7.96      1.36      0.00     -0.00      3.06 
   185.33     12.17      7.96      1.36      0.00     -0.00      3.06 
   185.34     12.17      7.96      1.36      0.00     -0.00      2.82 
   185.35     12.17      7.96      1.36      0.01     -0.01      2.00 
   185.36     12.17      7.96      1.36      0.01     -0.01      2.41 
   185.37     12.18      7.96      1.36      0.01     -0.01      2.41 
   185.38     12.18      7.95      1.36      0.01     -0.01      2.41 
   185.39     12.18      7.95      1.36      0.01     -0.01      2.47 
   185.40     12.18      7.96      1.36      0.01     -0.01      2.47 
   185.41     12.18      7.96      1.36      0.01     -0.01      2.06 
   185.42     12.18      7.96      1.36      0.01     -0.01      2.06 
   185.43     12.18      7.96      1.36      0.00     -0.00      2.06 
   185.44     12.18      7.96      1.36      0.00     -0.00      2.06 
   185.45     12.18      7.96      1.36      0.00     -0.00      2.47 
   185.46     12.18      7.96      1.36     -0.00      0.00      4.12 
   185.47     12.18      7.96      1.36     -0.00      0.00      4.12 
   185.48     12.17      7.96      1.36     -0.01      0.01      4.94 
   185.49     12.17      7.96      1.36     -0.01      0.01      4.94 
   185.50     12.17      7.96      1.36     -0.01      0.01      4.94 
   185.51     12.17      7.96      1.36     -0.01      0.01      4.12 
   185.52     12.17      7.96      1.36     -0.01      0.01      4.53 
   185.53     12.17      7.96      1.36     -0.01      0.01      4.12 
   185.54     12.17      7.96      1.36     -0.02      0.02      4.53 
   185.55     12.17      7.97      1.36     -0.02      0.02      4.94 
   185.56     12.17      7.97      1.36     -0.01      0.01      4.53 
   185.57     12.17      7.97      1.36     -0.01      0.01      5.35 
   185.58     12.17      7.97      1.36     -0.01      0.01      5.35 
   185.59     12.17      7.97      1.36     -0.01      0.01      5.35 
   185.60     12.17      7.97      1.36     -0.01      0.01      5.35 
   185.61     12.17      7.97      1.36     -0.00      0.00      5.71 
   185.62     12.17      7.96      1.36     -0.00      0.00      5.71 
   185.63     12.17      7.96      1.36     -0.00      0.00      4.47 
   185.64     12.17      7.96      1.36     -0.00      0.00      4.47 
   185.65     12.17      7.96      1.36      0.00      0.00      3.65 
   185.66     12.17      7.96      1.36      0.00     -0.00      3.65 
   185.67     12.17      7.96      1.36      0.00     -0.00      3.65 
   185.68     12.17      7.96      1.36      0.00     -0.00      3.65 
   185.69     12.17      7.97      1.36     -0.00      0.00      3.65 
   185.70     12.17      7.97      1.36     -0.00      0.00      3.65 
   185.71     12.17      7.97      1.36      0.00      0.00      3.24 
   185.72     12.17      7.96      1.36      0.00     -0.00      2.82 
   185.73     12.17      7.96      1.36      0.01     -0.01      2.82 
   185.74     12.18      7.96      1.36      0.01     -0.01      2.00 
   185.75     12.18      7.96      1.36      0.02     -0.01      2.00 
   185.76     12.18      7.95      1.36      0.02     -0.01      2.00 
   185.77     12.18      7.95      1.36      0.02     -0.02      2.41 
   185.78     12.18      7.95      1.36      0.02     -0.01      2.47 
   185.79     12.18      7.96      1.36      0.02     -0.01      2.06 
   185.80     12.18      7.96      1.36      0.02     -0.01      1.65 
   185.81     12.18      7.96      1.36      0.01     -0.01      1.24 
   185.82     12.18      7.96      1.36      0.01     -0.01      1.65 
   185.83     12.18      7.96      1.36      0.01     -0.01      1.65 
   185.84     12.17      7.96      1.36      0.01     -0.01      2.47 
   185.85     12.17      7.96      1.36      0.01     -0.01      2.47 
   185.86     12.17      7.97      1.36      0.01     -0.01      2.47 
   185.87     12.17      7.97      1.36      0.01     -0.01      2.47 
   185.88     12.17      7.97      1.36      0.01     -0.01      2.82 
   185.89     12.17      7.97      1.36      0.01     -0.01      3.24 
   185.90     12.17      7.96      1.36      0.01     -0.01      4.06 
   185.91     12.17      7.96      1.36      0.01     -0.01      4.06 
   185.92     12.17      7.96      1.36      0.01     -0.01      4.41 
   185.93     12.17      7.96      1.36      0.01     -0.01      4.41 
   185.94     12.17      7.96      1.36      0.01     -0.01      4.00 
   185.95     12.17      7.96      1.36      0.01     -0.01      4.00 
   185.96     12.17      7.96      1.36      0.01     -0.01      4.35 
   185.97     12.17      7.96      1.36      0.01     -0.01      4.76 
   185.98     12.18      7.96      1.36      0.01     -0.01      5.59 
   185.99     12.18      7.96      1.36      0.01     -0.01      5.59 
   186.00     12.18      7.96      1.36      0.01     -0.01      6.82 
   186.01     12.17      7.96      1.36      0.01     -0.01      6.41 
   186.02     12.17      7.96      1.36      0.01     -0.01      6.41 
   186.03     12.17      7.96      1.36      0.00     -0.00      6.41 
   186.04     12.17      7.96      1.36      0.00     -0.00      6.82 
   186.05     12.17      7.96      1.36      0.00      0.00      7.29 
   186.06     12.17      7.96      1.36     -0.00      0.00      7.29 
   186.07     12.17      7.96      1.36     -0.00      0.00      6.47 
   186.08     12.17      7.96      1.36     -0.01      0.01      7.29 
   186.09     12.17      7.96      1.36     -0.01      0.01      6.94 
   186.10     12.17      7.96      1.36     -0.01      0.01      6.94 
   186.11     12.17      7.96      1.36     -0.01      0.01      7.35 
   186.12     12.17      7.96      1.36     -0.01      0.01      7.29 
   186.13     12.17      7.96      1.36     -0.01      0.01      7.76 
   186.14     12.17      7.96      1.36     -0.01      0.01      7.35 
   186.15     12.17      7.96      1.36     -0.01      0.02      6.53 
   186.16     12.17      7.96      1.36     -0.01      0.01      6.53 
   186.17     12.17      7.97      1.36     -0.01      0.02      5.29 
   186.18     12.17      7.97      1.36     -0.01      0.01      4.88 
   186.19     12.17      7.97      1.36     -0.01      0.01      5.29 
