#Written by Robertson Geologging WinLogger V1.0/370
~VERSION INFORMATION
#------------------------------------------------------------------------------
 VERS. 2.0 : CWLS LOG ASCII STANDARD - VERSION 2.0
 WRAP. NO  : ONE LINE PER DEPTH STEP
~WELL INFORMATION
#MNEM.UNIT         DATA                                DESCRIPTION OF MNEMONIC
#------------------------------------------------------------------------------
 STRT.M        124.0500                            :   START DEPTH
 STOP.M        430.1300                            :   STOP DEPTH
 STEP.M          0.0100                            :   STEP VALUE
 NULL.        -999.2500                            :   NULL VALUE
 COMP.    White Young Green                        :   COMPANY NAME
 WELL.    Hawthorn                                 :   WELL NAME
 FLD.     Hawthorn                                 :   FIELD NAME
 LOC.     N/A                                      :   LOCATION
 PROV.    N/A                                      :   PROVINCE
 SRVC.    N/A                                      :   SERVICE COMPANY NAME
 DATE.    05 Oct 05                                :   DATE
 UWI.     N/A                                      :   UNIQUE WELL IDENTIFIER
~PARAMETER INFORMATION
#MNEMO.UNIT         VALUE                 DESCRIPTION OF MNEMONIC
#------------------------------------------------------------------------------
~OTHER INFORMATION SECTION
#------------------------------------------------------------------------------
 TCGS1365
~CURVE INFORMATION
#MNEMO.UNIT         API CODE              CURVE DESCRIPTION
#------------------------------------------------------------------------------
 DEPTH.M                                 :   0     Depth
 TEMP.DegC                               :   1     Temperature
 CN25.mS/cm                              :   2     Conductivity@25DegC
 COND.mS/cm                              :   3     Conductivity
 DELT.DegC                               :   4     Delta T
 DELC.mS/cm                              :   5     Delta C
 NGAM.CPS                                :   6     Natural Gamma
#------------------------------------------------------------------------------
~A  DEPTH     TEMP      CN25      COND      DELT      DELC      NGAM      
# ...
   368.13     17.16     48.71     40.33      0.02      0.07      1.65 
   368.14     17.16     48.71     40.33      0.02      0.07      1.24 
   368.15     17.16     48.71     40.33      0.02      0.06      1.24 
   368.16     17.16     48.72     40.33      0.02      0.06      1.24 
   368.17     17.15     48.73     40.33      0.02      0.07      2.06 
   368.18     17.15     48.73     40.33      0.02      0.07      3.29 
   368.19     17.15     48.74     40.33      0.01      0.08      2.88 
   368.20     17.15     48.74     40.34      0.01      0.09      3.29 
   368.21     17.15     48.75     40.34      0.01      0.10      3.29 
   368.22     17.15     48.74     40.34      0.00      0.10      3.29 
   368.23     17.15     48.74     40.34      0.00      0.10      2.88 
   368.24     17.15     48.74     40.34      0.00      0.11      3.29 
   368.25     17.15     48.74     40.34      0.00      0.11      3.71 
   368.26     17.15     48.74     40.34      0.00      0.11      3.71 
   368.27     17.15     48.74     40.34      0.00      0.11      3.29 
   368.28     17.16     48.73     40.34      0.00      0.10      3.29 
   368.29     17.16     48.73     40.34      0.00      0.09      3.71 
   368.30     17.16     48.73     40.34      0.01      0.10      4.53 
   368.31     17.16     48.74     40.34      0.01      0.09      4.53 
   368.32     17.16     48.74     40.34      0.01      0.10      4.94 
   368.33     17.15     48.74     40.35      0.00      0.10      4.94 
   368.34     17.15     48.75     40.35      0.01      0.10      4.94 
   368.35     17.15     48.75     40.35      0.01      0.09      4.12 
   368.36     17.15     48.76     40.35      0.01      0.10      4.12 
   368.37     17.15     48.76     40.35      0.01      0.10      3.71 
   368.38     17.15     48.76     40.35      0.01      0.10      3.71 
   368.39     17.15     48.76     40.35      0.01      0.10      3.71 
   368.40     17.15     48.76     40.35      0.01      0.11      3.71 
   368.41     17.15     48.76     40.35      0.01      0.10      3.71 
   368.42     17.15     48.76     40.35      0.01      0.10      3.29 
   368.43     17.15     48.77     40.36      0.01      0.09      3.29 
   368.44     17.15     48.76     40.35      0.01      0.09      4.12 
   368.45     17.15     48.76     40.35      0.01      0.09      4.12 
   368.46     17.15     48.76     40.36      0.01      0.09      3.71 
   368.47     17.15     48.75     40.35      0.01      0.09      3.29 
   368.48     17.15     48.76     40.36      0.01      0.10      3.29 
   368.49     17.15     48.76     40.36      0.00      0.10      2.88 
   368.50     17.15     48.77     40.36      0.00      0.10      2.88 
   368.51     17.15     48.77     40.36      0.00      0.10      2.06 
   368.52     17.15     48.77     40.36      0.00      0.10      1.65 
   368.53     17.15     48.77     40.36      0.00      0.09      1.65 
   368.54     17.15     48.76     40.36      0.01      0.09      2.47 
   368.55     17.15     48.77     40.37      0.01      0.09      2.47 
   368.56     17.15     48.77     40.37      0.01      0.08      2.47 
   368.57     17.15     48.76     40.37      0.01      0.07      3.29 
   368.58     17.16     48.77     40.37      0.01      0.07      2.88 
   368.59     17.16     48.77     40.37      0.02      0.06      2.88 
   368.60     17.16     48.76     40.37      0.02      0.07      2.88 
   368.61     17.16     48.76     40.37      0.02      0.06      2.06 
   368.62     17.16     48.76     40.37      0.02      0.06      2.06 
   368.63     17.16     48.76     40.37      0.02      0.06      2.06 
   368.64     17.16     48.76     40.37      0.02      0.06      1.65 
   368.65     17.16     48.76     40.37      0.02      0.06      1.65 
   368.66     17.16     48.75     40.37      0.02      0.06      2.47 
   368.67     17.16     48.76     40.38      0.02      0.06      2.47 
   368.68     17.16     48.76     40.38      0.02      0.06      2.47 
   368.69     17.16     48.76     40.38      0.02      0.06      2.47 
   368.70     17.16     48.76     40.38      0.02      0.07      2.47 
   368.71     17.16     48.76     40.38      0.01      0.07      2.88 
   368.72     17.16     48.77     40.38      0.01      0.08      2.88 
   368.73     17.16     48.78     40.38      0.01      0.08      3.24 
   368.74     17.16     48.78     40.38      0.01      0.09      2.82 
   368.75     17.15     48.79     40.38      0.01      0.09      2.82 
   368.76     17.15     48.79     40.39      0.00      0.10      3.24 
   368.77     17.15     48.80     40.39      0.00      0.10      3.24 
   368.78     17.15     48.80     40.39      0.00      0.10      3.65 
   368.79     17.15     48.80     40.39      0.00      0.10      3.65 
   368.80     17.15     48.80     40.39     -0.00      0.11      4.06 
   368.81     17.15     48.80     40.39      0.00      0.10      4.06 
   368.82     17.15     48.80     40.39      0.00      0.11      4.06 
   368.83     17.15     48.80     40.39      0.00      0.10      3.24 
   368.84     17.16     48.79     40.39      0.00      0.09      3.59 
   368.85     17.16     48.79     40.39      0.01      0.09      3.59 
   368.86     17.16     48.79     40.40      0.01      0.08      3.59 
   368.87     17.16     48.78     40.39      0.01      0.07      3.59 
   368.88     17.16     48.78     40.40      0.01      0.07      2.35 
   368.89     17.16     48.78     40.40      0.01      0.07      2.35 
   368.90     17.16     48.78     40.40      0.01      0.07      2.00 
   368.91     17.16     48.78     40.40      0.01      0.08      2.41 
   368.92     17.16     48.79     40.40      0.01      0.08      2.41 
   368.93     17.16     48.79     40.40      0.01      0.08      2.00 
   368.94     17.16     48.79     40.40      0.01      0.09      2.00 
   368.95     17.16     48.80     40.40      0.01      0.09      1.59 
   368.96     17.16     48.80     40.40      0.01      0.08      1.59 
   368.97     17.16     48.80     40.40      0.01      0.08      1.18 
   368.98     17.15     48.81     40.40      0.01      0.09      1.18 
   368.99     17.15     48.81     40.40      0.00      0.09      1.18 
   369.00     17.15     48.81     40.40      0.00      0.09      1.18 
   369.01     17.15     48.82     40.40      0.00      0.09      0.82 
   369.02     17.15     48.81     40.40      0.00      0.09      0.82 
   369.03     17.15     48.81     40.40      0.00      0.09      1.24 
   369.04     17.15     48.81     40.41      0.00      0.09      1.59 
   369.05     17.15     48.81     40.41      0.00      0.09      1.59 
   369.06     17.15     48.81     40.41      0.00      0.10      1.59 
   369.07     17.15     48.82     40.41     -0.00      0.11      1.59 
   369.08     17.16     48.82     40.41     -0.00      0.11      0.76 
   369.09     17.16     48.82     40.41     -0.01      0.12      0.76 
   369.10     17.15     48.82     40.41     -0.01      0.12      0.76 
   369.11     17.15     48.83     40.42     -0.01      0.13      0.76 
   369.12     17.15     48.83     40.42     -0.01      0.12      0.76 
   369.13     17.15     48.83     40.42     -0.01      0.12      0.76 
   369.14     17.15     48.83     40.42     -0.01      0.12      0.76 
   369.15     17.15     48.83     40.42     -0.01      0.11      1.18 
   369.16     17.15     48.83     40.42     -0.00      0.11      1.18 
   369.17     17.15     48.84     40.42     -0.00      0.11      1.18 
   369.18     17.15     48.83     40.42      0.00      0.10      1.18 
   369.19     17.15     48.84     40.42      0.00      0.09      1.59 
   369.20     17.15     48.84     40.42      0.00      0.09      1.18 
   369.21     17.15     48.84     40.43      0.01      0.10      0.82 
   369.22     17.15     48.84     40.42      0.00      0.10      1.18 
   369.23     17.15     48.84     40.43      0.00      0.10      1.18 
   369.24     17.15     48.84     40.43      0.00      0.10      2.00 
   369.25     17.15     48.84     40.43     -0.00      0.10      2.82 
