#Written by Robertson Geologging WinLogger V1.0/370
~VERSION INFORMATION
#------------------------------------------------------------------------------
 VERS. 2.0 : CWLS LOG ASCII STANDARD - VERSION 2.0
 WRAP. NO  : ONE LINE PER DEPTH STEP
~WELL INFORMATION
#MNEM.UNIT         DATA                                DESCRIPTION OF MNEMONIC
#------------------------------------------------------------------------------
 STRT.M        124.0500                            :   START DEPTH
 STOP.M        430.1300                            :   STOP DEPTH
 STEP.M          0.0100                            :   STEP VALUE
 NULL.        -999.2500                            :   NULL VALUE
 COMP.    White Young Green                        :   COMPANY NAME
 WELL.    Hawthorn                                 :   WELL NAME
 FLD.     Hawthorn                                 :   FIELD NAME
 LOC.     N/A                                      :   LOCATION
 PROV.    N/A                                      :   PROVINCE
 SRVC.    N/A                                      :   SERVICE COMPANY NAME
 DATE.    05 Oct 05                                :   DATE
 UWI.     N/A                                      :   UNIQUE WELL IDENTIFIER
~PARAMETER INFORMATION
#MNEMO.UNIT         VALUE                 DESCRIPTION OF MNEMONIC
#------------------------------------------------------------------------------
~OTHER INFORMATION SECTION
#------------------------------------------------------------------------------
 TCGS1365
~CURVE INFORMATION
#MNEMO.UNIT         API CODE              CURVE DESCRIPTION
#------------------------------------------------------------------------------
 DEPTH.M                                 :   0     Depth
 TEMP.DegC                               :   1     Temperature
 CN25.mS/cm                              :   2     Conductivity@25DegC
 COND.mS/cm                              :   3     Conductivity
 DELT.DegC                               :   4     Delta T
 DELC.mS/cm                              :   5     Delta C
 NGAM.CPS                                :   6     Natural Gamma
#------------------------------------------------------------------------------
~A  DEPTH     TEMP      CN25      COND      DELT      DELC      NGAM      
# ...
   246.09     12.18      7.95      1.36     -0.01      0.01      5.29 
   246.10     12.18      7.95      1.36     -0.00      0.01      5.29 
   246.11     12.18      7.95      1.36     -0.00     -0.00      4.35 
   246.12     12.18      7.95      1.36      0.00     -0.01      4.35 
   246.13     12.19      7.95      1.36      0.01     -0.00      4.35 
   246.14     12.19      7.95      1.36      0.01     -0.01      4.35 
   246.15     12.19      7.95      1.36      0.01     -0.01      4.76 
   246.16     12.19      7.95      1.36      0.01     -0.01      4.76 
   246.17     12.19      7.95      1.36      0.01     -0.01      4.76 
   246.18     12.19      7.94      1.36      0.02     -0.02      4.76 
   246.19     12.19      7.94      1.36      0.02     -0.02      5.12 
   246.20     12.19      7.94      1.36      0.02     -0.02      4.71 
   246.21     12.19      7.94      1.36      0.01     -0.01      4.29 
   246.22     12.19      7.94      1.36      0.01     -0.01      3.88 
   246.23     12.19      7.94      1.36      0.01     -0.01      3.41 
   246.24     12.19      7.94      1.36      0.01     -0.01      3.41 
   246.25     12.19      7.94      1.36      0.01     -0.01      3.41 
   246.26     12.19      7.94      1.36      0.01     -0.00      2.94 
   246.27     12.19      7.94      1.36      0.00     -0.00      2.94 
   246.28     12.19      7.94      1.36      0.00     -0.01      2.94 
   246.29     12.19      7.95      1.36      0.00     -0.00      3.41 
   246.30     12.19      7.95      1.36      0.00     -0.00      2.94 
   246.31     12.19      7.95      1.36      0.00     -0.00      2.94 
   246.32     12.19      7.95      1.36      0.01     -0.01      3.00 
   246.33     12.19      7.94      1.36      0.01     -0.01      3.00 
   246.34     12.19      7.94      1.36      0.01     -0.01      3.00 
   246.35     12.19      7.94      1.36      0.01     -0.01      4.47 
   246.36     12.19      7.94      1.36      0.01     -0.01      3.65 
   246.37     12.19      7.94      1.36      0.01     -0.01      4.06 
   246.38     12.19      7.94      1.36      0.01     -0.01      3.65 
   246.39     12.19      7.94      1.36      0.01     -0.01      3.65 
   246.40     12.19      7.94      1.36      0.01     -0.01      3.65 
   246.41     12.19      7.94      1.36      0.00     -0.00      3.76 
   246.42     12.19      7.94      1.36      0.00     -0.00      3.76 
   246.43     12.19      7.94      1.36      0.00     -0.00      3.76 
   246.44     12.19      7.95      1.36     -0.00      0.00      4.18 
   246.45     12.18      7.95      1.36      0.00      0.00      5.00 
   246.46     12.18      7.95      1.36      0.00     -0.00      4.53 
   246.47     12.18      7.95      1.36      0.00     -0.00      4.53 
   246.48     12.18      7.95      1.36      0.00      0.00      4.94 
   246.49     12.18      7.95      1.36     -0.00      0.00      4.47 
   246.50     12.18      7.95      1.36      0.00     -0.00      4.47 
   246.51     12.18      7.95      1.36      0.00     -0.00      4.47 
   246.52     12.18      7.95      1.36      0.00     -0.01      3.00 
   246.53     12.18      7.95      1.36      0.00     -0.01      3.00 
   246.54     12.18      7.95      1.36      0.00     -0.00      2.59 
   246.55     12.19      7.95      1.36     -0.00      0.00      2.59 
   246.56     12.18      7.95      1.36     -0.00      0.00      2.59 
   246.57     12.19      7.95      1.36     -0.01      0.01      2.59 
   246.58     12.19      7.95      1.36     -0.01      0.01      2.47 
   246.59     12.19      7.94      1.36     -0.01      0.01      2.47 
   246.60     12.19      7.95      1.36     -0.00      0.00      2.88 
   246.61     12.19      7.95      1.36     -0.00      0.00      2.94 
   246.62     12.19      7.95      1.36     -0.00      0.01      2.53 
   246.63     12.19      7.95      1.36     -0.00      0.01      3.00 
   246.64     12.19      7.95      1.36     -0.00      0.01      3.00 
   246.65     12.19      7.95      1.36     -0.00      0.00      3.06 
   246.66     12.19      7.95      1.36     -0.00      0.00      3.06 
   246.67     12.19      7.95      1.36     -0.00      0.00      3.47 
   246.68     12.19      7.95      1.36     -0.00      0.00      3.47 
   246.69     12.18      7.95      1.36     -0.00      0.00      3.47 
   246.70     12.18      7.95      1.36     -0.00      0.00      3.47 
   246.71     12.18      7.95      1.36     -0.01      0.00      3.47 
   246.72     12.18      7.95      1.36     -0.01      0.01      3.88 
   246.73     12.18      7.95      1.36     -0.00      0.00      3.88 
   246.74     12.18      7.95      1.36     -0.00      0.00      3.88 
   246.75     12.18      7.95      1.36     -0.00      0.00      3.47 
   246.76     12.18      7.95      1.36     -0.00      0.00      3.47 
   246.77     12.18      7.95      1.36     -0.01      0.01      3.47 
   246.78     12.18      7.95      1.36     -0.01      0.01      3.00 
   246.79     12.18      7.95      1.36     -0.00      0.00      3.00 
   246.80     12.18      7.96      1.36     -0.00      0.00      2.53 
   246.81     12.18      7.95      1.36      0.00      0.00      3.00 
   246.82     12.18      7.95      1.36      0.01     -0.01      2.53 
   246.83     12.19      7.95      1.36      0.01     -0.01      2.53 
   246.84     12.19      7.95      1.36      0.01     -0.01      2.12 
   246.85     12.19      7.95      1.36      0.01     -0.02      2.12 
   246.86     12.19      7.94      1.36      0.01     -0.01      2.12 
   246.87     12.19      7.94      1.36      0.01     -0.01      2.12 
   246.88     12.19      7.94      1.36      0.01     -0.02      2.12 
   246.89     12.19      7.94      1.36      0.02     -0.02      1.71 
   246.90     12.19      7.94      1.36      0.02     -0.02      2.65 
   246.91     12.20      7.94      1.36      0.02     -0.02      2.65 
   246.92     12.20      7.94      1.36      0.02     -0.02      2.24 
   246.93     12.20      7.94      1.36      0.02     -0.02      2.24 
   246.94     12.20      7.94      1.36      0.02     -0.02      1.82 
   246.95     12.20      7.94      1.36      0.01     -0.01      1.82 
   246.96     12.20      7.94      1.36      0.01     -0.01      1.88 
   246.97     12.20      7.94      1.36      0.01     -0.01      1.88 
   246.98     12.20      7.94      1.36      0.01     -0.01      1.41 
   246.99     12.19      7.94      1.36      0.01     -0.01      1.41 
   247.00     12.19      7.94      1.36      0.00     -0.01      2.24 
   247.01     12.19      7.94      1.36      0.00     -0.00      2.24 
   247.02     12.19      7.95      1.36      0.00     -0.00      2.65 
   247.03     12.19      7.94      1.36      0.00     -0.00      3.06 
   247.04     12.19      7.95      1.36      0.00     -0.00      3.06 
   247.05     12.19      7.95      1.36      0.01     -0.01      3.06 
   247.06     12.19      7.95      1.36      0.01     -0.01      3.06 
   247.07     12.19      7.95      1.36      0.01     -0.01      2.12 
   247.08     12.19      7.95      1.36      0.01     -0.01      2.12 
   247.09     12.19      7.95      1.36      0.01     -0.00      2.12 
   247.10     12.19      7.95      1.36      0.01     -0.00      2.12 
   247.11     12.19      7.95      1.36      0.01     -0.00      2.12 
   247.12     12.19      7.94      1.36      0.01     -0.01      2.12 
   247.13     12.19      7.94      1.36      0.01     -0.01      1.65 
   247.14     12.19      7.94      1.36      0.00     -0.01      1.65 
   247.15     12.19      7.94      1.36      0.00     -0.01      2.06 
   247.16     12.19      7.94      1.36      0.00     -0.01      2.06 
   247.17     12.19      7.94      1.36      0.00     -0.00      1.24 
   247.18     12.19      7.94      1.36      0.00     -0.00      1.24 
   247.19     12.19      7.94      1.36      0.00      0.00      0.82 
   247.20     12.19      7.94      1.36     -0.00      0.00      0.41 
   247.21     12.19      7.94      1.36     -0.00      0.00      0.82 
