#Written by Robertson Geologging WinLogger V1.0/370
~VERSION INFORMATION
#------------------------------------------------------------------------------
 VERS. 2.0 : CWLS LOG ASCII STANDARD - VERSION 2.0
 WRAP. NO  : ONE LINE PER DEPTH STEP
~WELL INFORMATION
#MNEM.UNIT         DATA                                DESCRIPTION OF MNEMONIC
#------------------------------------------------------------------------------
 STRT.M        124.0500                            :   START DEPTH
 STOP.M        430.1300                            :   STOP DEPTH
 STEP.M          0.0100                            :   STEP VALUE
 NULL.        -999.2500                            :   NULL VALUE
 COMP.    White Young Green                        :   COMPANY NAME
 WELL.    Hawthorn                                 :   WELL NAME
 FLD.     Hawthorn                                 :   FIELD NAME
 LOC.     N/A                                      :   LOCATION
 PROV.    N/A                                      :   PROVINCE
 SRVC.    N/A                                      :   SERVICE COMPANY NAME
 DATE.    05 Oct 05                                :   DATE
 UWI.     N/A                                      :   UNIQUE WELL IDENTIFIER
~PARAMETER INFORMATION
#MNEMO.UNIT         VALUE                 DESCRIPTION OF MNEMONIC
#------------------------------------------------------------------------------
~OTHER INFORMATION SECTION
#------------------------------------------------------------------------------
 TCGS1365
~CURVE INFORMATION
#MNEMO.UNIT         API CODE              CURVE DESCRIPTION
#------------------------------------------------------------------------------
 DEPTH.M                                 :   0     Depth
 TEMP.DegC                               :   1     Temperature
 CN25.mS/cm                              :   2     Conductivity@25DegC
 COND.mS/cm                              :   3     Conductivity
 DELT.DegC                               :   4     Delta T
 DELC.mS/cm                              :   5     Delta C
 NGAM.CPS                                :   6     Natural Gamma
#------------------------------------------------------------------------------
~A  DEPTH     TEMP      CN25      COND      DELT      DELC      NGAM      
# ...
   225.75     12.18      7.95      1.36      0.00      0.00      3.41 
   225.76     12.18      7.95      1.36     -0.00      0.00      3.41 
   225.77     12.18      7.95      1.36     -0.00      0.00      3.41 
   225.78     12.18      7.95      1.36     -0.00     -0.00      3.41 
   225.79     12.18      7.95      1.36     -0.00      0.00      2.94 
   225.80     12.18      7.95      1.36      0.00      0.00      2.59 
   225.81     12.18      7.95      1.36      0.00     -0.00      2.94 
   225.82     12.18      7.95      1.36      0.00     -0.00      3.35 
   225.83     12.18      7.95      1.36      0.00     -0.00      3.71 
   225.84     12.18      7.95      1.36      0.00     -0.00      3.71 
   225.85     12.18      7.95      1.36      0.00     -0.00      3.29 
   225.86     12.18      7.95      1.36      0.00     -0.00      3.65 
   225.87     12.18      7.95      1.36      0.00     -0.00      3.29 
   225.88     12.18      7.95      1.36      0.00      0.00      2.88 
   225.89     12.18      7.95      1.36     -0.00      0.00      3.24 
   225.90     12.18      7.95      1.36     -0.00      0.00      3.59 
   225.91     12.18      7.95      1.36     -0.00      0.00      3.24 
   225.92     12.18      7.95      1.36     -0.00      0.00      3.24 
   225.93     12.18      7.95      1.36     -0.01      0.01      3.24 
   225.94     12.18      7.95      1.36     -0.01      0.01      2.53 
   225.95     12.18      7.95      1.36     -0.01      0.01      2.88 
   225.96     12.18      7.95      1.36     -0.01      0.01      2.94 
   225.97     12.18      7.95      1.36     -0.01      0.01      2.94 
   225.98     12.18      7.95      1.36     -0.00      0.00      3.00 
   225.99     12.18      7.95      1.36     -0.00      0.00      2.59 
   226.00     12.18      7.95      1.36     -0.00      0.00      2.24 
   226.01     12.18      7.95      1.36     -0.00      0.00      2.24 
   226.02     12.18      7.95      1.36     -0.00      0.00      2.59 
   226.03     12.18      7.95      1.36     -0.00      0.00      2.24 
   226.04     12.18      7.95      1.36     -0.00      0.00      2.24 
   226.05     12.18      7.95      1.36     -0.00      0.00      2.65 
   226.06     12.18      7.95      1.36     -0.00      0.00      2.71 
   226.07     12.18      7.95      1.36     -0.00      0.00      2.71 
   226.08     12.18      7.95      1.36     -0.00     -0.00      2.71 
   226.09     12.18      7.95      1.36     -0.00      0.00      3.12 
   226.10     12.18      7.95      1.36     -0.00      0.00      3.12 
   226.11     12.18      7.96      1.36     -0.00      0.00      3.12 
   226.12     12.18      7.96      1.36     -0.00      0.01      2.76 
   226.13     12.18      7.96      1.36     -0.00      0.00      2.71 
   226.14     12.18      7.96      1.36     -0.00      0.00      2.71 
   226.15     12.18      7.96      1.36     -0.00      0.00      2.29 
   226.16     12.18      7.96      1.36     -0.00      0.00      2.29 
   226.17     12.18      7.95      1.36     -0.00      0.00      2.71 
   226.18     12.18      7.96      1.36     -0.00      0.00      3.06 
   226.19     12.18      7.96      1.36     -0.00      0.01      2.71 
   226.20     12.18      7.95      1.36     -0.00      0.00      2.71 
   226.21     12.18      7.95      1.36     -0.01      0.00      3.12 
   226.22     12.18      7.95      1.36     -0.00      0.00      2.71 
   226.23     12.18      7.95      1.36     -0.00      0.00      2.71 
   226.24     12.18      7.95      1.36      0.00     -0.00      2.35 
   226.25     12.18      7.95      1.36     -0.00     -0.00      2.35 
   226.26     12.18      7.95      1.36     -0.00      0.00      1.94 
   226.27     12.18      7.95      1.36     -0.00      0.00      2.29 
   226.28     12.18      7.95      1.36     -0.00      0.00      2.29 
   226.29     12.18      7.95      1.36      0.00      0.00      2.29 
   226.30     12.19      7.95      1.36      0.00     -0.01      1.94 
   226.31     12.19      7.94      1.36      0.01     -0.00      2.29 
   226.32     12.19      7.94      1.36      0.01     -0.00      2.71 
   226.33     12.19      7.94      1.36      0.00     -0.00      2.71 
   226.34     12.19      7.94      1.36      0.00     -0.00      2.29 
   226.35     12.19      7.94      1.36     -0.00      0.00      2.35 
   226.36     12.19      7.94      1.36      0.00      0.00      2.35 
   226.37     12.19      7.94      1.36     -0.00     -0.00      2.35 
   226.38     12.19      7.95      1.36      0.00      0.00      1.94 
   226.39     12.19      7.94      1.36      0.00     -0.00      1.94 
   226.40     12.19      7.94      1.36      0.00     -0.00      1.53 
   226.41     12.19      7.94      1.36      0.00     -0.00      1.53 
   226.42     12.19      7.95      1.36      0.00     -0.00      1.53 
   226.43     12.18      7.95      1.36      0.00     -0.00      2.35 
   226.44     12.18      7.95      1.36      0.00     -0.00      2.35 
   226.45     12.18      7.95      1.36      0.00     -0.00      2.35 
   226.46     12.18      7.95      1.36      0.00     -0.00      2.35 
   226.47     12.18      7.95      1.36      0.00     -0.00      2.35 
   226.48     12.18      7.95      1.36      0.00     -0.00      2.41 
   226.49     12.18      7.95      1.36      0.00     -0.00      2.00 
   226.50     12.18      7.95      1.36     -0.00     -0.00      2.41 
   226.51     12.18      7.95      1.36      0.00     -0.00      3.24 
   226.52     12.18      7.95      1.36     -0.00      0.00      2.82 
   226.53     12.18      7.95      1.36     -0.00      0.00      3.18 
   226.54     12.18      7.95      1.36     -0.00      0.00      3.18 
   226.55     12.18      7.95      1.36     -0.00      0.00      3.18 
   226.56     12.18      7.95      1.36      0.00     -0.00      3.53 
   226.57     12.18      7.95      1.36      0.00     -0.00      3.53 
   226.58     12.18      7.95      1.36      0.00     -0.00      3.94 
   226.59     12.18      7.95      1.36      0.00     -0.00      3.94 
   226.60     12.18      7.95      1.36      0.00     -0.00      3.12 
   226.61     12.18      7.95      1.36      0.01     -0.00      2.76 
   226.62     12.19      7.95      1.36      0.00     -0.00      2.76 
   226.63     12.19      7.95      1.36      0.00     -0.00      2.76 
   226.64     12.19      7.95      1.36      0.00     -0.00      3.12 
   226.65     12.19      7.94      1.36      0.00     -0.01      2.71 
   226.66     12.19      7.94      1.36      0.00     -0.01      3.76 
   226.67     12.19      7.95      1.36      0.00     -0.01      3.76 
   226.68     12.19      7.95      1.36      0.00     -0.00      2.94 
   226.69     12.19      7.95      1.36      0.00     -0.00      2.94 
   226.70     12.18      7.95      1.36      0.00      0.00      2.94 
   226.71     12.19      7.95      1.36      0.00     -0.00      2.94 
   226.72     12.19      7.95      1.36      0.00     -0.00      2.94 
   226.73     12.19      7.95      1.36      0.00     -0.00      2.59 
   226.74     12.19      7.95      1.36      0.01     -0.00      3.00 
   226.75     12.19      7.95      1.36      0.01     -0.01      3.29 
   226.76     12.19      7.95      1.36      0.01     -0.00      3.71 
   226.77     12.19      7.94      1.36      0.01     -0.01      3.71 
   226.78     12.19      7.94      1.36      0.01     -0.01      4.12 
   226.79     12.19      7.94      1.36      0.01     -0.01      4.12 
   226.80     12.19      7.94      1.36      0.01     -0.01      4.12 
   226.81     12.19      7.94      1.36      0.01     -0.01      3.76 
   226.82     12.19      7.94      1.36      0.01     -0.01      3.76 
   226.83     12.19      7.94      1.36      0.01     -0.01      2.71 
   226.84     12.19      7.94      1.36      0.01     -0.01      2.29 
   226.85     12.19      7.94      1.36      0.01     -0.01      2.29 
   226.86     12.19      7.95      1.36      0.01     -0.01      2.71 
   226.87     12.19      7.95      1.36      0.00     -0.00      2.35 
