#Written by Robertson Geologging WinLogger V1.0/370
~VERSION INFORMATION
#------------------------------------------------------------------------------
 VERS. 2.0 : CWLS LOG ASCII STANDARD - VERSION 2.0
 WRAP. NO  : ONE LINE PER DEPTH STEP
~WELL INFORMATION
#MNEM.UNIT         DATA                                DESCRIPTION OF MNEMONIC
#------------------------------------------------------------------------------
 STRT.M        124.0500                            :   START DEPTH
 STOP.M        430.1300                            :   STOP DEPTH
 STEP.M          0.0100                            :   STEP VALUE
 NULL.        -999.2500                            :   NULL VALUE
 COMP.    White Young Green                        :   COMPANY NAME
 WELL.    Hawthorn                                 :   WELL NAME
 FLD.     Hawthorn                                 :   FIELD NAME
 LOC.     N/A                                      :   LOCATION
 PROV.    N/A                                      :   PROVINCE
 SRVC.    N/A                                      :   SERVICE COMPANY NAME
 DATE.    05 Oct 05                                :   DATE
 UWI.     N/A                                      :   UNIQUE WELL IDENTIFIER
~PARAMETER INFORMATION
#MNEMO.UNIT         VALUE                 DESCRIPTION OF MNEMONIC
#------------------------------------------------------------------------------
~OTHER INFORMATION SECTION
#------------------------------------------------------------------------------
 TCGS1365
~CURVE INFORMATION
#MNEMO.UNIT         API CODE              CURVE DESCRIPTION
#------------------------------------------------------------------------------
 DEPTH.M                                 :   0     Depth
 TEMP.DegC                               :   1     Temperature
 CN25.mS/cm                              :   2     Conductivity@25DegC
 COND.mS/cm                              :   3     Conductivity
 DELT.DegC                               :   4     Delta T
 DELC.mS/cm                              :   5     Delta C
 NGAM.CPS                                :   6     Natural Gamma
#------------------------------------------------------------------------------
~A  DEPTH     TEMP      CN25      COND      DELT      DELC      NGAM      
# ...
   388.47     17.27     49.02     40.80     -0.02      0.05      3.29 
   388.48     17.27     49.02     40.80     -0.02      0.05      2.88 
   388.49     17.27     49.02     40.80     -0.02      0.05      3.29 
   388.50     17.27     49.02     40.80     -0.02      0.04      3.29 
   388.51     17.27     49.01     40.80     -0.02      0.04      3.29 
   388.52     17.27     49.01     40.80     -0.01      0.03      2.88 
   388.53     17.27     49.00     40.80     -0.01      0.02      2.88 
   388.54     17.28     49.00     40.80     -0.01      0.02      2.88 
   388.55     17.28     49.00     40.80     -0.00      0.01      2.88 
   388.56     17.28     49.00     40.80     -0.00      0.00      2.06 
   388.57     17.28     49.00     40.80     -0.00     -0.00      2.06 
   388.58     17.28     49.00     40.80      0.00     -0.00      2.06 
   388.59     17.28     49.00     40.80      0.00     -0.01      2.06 
   388.60     17.28     49.00     40.80      0.00     -0.01      2.06 
   388.61     17.28     49.00     40.80      0.00     -0.01      1.65 
   388.62     17.28     49.00     40.80      0.00     -0.01      1.65 
   388.63     17.28     49.01     40.80      0.00     -0.00      2.06 
   388.64     17.28     49.00     40.80      0.00     -0.01      2.06 
   388.65     17.28     49.00     40.80      0.01     -0.01      2.41 
   388.66     17.28     49.00     40.80      0.01     -0.01      2.00 
   388.67     17.28     48.99     40.80      0.01     -0.01      2.00 
   388.68     17.28     48.99     40.80      0.01     -0.02      2.00 
   388.69     17.28     48.99     40.80      0.01     -0.02      2.00 
   388.70     17.28     48.99     40.80      0.01     -0.02      2.00 
   388.71     17.28     48.99     40.80      0.01     -0.02      2.41 
   388.72     17.28     48.99     40.80      0.01     -0.02      2.41 
   388.73     17.28     48.99     40.80      0.01     -0.03      2.00 
   388.74     17.28     48.99     40.80      0.01     -0.03      2.00 
   388.75     17.28     49.00     40.80      0.01     -0.03      2.00 
   388.76     17.28     48.99     40.80      0.01     -0.02      2.41 
   388.77     17.28     49.00     40.80      0.01     -0.01      2.41 
   388.78     17.27     49.01     40.80      0.00     -0.00      2.82 
   388.79     17.27     49.01     40.80     -0.00      0.01      2.41 
   388.80     17.27     49.02     40.80     -0.00      0.01      2.00 
   388.81     17.27     49.02     40.80     -0.01      0.02      2.41 
   388.82     17.27     49.02     40.80     -0.01      0.02      2.06 
   388.83     17.27     49.02     40.80     -0.01      0.02      2.06 
   388.84     17.27     49.02     40.80     -0.01      0.02      2.06 
   388.85     17.26     49.03     40.80     -0.01      0.03      2.06 
   388.86     17.26     49.03     40.80     -0.02      0.03      2.06 
   388.87     17.26     49.03     40.80     -0.02      0.04      2.06 
   388.88     17.27     49.03     40.80     -0.01      0.03      1.65 
   388.89     17.27     49.02     40.80     -0.01      0.03      1.65 
   388.90     17.27     49.01     40.80     -0.01      0.02      1.65 
   388.91     17.27     49.01     40.80     -0.01      0.02      1.65 
   388.92     17.28     49.00     40.80     -0.01      0.01      1.65 
   388.93     17.28     49.00     40.80     -0.01      0.02      1.65 
   388.94     17.28     48.99     40.80     -0.01      0.02      1.24 
   388.95     17.28     48.99     40.80     -0.01      0.02      1.65 
   388.96     17.28     48.99     40.80     -0.01      0.03      1.65 
   388.97     17.28     48.99     40.80     -0.01      0.03      1.65 
   388.98     17.28     49.00     40.80     -0.01      0.03      1.24 
   388.99     17.28     49.00     40.80     -0.01      0.02      1.24 
   389.00     17.28     49.00     40.80     -0.01      0.02      1.24 
   389.01     17.28     49.00     40.80     -0.01      0.01      1.65 
   389.02     17.28     49.00     40.80     -0.00      0.00      1.65 
   389.03     17.28     49.00     40.80      0.00     -0.00      2.00 
   389.04     17.28     49.00     40.80      0.01     -0.01      2.00 
   389.05     17.28     49.00     40.80      0.01     -0.02      2.00 
   389.06     17.28     49.00     40.80      0.01     -0.02      2.00 
   389.07     17.28     49.00     40.80      0.01     -0.03      2.41 
   389.08     17.28     49.00     40.80      0.01     -0.03      2.41 
   389.09     17.28     49.00     40.80      0.01     -0.03      2.82 
   389.10     17.28     49.00     40.80      0.01     -0.02      2.41 
   389.11     17.28     49.01     40.80      0.01     -0.02      2.41 
   389.12     17.27     49.01     40.80      0.00     -0.01      2.00 
   389.13     17.27     49.01     40.80     -0.00      0.00      2.00 
   389.14     17.27     49.02     40.80     -0.01      0.01      2.00 
   389.15     17.27     49.01     40.80     -0.01      0.02      2.00 
   389.16     17.27     49.01     40.80     -0.01      0.03      2.00 
   389.17     17.27     49.01     40.80     -0.01      0.02      2.00 
   389.18     17.27     49.01     40.80     -0.01      0.02      2.00 
   389.19     17.28     49.00     40.80     -0.01      0.02      2.00 
   389.20     17.28     49.00     40.80     -0.01      0.02      2.00 
   389.21     17.28     49.00     40.80     -0.01      0.02      2.41 
   389.22     17.28     49.00     40.80     -0.01      0.02      2.41 
   389.23     17.28     49.00     40.80     -0.01      0.02      2.41 
   389.24     17.28     48.99     40.80     -0.00      0.01      2.41 
   389.25     17.28     48.99     40.80     -0.00      0.01      2.82 
   389.26     17.28     48.99     40.80      0.00     -0.00      2.41 
   389.27     17.28     48.99     40.80      0.00     -0.01      2.41 
   389.28     17.28     48.99     40.80      0.00      0.00      2.41 
   389.29     17.28     48.99     40.80      0.00      0.00      2.00 
   389.30     17.28     48.99     40.80     -0.00      0.01      2.41 
   389.31     17.28     48.99     40.80     -0.00      0.00      2.41 
   389.32     17.28     48.99     40.80      0.00     -0.00      2.82 
   389.33     17.28     48.99     40.80      0.00     -0.01      2.82 
   389.34     17.28     48.99     40.80      0.00     -0.01      2.82 
   389.35     17.28     48.99     40.80      0.00     -0.01      2.82 
   389.36     17.28     48.99     40.80      0.00     -0.01      3.24 
   389.37     17.28     48.99     40.80      0.00     -0.01      2.88 
   389.38     17.28     48.99     40.80      0.00     -0.01      2.47 
   389.39     17.28     48.99     40.80      0.00     -0.02      2.47 
   389.40     17.28     48.99     40.80      0.01     -0.02      2.88 
   389.41     17.28     48.99     40.80      0.01     -0.02      2.47 
   389.42     17.28     48.99     40.80      0.01     -0.02      2.06 
   389.43     17.28     48.99     40.80      0.01     -0.03      2.06 
   389.44     17.28     48.99     40.80      0.01     -0.03      2.06 
   389.45     17.28     48.99     40.80      0.01     -0.03      2.06 
   389.46     17.28     48.99     40.80      0.01     -0.03      2.06 
   389.47     17.28     48.99     40.80      0.01     -0.03      2.06 
   389.48     17.28     48.99     40.80      0.01     -0.02      2.06 
   389.49     17.28     48.99     40.80      0.01     -0.02      2.06 
   389.50     17.28     48.99     40.80      0.01     -0.03      2.06 
   389.51     17.28     48.99     40.80      0.01     -0.02      2.06 
   389.52     17.28     48.98     40.80      0.01     -0.02      1.65 
   389.53     17.28     48.99     40.80      0.01     -0.01      1.24 
   389.54     17.28     48.99     40.80      0.01     -0.01      1.24 
   389.55     17.29     48.98     40.80      0.01     -0.02      1.24 
   389.56     17.29     48.98     40.80      0.01     -0.02      1.94 
   389.57     17.29     48.97     40.80      0.01     -0.02      1.94 
   389.58     17.29     48.98     40.80      0.01     -0.02      2.35 
   389.59     17.29     48.98     40.80      0.01     -0.02      2.35 
