#Written by Robertson Geologging WinLogger V1.0/370
~VERSION INFORMATION
#------------------------------------------------------------------------------
 VERS. 2.0 : CWLS LOG ASCII STANDARD - VERSION 2.0
 WRAP. NO  : ONE LINE PER DEPTH STEP
~WELL INFORMATION
#MNEM.UNIT         DATA                                DESCRIPTION OF MNEMONIC
#------------------------------------------------------------------------------
 STRT.M        124.0500                            :   START DEPTH
 STOP.M        430.1300                            :   STOP DEPTH
 STEP.M          0.0100                            :   STEP VALUE
 NULL.        -999.2500                            :   NULL VALUE
 COMP.    White Young Green                        :   COMPANY NAME
 WELL.    Hawthorn                                 :   WELL NAME
 FLD.     Hawthorn                                 :   FIELD NAME
 LOC.     N/A                                      :   LOCATION
 PROV.    N/A                                      :   PROVINCE
 SRVC.    N/A                                      :   SERVICE COMPANY NAME
 DATE.    05 Oct 05                                :   DATE
 UWI.     N/A                                      :   UNIQUE WELL IDENTIFIER
~PARAMETER INFORMATION
#MNEMO.UNIT         VALUE                 DESCRIPTION OF MNEMONIC
#------------------------------------------------------------------------------
~OTHER INFORMATION SECTION
#------------------------------------------------------------------------------
 TCGS1365
~CURVE INFORMATION
#MNEMO.UNIT         API CODE              CURVE DESCRIPTION
#------------------------------------------------------------------------------
 DEPTH.M                                 :   0     Depth
 TEMP.DegC                               :   1     Temperature
 CN25.mS/cm                              :   2     Conductivity@25DegC
 COND.mS/cm                              :   3     Conductivity
 DELT.DegC                               :   4     Delta T
 DELC.mS/cm                              :   5     Delta C
 NGAM.CPS                                :   6     Natural Gamma
#------------------------------------------------------------------------------
~A  DEPTH     TEMP      CN25      COND      DELT      DELC      NGAM      
# ...
   286.77     16.42     36.09     28.48     -0.00      0.00      4.18 
   286.78     16.42     36.09     28.49     -0.00      0.01      4.59 
   286.79     16.42     36.10     28.49     -0.00      0.01      3.35 
   286.80     16.42     36.09     28.49     -0.00      0.01      2.53 
   286.81     16.42     36.09     28.49     -0.00      0.01      2.12 
   286.82     16.42     36.09     28.49     -0.00      0.01      1.71 
   286.83     16.42     36.09     28.49     -0.00      0.01      1.24 
   286.84     16.42     36.10     28.49     -0.00      0.02      1.65 
   286.85     16.42     36.10     28.49     -0.01      0.01      1.65 
   286.86     16.42     36.10     28.48     -0.01      0.02      1.24 
   286.87     16.42     36.10     28.49     -0.01      0.02      1.24 
   286.88     16.42     36.10     28.49     -0.01      0.02      2.06 
   286.89     16.42     36.10     28.49     -0.01      0.02      2.06 
   286.90     16.42     36.10     28.49     -0.01      0.01      2.47 
   286.91     16.42     36.10     28.49     -0.00      0.01      2.47 
   286.92     16.42     36.09     28.49     -0.00      0.01      2.06 
   286.93     16.42     36.09     28.49     -0.00      0.01      2.47 
   286.94     16.42     36.09     28.49     -0.00      0.01      2.47 
   286.95     16.42     36.09     28.49     -0.00      0.01      2.47 
   286.96     16.42     36.09     28.49     -0.00      0.01      2.47 
   286.97     16.42     36.09     28.49      0.00      0.00      2.47 
   286.98     16.42     36.09     28.49      0.00      0.00      2.88 
   286.99     16.43     36.08     28.48      0.00     -0.01      2.88 
   287.00     16.43     36.08     28.49      0.00     -0.00      2.88 
   287.01     16.43     36.08     28.48      0.00     -0.00      2.88 
   287.02     16.43     36.08     28.48      0.00     -0.00      2.88 
   287.03     16.43     36.08     28.49      0.00     -0.00      3.29 
   287.04     16.42     36.08     28.48      0.00     -0.00      3.71 
   287.05     16.42     36.09     28.49      0.00     -0.01      2.88 
   287.06     16.42     36.09     28.49      0.00     -0.01      2.88 
   287.07     16.42     36.09     28.48      0.01     -0.01      2.47 
   287.08     16.42     36.09     28.48      0.00     -0.01      2.47 
   287.09     16.42     36.09     28.48      0.00     -0.00      2.47 
   287.10     16.42     36.10     28.49     -0.00      0.01      2.06 
   287.11     16.42     36.10     28.49     -0.00      0.01      2.06 
   287.12     16.42     36.10     28.49     -0.00      0.01      2.06 
   287.13     16.42     36.10     28.49     -0.00      0.01      2.88 
   287.14     16.42     36.11     28.49     -0.01      0.01      3.71 
   287.15     16.42     36.11     28.49     -0.01      0.02      3.71 
   287.16     16.42     36.10     28.49     -0.01      0.02      3.71 
   287.17     16.42     36.10     28.49     -0.01      0.02      3.71 
   287.18     16.42     36.10     28.49     -0.01      0.02      3.29 
   287.19     16.42     36.10     28.49     -0.01      0.02      3.29 
   287.20     16.42     36.10     28.49     -0.01      0.02      2.88 
   287.21     16.42     36.10     28.49     -0.01      0.02      2.88 
   287.22     16.42     36.10     28.49     -0.01      0.02      2.88 
   287.23     16.42     36.10     28.49     -0.01      0.02      3.29 
   287.24     16.42     36.10     28.49     -0.00      0.02      3.71 
   287.25     16.42     36.09     28.49     -0.00      0.02      3.71 
   287.26     16.43     36.09     28.49     -0.00      0.01      4.12 
   287.27     16.43     36.09     28.49     -0.00      0.01      4.12 
   287.28     16.43     36.09     28.49      0.00      0.01      4.53 
   287.29     16.43     36.09     28.49      0.00      0.00      4.12 
   287.30     16.43     36.09     28.49      0.00     -0.00      4.12 
   287.31     16.43     36.09     28.49      0.01     -0.01      3.71 
   287.32     16.43     36.08     28.49      0.01     -0.02      3.76 
   287.33     16.43     36.08     28.49      0.01     -0.01      3.76 
   287.34     16.43     36.09     28.49      0.01     -0.02      3.76 
   287.35     16.43     36.08     28.49      0.01     -0.02      3.76 
   287.36     16.43     36.08     28.49      0.01     -0.02      3.76 
   287.37     16.43     36.09     28.49      0.01     -0.02      3.76 
   287.38     16.42     36.09     28.49      0.01     -0.01      3.76 
   287.39     16.43     36.09     28.49      0.01     -0.00      3.76 
   287.40     16.43     36.09     28.49      0.00     -0.00      3.35 
   287.41     16.43     36.09     28.49      0.00      0.00      3.41 
   287.42     16.43     36.09     28.49      0.00      0.01      3.82 
   287.43     16.43     36.08     28.49     -0.00      0.01      3.82 
   287.44     16.43     36.08     28.49      0.00      0.00      3.82 
   287.45     16.43     36.08     28.49     -0.00      0.00      3.41 
   287.46     16.43     36.08     28.49      0.00      0.01      3.82 
   287.47     16.43     36.08     28.49      0.00      0.00      3.41 
   287.48     16.43     36.08     28.49      0.00     -0.00      3.00 
   287.49     16.43     36.08     28.49      0.01     -0.01      2.53 
   287.50     16.43     36.08     28.49      0.01     -0.01      2.53 
   287.51     16.43     36.08     28.49      0.01     -0.01      2.53 
   287.52     16.43     36.08     28.49      0.01     -0.02      2.53 
   287.53     16.43     36.08     28.49      0.01     -0.01      2.94 
   287.54     16.43     36.08     28.49      0.01     -0.01      3.35 
   287.55     16.43     36.08     28.49      0.01     -0.02      2.94 
   287.56     16.43     36.08     28.49      0.01     -0.01      2.94 
   287.57     16.43     36.08     28.49      0.01     -0.02      2.94 
   287.58     16.43     36.07     28.49      0.01     -0.02      2.47 
   287.59     16.44     36.07     28.49      0.01     -0.03      2.06 
   287.60     16.44     36.07     28.49      0.01     -0.02      1.65 
   287.61     16.44     36.07     28.49      0.02     -0.03      1.65 
   287.62     16.43     36.07     28.49      0.02     -0.02      1.65 
   287.63     16.43     36.08     28.49      0.01     -0.02      1.65 
   287.64     16.43     36.08     28.49      0.01     -0.02      1.24 
   287.65     16.43     36.08     28.49      0.01     -0.03      1.24 
   287.66     16.43     36.08     28.49      0.01     -0.02      1.24 
   287.67     16.43     36.09     28.49      0.01     -0.01      1.65 
   287.68     16.43     36.09     28.49      0.01     -0.01      1.65 
   287.69     16.43     36.09     28.49      0.01     -0.01      2.06 
   287.70     16.43     36.09     28.49      0.01     -0.01      2.12 
   287.71     16.43     36.09     28.49      0.01     -0.01      1.71 
   287.72     16.43     36.08     28.49      0.01     -0.01      1.71 
   287.73     16.43     36.08     28.49      0.01     -0.01      1.71 
   287.74     16.43     36.08     28.49      0.00     -0.01      1.71 
   287.75     16.43     36.08     28.49      0.01     -0.01      1.71 
   287.76     16.43     36.08     28.49      0.01     -0.01      1.71 
   287.77     16.43     36.07     28.49      0.01     -0.02      1.71 
   287.78     16.43     36.07     28.49      0.01     -0.03      1.71 
   287.79     16.43     36.07     28.49      0.01     -0.02      1.71 
   287.80     16.43     36.07     28.49      0.01     -0.02      1.71 
   287.81     16.43     36.07     28.49      0.01     -0.02      2.53 
   287.82     16.43     36.08     28.49      0.01     -0.02      3.00 
   287.83     16.43     36.08     28.49      0.01     -0.02      3.41 
   287.84     16.43     36.08     28.49      0.01     -0.02      3.41 
   287.85     16.43     36.08     28.49      0.01     -0.01      3.41 
   287.86     16.43     36.08     28.49      0.01     -0.01      3.41 
   287.87     16.43     36.09     28.49      0.01     -0.01      2.94 
   287.88     16.43     36.09     28.49      0.01     -0.01      3.35 
   287.89     16.43     36.09     28.49      0.01     -0.01      3.35 
