#Written by Robertson Geologging WinLogger V1.0/370
~VERSION INFORMATION
#------------------------------------------------------------------------------
 VERS. 2.0 : CWLS LOG ASCII STANDARD - VERSION 2.0
 WRAP. NO  : ONE LINE PER DEPTH STEP
~WELL INFORMATION
#MNEM.UNIT         DATA                                DESCRIPTION OF MNEMONIC
#------------------------------------------------------------------------------
 STRT.M        124.0500                            :   START DEPTH
 STOP.M        430.1300                            :   STOP DEPTH
 STEP.M          0.0100                            :   STEP VALUE
 NULL.        -999.2500                            :   NULL VALUE
 COMP.    White Young Green                        :   COMPANY NAME
 WELL.    Hawthorn                                 :   WELL NAME
 FLD.     Hawthorn                                 :   FIELD NAME
 LOC.     N/A                                      :   LOCATION
 PROV.    N/A                                      :   PROVINCE
 SRVC.    N/A                                      :   SERVICE COMPANY NAME
 DATE.    05 Oct 05                                :   DATE
 UWI.     N/A                                      :   UNIQUE WELL IDENTIFIER
~PARAMETER INFORMATION
#MNEMO.UNIT         VALUE                 DESCRIPTION OF MNEMONIC
#------------------------------------------------------------------------------
~OTHER INFORMATION SECTION
#------------------------------------------------------------------------------
 TCGS1365
~CURVE INFORMATION
#MNEMO.UNIT         API CODE              CURVE DESCRIPTION
#------------------------------------------------------------------------------
 DEPTH.M                                 :   0     Depth
 TEMP.DegC                               :   1     Temperature
 CN25.mS/cm                              :   2     Conductivity@25DegC
 COND.mS/cm                              :   3     Conductivity
 DELT.DegC                               :   4     Delta T
 DELC.mS/cm                              :   5     Delta C
 NGAM.CPS                                :   6     Natural Gamma
#------------------------------------------------------------------------------
~A  DEPTH     TEMP      CN25      COND      DELT      DELC      NGAM      
# ...
   408.81     17.36     49.24     41.15     -0.01      0.04      2.00 
   408.82     17.36     49.24     41.16     -0.01      0.05      2.00 
   408.83     17.36     49.24     41.16     -0.01      0.04      2.00 
   408.84     17.36     49.24     41.16     -0.01      0.04      2.00 
   408.85     17.36     49.24     41.16     -0.01      0.04      2.00 
   408.86     17.36     49.23     41.16     -0.01      0.03      1.18 
   408.87     17.36     49.22     41.15     -0.00      0.02      1.18 
   408.88     17.36     49.22     41.16     -0.00      0.02      0.82 
   408.89     17.37     49.21     41.16      0.00      0.01      0.82 
   408.90     17.37     49.21     41.16      0.00      0.01      0.82 
   408.91     17.37     49.21     41.16      0.00      0.01      0.82 
   408.92     17.37     49.21     41.16      0.00      0.01      0.41 
   408.93     17.37     49.20     41.16      0.01      0.00      0.76 
   408.94     17.37     49.21     41.16      0.01      0.00      0.76 
   408.95     17.37     49.21     41.16      0.00      0.01      0.76 
   408.96     17.37     49.21     41.16      0.00      0.01      0.76 
   408.97     17.37     49.21     41.15      0.00      0.01      0.76 
   408.98     17.37     49.21     41.16      0.00      0.02      0.76 
   408.99     17.37     49.21     41.15      0.00      0.02      1.18 
   409.00     17.37     49.21     41.15     -0.00      0.02      1.18 
   409.01     17.37     49.21     41.15     -0.00      0.02      1.18 
   409.02     17.37     49.20     41.15     -0.00      0.02      1.59 
   409.03     17.37     49.21     41.15     -0.01      0.03      1.94 
   409.04     17.37     49.21     41.15     -0.01      0.03      2.35 
   409.05     17.37     49.21     41.15     -0.01      0.03      2.35 
   409.06     17.37     49.21     41.15     -0.00      0.02      2.35 
   409.07     17.37     49.20     41.15     -0.00      0.02      2.35 
   409.08     17.37     49.20     41.15      0.00      0.01      2.35 
   409.09     17.37     49.19     41.15      0.00      0.00      2.76 
   409.10     17.37     49.20     41.15      0.00      0.01      2.41 
   409.11     17.37     49.20     41.16      0.00      0.01      2.00 
   409.12     17.37     49.20     41.16      0.01      0.00      2.00 
   409.13     17.37     49.20     41.15      0.01     -0.00      2.00 
   409.14     17.37     49.20     41.15      0.01     -0.01      2.00 
   409.15     17.37     49.20     41.16      0.01     -0.01      2.00 
   409.16     17.37     49.20     41.15      0.01     -0.01      1.59 
   409.17     17.37     49.20     41.15      0.01     -0.00      1.59 
   409.18     17.37     49.19     41.15      0.01     -0.00      1.59 
   409.19     17.37     49.20     41.16      0.01     -0.00      1.18 
   409.20     17.37     49.20     41.16      0.01     -0.00      0.82 
   409.21     17.37     49.20     41.15      0.01     -0.01      0.41 
   409.22     17.37     49.20     41.15      0.01     -0.01      0.41 
   409.23     17.37     49.20     41.15      0.01     -0.01      0.41 
   409.24     17.37     49.20     41.16      0.01     -0.00      1.12 
   409.25     17.37     49.20     41.16      0.01      0.00      1.12 
   409.26     17.37     49.21     41.16      0.01     -0.00      0.71 
   409.27     17.37     49.21     41.16      0.01      0.00      1.06 
   409.28     17.37     49.21     41.16      0.01     -0.00      1.47 
   409.29     17.37     49.21     41.16      0.01     -0.00      1.47 
   409.30     17.37     49.22     41.16      0.01     -0.00      1.47 
   409.31     17.37     49.22     41.16      0.01      0.00      2.18 
   409.32     17.36     49.23     41.16      0.01      0.01      2.18 
   409.33     17.36     49.23     41.16      0.00      0.01      2.18 
   409.34     17.36     49.23     41.16      0.00      0.02      2.53 
   409.35     17.36     49.23     41.16     -0.00      0.02      2.53 
   409.36     17.36     49.23     41.16     -0.00      0.03      2.53 
   409.37     17.36     49.23     41.16     -0.00      0.03      2.53 
   409.38     17.36     49.23     41.16     -0.00      0.03      2.53 
   409.39     17.36     49.23     41.16     -0.01      0.03      2.53 
   409.40     17.36     49.23     41.16     -0.01      0.04      2.53 
   409.41     17.36     49.23     41.16     -0.01      0.04      2.18 
   409.42     17.36     49.23     41.16     -0.01      0.05      2.18 
   409.43     17.36     49.24     41.17     -0.01      0.05      2.18 
   409.44     17.36     49.24     41.17     -0.01      0.05      1.82 
   409.45     17.36     49.24     41.17     -0.01      0.04      1.41 
   409.46     17.36     49.23     41.17     -0.01      0.04      1.41 
   409.47     17.36     49.23     41.17     -0.00      0.04      2.24 
   409.48     17.36     49.23     41.17     -0.00      0.04      1.53 
   409.49     17.37     49.23     41.17     -0.00      0.03      1.53 
   409.50     17.37     49.23     41.17     -0.00      0.03      1.53 
   409.51     17.37     49.23     41.17     -0.00      0.03      1.18 
   409.52     17.37     49.23     41.17      0.00      0.03      1.18 
   409.53     17.37     49.23     41.17      0.00      0.03      1.18 
   409.54     17.36     49.23     41.17      0.00      0.02      1.18 
   409.55     17.37     49.23     41.17      0.00      0.02      1.18 
   409.56     17.36     49.23     41.17      0.00      0.02      1.18 
   409.57     17.36     49.23     41.16      0.00      0.02      1.18 
   409.58     17.37     49.23     41.17      0.00      0.02      1.53 
   409.59     17.37     49.23     41.17      0.00      0.02      1.53 
   409.60     17.37     49.23     41.17      0.00      0.02      1.53 
   409.61     17.37     49.23     41.17      0.00      0.02      1.53 
   409.62     17.37     49.23     41.17      0.00      0.02      2.59 
   409.63     17.37     49.23     41.17      0.00      0.02      3.00 
   409.64     17.37     49.23     41.17      0.01      0.01      2.18 
   409.65     17.37     49.23     41.17      0.01      0.01      2.18 
   409.66     17.37     49.23     41.17      0.01      0.01      2.18 
   409.67     17.37     49.22     41.17      0.01      0.01      2.59 
   409.68     17.37     49.22     41.17      0.01      0.01      2.59 
   409.69     17.37     49.22     41.17      0.01      0.00      2.59 
   409.70     17.37     49.22     41.17      0.01      0.00      2.59 
   409.71     17.37     49.21     41.16      0.01     -0.01      2.59 
   409.72     17.37     49.21     41.17      0.01     -0.01      2.59 
   409.73     17.37     49.21     41.17      0.01     -0.01      2.59 
   409.74     17.38     49.21     41.17      0.02     -0.02      3.00 
   409.75     17.38     49.20     41.17      0.02     -0.02      2.29 
   409.76     17.38     49.20     41.17      0.02     -0.03      2.29 
   409.77     17.38     49.19     41.16      0.02     -0.04      2.29 
   409.78     17.38     49.20     41.17      0.02     -0.04      2.29 
   409.79     17.38     49.20     41.17      0.03     -0.04      1.24 
   409.80     17.38     49.20     41.17      0.03     -0.04      0.82 
   409.81     17.38     49.20     41.17      0.02     -0.04      0.82 
   409.82     17.38     49.21     41.17      0.02     -0.03      0.82 
   409.83     17.38     49.21     41.17      0.02     -0.02      0.82 
   409.84     17.37     49.21     41.17      0.02     -0.02      0.41 
   409.85     17.37     49.22     41.17      0.01     -0.01      0.41 
   409.86     17.37     49.22     41.17      0.01     -0.00      0.41 
   409.87     17.37     49.23     41.18      0.01      0.01      0.82 
   409.88     17.37     49.24     41.18      0.00      0.02      0.82 
   409.89     17.37     49.24     41.18     -0.00      0.03      1.24 
   409.90     17.37     49.24     41.18     -0.00      0.03      1.24 
   409.91     17.36     49.25     41.18     -0.01      0.04      0.82 
   409.92     17.37     49.25     41.18     -0.01      0.04      0.82 
   409.93     17.37     49.25     41.18     -0.00      0.04      0.82 
