#Written by Robertson Geologging WinLogger V1.0/370
~VERSION INFORMATION
#------------------------------------------------------------------------------
 VERS. 2.0 : CWLS LOG ASCII STANDARD - VERSION 2.0
 WRAP. NO  : ONE LINE PER DEPTH STEP
~WELL INFORMATION
#MNEM.UNIT         DATA                                DESCRIPTION OF MNEMONIC
#------------------------------------------------------------------------------
 STRT.M        124.0500                            :   START DEPTH
 STOP.M        430.1300                            :   STOP DEPTH
 STEP.M          0.0100                            :   STEP VALUE
 NULL.        -999.2500                            :   NULL VALUE
 COMP.    White Young Green                        :   COMPANY NAME
 WELL.    Hawthorn                                 :   WELL NAME
 FLD.     Hawthorn                                 :   FIELD NAME
 LOC.     N/A                                      :   LOCATION
 PROV.    N/A                                      :   PROVINCE
 SRVC.    N/A                                      :   SERVICE COMPANY NAME
 DATE.    05 Oct 05                                :   DATE
 UWI.     N/A                                      :   UNIQUE WELL IDENTIFIER
~PARAMETER INFORMATION
#MNEMO.UNIT         VALUE                 DESCRIPTION OF MNEMONIC
#------------------------------------------------------------------------------
~OTHER INFORMATION SECTION
#------------------------------------------------------------------------------
 TCGS1365
~CURVE INFORMATION
#MNEMO.UNIT         API CODE              CURVE DESCRIPTION
#------------------------------------------------------------------------------
 DEPTH.M                                 :   0     Depth
 TEMP.DegC                               :   1     Temperature
 CN25.mS/cm                              :   2     Conductivity@25DegC
 COND.mS/cm                              :   3     Conductivity
 DELT.DegC                               :   4     Delta T
 DELC.mS/cm                              :   5     Delta C
 NGAM.CPS                                :   6     Natural Gamma
#------------------------------------------------------------------------------
~A  DEPTH     TEMP      CN25      COND      DELT      DELC      NGAM      
# ...
   347.79     17.05     47.03     38.71     -0.01      0.05      1.24 
   347.80     17.05     47.02     38.71     -0.01      0.05      2.06 
   347.81     17.06     47.02     38.71     -0.00      0.05      2.06 
   347.82     17.06     47.02     38.71     -0.00      0.04      2.47 
   347.83     17.06     47.02     38.71     -0.00      0.04      2.47 
   347.84     17.06     47.01     38.71      0.00      0.04      2.47 
   347.85     17.06     47.00     38.71      0.00      0.03      3.29 
   347.86     17.07     47.00     38.71      0.00      0.02      3.29 
   347.87     17.07     47.00     38.71      0.00      0.02      3.29 
   347.88     17.07     46.99     38.71      0.01      0.02      2.88 
   347.89     17.07     47.00     38.71      0.01      0.02      2.88 
   347.90     17.07     46.99     38.71      0.01      0.02      2.88 
   347.91     17.07     46.99     38.71      0.01      0.02      2.47 
   347.92     17.07     46.99     38.71      0.01      0.02      2.47 
   347.93     17.07     47.00     38.72      0.01      0.02      2.47 
   347.94     17.07     46.99     38.71      0.01      0.02      2.47 
   347.95     17.07     46.99     38.71      0.01      0.02      2.47 
   347.96     17.07     46.99     38.71      0.01      0.02      2.88 
   347.97     17.07     46.99     38.72      0.01      0.02      2.06 
   347.98     17.07     46.99     38.72      0.01      0.02      2.06 
   347.99     17.08     46.98     38.72      0.01      0.01      1.65 
   348.00     17.08     46.98     38.72      0.02      0.01      2.00 
   348.01     17.08     46.98     38.72      0.02      0.00      2.00 
   348.02     17.08     46.98     38.72      0.02     -0.00      1.59 
   348.03     17.08     46.98     38.72      0.02     -0.01      1.59 
   348.04     17.08     46.97     38.71      0.02     -0.01      1.59 
   348.05     17.08     46.97     38.71      0.02     -0.01      1.59 
   348.06     17.08     46.98     38.71      0.02     -0.01      1.94 
   348.07     17.07     46.99     38.72      0.01      0.00      1.53 
   348.08     17.07     46.99     38.71      0.01      0.01      1.53 
   348.09     17.07     46.99     38.71      0.01      0.01      1.53 
   348.10     17.07     47.00     38.72      0.01      0.02      1.94 
   348.11     17.07     46.99     38.71      0.01      0.01      2.35 
   348.12     17.07     47.00     38.71      0.00      0.02      2.71 
   348.13     17.07     47.00     38.72      0.00      0.03      3.12 
   348.14     17.07     47.01     38.72      0.00      0.03      3.12 
   348.15     17.06     47.01     38.72     -0.00      0.04      3.12 
   348.16     17.06     47.02     38.72     -0.00      0.04      3.12 
   348.17     17.06     47.02     38.72     -0.00      0.04      2.76 
   348.18     17.06     47.02     38.72     -0.00      0.04      2.76 
   348.19     17.06     47.02     38.72     -0.00      0.04      2.35 
   348.20     17.06     47.02     38.72     -0.00      0.04      2.35 
   348.21     17.06     47.03     38.72     -0.00      0.04      2.76 
   348.22     17.06     47.03     38.72     -0.00      0.04      3.18 
   348.23     17.06     47.04     38.72     -0.00      0.05      2.82 
   348.24     17.06     47.03     38.72     -0.00      0.04      2.82 
   348.25     17.06     47.03     38.72     -0.00      0.04      3.24 
   348.26     17.06     47.03     38.72      0.00      0.04      3.65 
   348.27     17.06     47.01     38.72      0.00      0.02      3.24 
   348.28     17.07     47.02     38.72      0.00      0.03      2.82 
   348.29     17.07     47.01     38.72      0.00      0.02      2.47 
   348.30     17.07     47.01     38.72      0.00      0.03      1.65 
   348.31     17.07     47.02     38.72      0.00      0.03      1.65 
   348.32     17.07     47.01     38.72      0.00      0.02      2.06 
   348.33     17.07     47.01     38.72      0.01      0.02      2.06 
   348.34     17.07     47.00     38.72      0.01      0.02      2.06 
   348.35     17.07     47.00     38.72      0.01      0.02      2.06 
   348.36     17.08     47.00     38.73      0.01      0.01      2.06 
   348.37     17.08     46.99     38.72      0.01      0.01      2.47 
   348.38     17.07     47.00     38.73      0.01      0.02      2.06 
   348.39     17.07     47.00     38.73      0.01      0.02      1.65 
   348.40     17.08     47.00     38.73      0.01      0.02      1.65 
   348.41     17.08     46.99     38.73      0.01      0.02      1.65 
   348.42     17.08     46.99     38.73      0.01      0.02      1.24 
   348.43     17.08     46.99     38.73      0.01      0.02      0.82 
   348.44     17.08     47.00     38.73      0.01      0.02      0.82 
   348.45     17.07     47.00     38.73      0.01      0.02      0.82 
   348.46     17.07     47.01     38.73      0.00      0.03      0.82 
   348.47     17.07     47.01     38.73      0.00      0.03      1.24 
   348.48     17.07     47.02     38.73      0.00      0.04      1.24 
   348.49     17.07     47.02     38.73     -0.00      0.04      0.82 
   348.50     17.07     47.02     38.73     -0.00      0.04      0.82 
   348.51     17.06     47.03     38.73      0.00      0.04      0.82 
   348.52     17.07     47.02     38.73      0.00      0.03      0.82 
   348.53     17.07     47.02     38.73      0.00      0.04      1.24 
   348.54     17.07     47.01     38.73      0.00      0.03      1.24 
   348.55     17.07     47.01     38.73      0.00      0.03      1.24 
   348.56     17.07     47.00     38.73      0.00      0.03      1.24 
   348.57     17.07     47.00     38.73      0.01      0.02      1.24 
   348.58     17.07     47.00     38.73      0.01      0.02      1.24 
   348.59     17.08     46.99     38.72      0.01      0.00      1.24 
   348.60     17.08     46.99     38.73      0.01      0.00      1.65 
   348.61     17.08     46.99     38.72      0.01     -0.01      2.06 
   348.62     17.08     46.99     38.72      0.02     -0.01      2.06 
   348.63     17.08     46.99     38.73      0.02     -0.01      2.06 
   348.64     17.08     46.99     38.72      0.02     -0.02      1.65 
   348.65     17.07     47.00     38.73      0.02     -0.01      1.65 
   348.66     17.07     47.00     38.72      0.02     -0.01      2.06 
   348.67     17.07     47.01     38.73      0.02     -0.01      2.47 
   348.68     17.07     47.02     38.73      0.01     -0.00      2.47 
   348.69     17.06     47.02     38.73      0.01     -0.00      2.47 
   348.70     17.06     47.03     38.73      0.01      0.00      2.47 
   348.71     17.06     47.03     38.73      0.01     -0.00      2.06 
   348.72     17.06     47.03     38.73      0.01     -0.00      2.06 
   348.73     17.06     47.03     38.73      0.01     -0.01      2.06 
   348.74     17.07     47.02     38.73      0.01     -0.01      2.06 
   348.75     17.07     47.02     38.73      0.02     -0.01      2.06 
   348.76     17.07     47.02     38.73      0.02     -0.01      2.06 
   348.77     17.07     47.01     38.73      0.02     -0.02      1.65 
   348.78     17.08     47.01     38.73      0.02     -0.02      1.24 
   348.79     17.08     47.00     38.73      0.02     -0.03      1.65 
   348.80     17.08     47.00     38.73      0.02     -0.02      1.65 
   348.81     17.08     47.00     38.73      0.02     -0.02      1.65 
   348.82     17.08     47.00     38.73      0.02     -0.02      1.65 
   348.83     17.08     47.01     38.74      0.02     -0.00      1.24 
   348.84     17.08     47.01     38.74      0.01      0.00      1.65 
   348.85     17.07     47.01     38.73      0.01      0.01      2.06 
   348.86     17.07     47.02     38.74      0.01      0.02      2.41 
   348.87     17.07     47.02     38.74      0.00      0.03      2.00 
   348.88     17.07     47.03     38.74     -0.00      0.03      2.00 
   348.89     17.07     47.03     38.74     -0.00      0.04      2.00 
   348.90     17.06     47.04     38.74     -0.01      0.05      2.41 
   348.91     17.06     47.04     38.74     -0.01      0.05      2.41 
