#Written by Robertson Geologging WinLogger V1.0/370
~VERSION INFORMATION
#------------------------------------------------------------------------------
 VERS. 2.0 : CWLS LOG ASCII STANDARD - VERSION 2.0
 WRAP. NO  : ONE LINE PER DEPTH STEP
~WELL INFORMATION
#MNEM.UNIT         DATA                                DESCRIPTION OF MNEMONIC
#------------------------------------------------------------------------------
 STRT.M        124.0500                            :   START DEPTH
 STOP.M        430.1300                            :   STOP DEPTH
 STEP.M          0.0100                            :   STEP VALUE
 NULL.        -999.2500                            :   NULL VALUE
 COMP.    White Young Green                        :   COMPANY NAME
 WELL.    Hawthorn                                 :   WELL NAME
 FLD.     Hawthorn                                 :   FIELD NAME
 LOC.     N/A                                      :   LOCATION
 PROV.    N/A                                      :   PROVINCE
 SRVC.    N/A                                      :   SERVICE COMPANY NAME
 DATE.    05 Oct 05                                :   DATE
 UWI.     N/A                                      :   UNIQUE WELL IDENTIFIER
~PARAMETER INFORMATION
#MNEMO.UNIT         VALUE                 DESCRIPTION OF MNEMONIC
#------------------------------------------------------------------------------
~OTHER INFORMATION SECTION
#------------------------------------------------------------------------------
 TCGS1365
~CURVE INFORMATION
#MNEMO.UNIT         API CODE              CURVE DESCRIPTION
#------------------------------------------------------------------------------
 DEPTH.M                                 :   0     Depth
 TEMP.DegC                               :   1     Temperature
 CN25.mS/cm                              :   2     Conductivity@25DegC
 COND.mS/cm                              :   3     Conductivity
 DELT.DegC                               :   4     Delta T
 DELC.mS/cm                              :   5     Delta C
 NGAM.CPS                                :   6     Natural Gamma
#------------------------------------------------------------------------------
~A  DEPTH     TEMP      CN25      COND      DELT      DELC      NGAM      
# ...
   205.41     12.17      7.96      1.36     -0.01      0.01      2.82 
   205.42     12.17      7.96      1.36     -0.01      0.01      2.41 
   205.43     12.17      7.96      1.36     -0.01      0.01      2.41 
   205.44     12.17      7.96      1.36     -0.01      0.01      3.12 
   205.45     12.17      7.96      1.36     -0.01      0.01      2.71 
   205.46     12.17      7.96      1.36     -0.01      0.01      3.12 
   205.47     12.17      7.96      1.36     -0.01      0.01      3.12 
   205.48     12.18      7.96      1.36     -0.00      0.00      2.71 
   205.49     12.18      7.96      1.36     -0.01      0.01      2.29 
   205.50     12.18      7.96      1.36     -0.01      0.01      1.94 
   205.51     12.18      7.96      1.36     -0.01      0.01      1.94 
   205.52     12.18      7.96      1.36     -0.01      0.01      1.94 
   205.53     12.18      7.96      1.36     -0.01      0.01      1.94 
   205.54     12.18      7.96      1.36     -0.01      0.01      2.76 
   205.55     12.18      7.96      1.36     -0.01      0.01      2.76 
   205.56     12.18      7.96      1.36     -0.01      0.01      3.12 
   205.57     12.18      7.96      1.36     -0.01      0.01      2.71 
   205.58     12.18      7.96      1.36     -0.01      0.01      2.71 
   205.59     12.18      7.96      1.36     -0.01      0.01      2.71 
   205.60     12.17      7.96      1.36     -0.01      0.01      3.12 
   205.61     12.17      7.96      1.36     -0.00      0.00      2.76 
   205.62     12.17      7.96      1.36     -0.00      0.00      2.76 
   205.63     12.17      7.96      1.36      0.00      0.00      2.35 
   205.64     12.18      7.96      1.36      0.00     -0.00      2.35 
   205.65     12.18      7.96      1.36      0.01     -0.00      2.35 
   205.66     12.18      7.96      1.36      0.01     -0.01      2.71 
   205.67     12.18      7.96      1.36      0.01     -0.01      2.71 
   205.68     12.18      7.95      1.36      0.01     -0.01      3.53 
   205.69     12.18      7.95      1.36      0.01     -0.01      3.94 
   205.70     12.18      7.95      1.36      0.01     -0.01      3.53 
   205.71     12.18      7.95      1.36      0.01     -0.01      2.71 
   205.72     12.18      7.95      1.36      0.01     -0.01      2.71 
   205.73     12.18      7.95      1.36      0.00     -0.01      2.35 
   205.74     12.18      7.95      1.36      0.00     -0.01      2.35 
   205.75     12.18      7.95      1.36      0.00     -0.00      2.35 
   205.76     12.18      7.95      1.36     -0.00     -0.00      2.35 
   205.77     12.18      7.95      1.36     -0.00     -0.00      2.35 
   205.78     12.18      7.95      1.36     -0.00      0.00      2.00 
   205.79     12.18      7.95      1.36     -0.00      0.00      2.41 
   205.80     12.18      7.96      1.36     -0.00      0.00      3.12 
   205.81     12.18      7.96      1.36     -0.00      0.00      3.12 
   205.82     12.18      7.95      1.36     -0.00      0.00      3.12 
   205.83     12.18      7.95      1.36     -0.00      0.00      2.76 
   205.84     12.18      7.95      1.36      0.00      0.00      2.76 
   205.85     12.18      7.95      1.36      0.00     -0.00      2.29 
   205.86     12.18      7.95      1.36      0.01     -0.01      1.88 
   205.87     12.18      7.95      1.36      0.01     -0.01      2.29 
   205.88     12.18      7.95      1.36      0.01     -0.01      2.71 
   205.89     12.18      7.95      1.36      0.01     -0.01      3.06 
   205.90     12.18      7.96      1.36      0.01     -0.01      3.47 
   205.91     12.18      7.96      1.36      0.01     -0.01      3.47 
   205.92     12.18      7.95      1.36      0.01     -0.01      3.47 
   205.93     12.18      7.95      1.36      0.01     -0.01      3.82 
   205.94     12.18      7.95      1.36      0.01     -0.01      3.41 
   205.95     12.18      7.95      1.36      0.01     -0.01      3.82 
   205.96     12.18      7.96      1.36      0.01     -0.01      3.41 
   205.97     12.18      7.96      1.36      0.01     -0.01      3.12 
   205.98     12.18      7.96      1.36      0.00     -0.00      3.53 
   205.99     12.18      7.96      1.36      0.00     -0.00      3.53 
   206.00     12.18      7.95      1.36      0.00     -0.00      3.53 
   206.01     12.18      7.95      1.36      0.00     -0.00      3.53 
   206.02     12.18      7.95      1.36      0.00     -0.00      3.59 
   206.03     12.19      7.95      1.36      0.00     -0.00      3.59 
   206.04     12.19      7.95      1.36      0.01     -0.01      3.88 
   206.05     12.19      7.95      1.36      0.00     -0.01      3.47 
   206.06     12.18      7.95      1.36      0.00     -0.00      3.12 
   206.07     12.18      7.95      1.36      0.00     -0.00      2.71 
   206.08     12.18      7.95      1.36      0.00      0.00      2.71 
   206.09     12.18      7.95      1.36      0.00     -0.00      2.71 
   206.10     12.18      7.95      1.36      0.00     -0.00      2.71 
   206.11     12.18      7.95      1.36      0.00     -0.00      3.12 
   206.12     12.18      7.96      1.36      0.00     -0.00      2.71 
   206.13     12.18      7.95      1.36      0.00     -0.00      2.71 
   206.14     12.18      7.96      1.36      0.00     -0.00      2.29 
   206.15     12.18      7.95      1.36      0.00     -0.00      2.29 
   206.16     12.18      7.96      1.36      0.00     -0.00      2.29 
   206.17     12.18      7.96      1.36      0.00     -0.00      2.29 
   206.18     12.18      7.95      1.36      0.00     -0.00      2.71 
   206.19     12.18      7.95      1.36      0.00     -0.00      2.29 
   206.20     12.18      7.96      1.36      0.00     -0.00      2.29 
   206.21     12.18      7.96      1.36      0.01     -0.00      1.59 
   206.22     12.18      7.96      1.36      0.01     -0.01      1.59 
   206.23     12.18      7.96      1.36      0.00     -0.01      1.59 
   206.24     12.18      7.96      1.36      0.00     -0.00      2.41 
   206.25     12.18      7.96      1.36      0.00     -0.00      2.82 
   206.26     12.17      7.96      1.36      0.00     -0.00      2.82 
   206.27     12.17      7.96      1.36      0.01     -0.01      2.47 
   206.28     12.17      7.96      1.36      0.01     -0.01      2.76 
   206.29     12.18      7.96      1.36      0.01     -0.01      2.76 
   206.30     12.18      7.96      1.36      0.01     -0.01      3.18 
   206.31     12.18      7.96      1.36      0.01     -0.01      3.18 
   206.32     12.18      7.96      1.36      0.01     -0.01      3.18 
   206.33     12.17      7.96      1.36      0.01     -0.01      3.18 
   206.34     12.17      7.96      1.36      0.00     -0.00      3.18 
   206.35     12.17      7.96      1.36      0.00     -0.00      2.76 
   206.36     12.17      7.97      1.36     -0.00      0.00      2.76 
   206.37     12.17      7.97      1.36     -0.00      0.00      2.76 
   206.38     12.17      7.97      1.36     -0.00      0.00      2.76 
   206.39     12.17      7.97      1.36     -0.01      0.01      2.76 
   206.40     12.16      7.97      1.36     -0.01      0.01      2.76 
   206.41     12.16      7.97      1.36     -0.01      0.01      1.94 
   206.42     12.16      7.97      1.36     -0.01      0.01      1.53 
   206.43     12.17      7.97      1.36     -0.01      0.01      1.53 
   206.44     12.17      7.97      1.36     -0.01      0.01      1.94 
   206.45     12.17      7.96      1.36     -0.01      0.01      1.24 
   206.46     12.17      7.96      1.36     -0.00      0.01      1.24 
   206.47     12.17      7.96      1.36     -0.00      0.00      0.82 
   206.48     12.17      7.96      1.36     -0.00      0.00      1.65 
   206.49     12.18      7.96      1.36     -0.00      0.00      1.24 
   206.50     12.18      7.96      1.36     -0.00      0.00      1.65 
   206.51     12.18      7.96      1.36      0.00     -0.00      1.65 
   206.52     12.18      7.96      1.36      0.00     -0.00      2.06 
   206.53     12.18      7.95      1.36      0.00     -0.00      2.06 
