#Written by Robertson Geologging WinLogger V1.0/370
~VERSION INFORMATION
#------------------------------------------------------------------------------
 VERS. 2.0 : CWLS LOG ASCII STANDARD - VERSION 2.0
 WRAP. NO  : ONE LINE PER DEPTH STEP
~WELL INFORMATION
#MNEM.UNIT         DATA                                DESCRIPTION OF MNEMONIC
#------------------------------------------------------------------------------
 STRT.M        124.0500                            :   START DEPTH
 STOP.M        430.1300                            :   STOP DEPTH
 STEP.M          0.0100                            :   STEP VALUE
 NULL.        -999.2500                            :   NULL VALUE
 COMP.    White Young Green                        :   COMPANY NAME
 WELL.    Hawthorn                                 :   WELL NAME
 FLD.     Hawthorn                                 :   FIELD NAME
 LOC.     N/A                                      :   LOCATION
 PROV.    N/A                                      :   PROVINCE
 SRVC.    N/A                                      :   SERVICE COMPANY NAME
 DATE.    05 Oct 05                                :   DATE
 UWI.     N/A                                      :   UNIQUE WELL IDENTIFIER
~PARAMETER INFORMATION
#MNEMO.UNIT         VALUE                 DESCRIPTION OF MNEMONIC
#------------------------------------------------------------------------------
~OTHER INFORMATION SECTION
#------------------------------------------------------------------------------
 TCGS1365
~CURVE INFORMATION
#MNEMO.UNIT         API CODE              CURVE DESCRIPTION
#------------------------------------------------------------------------------
 DEPTH.M                                 :   0     Depth
 TEMP.DegC                               :   1     Temperature
 CN25.mS/cm                              :   2     Conductivity@25DegC
 COND.mS/cm                              :   3     Conductivity
 DELT.DegC                               :   4     Delta T
 DELC.mS/cm                              :   5     Delta C
 NGAM.CPS                                :   6     Natural Gamma
#------------------------------------------------------------------------------
~A  DEPTH     TEMP      CN25      COND      DELT      DELC      NGAM      
   124.05      0.00     15.89      0.00      0.00      0.00      0.00 
   124.06      0.00     15.89      0.00      0.00      0.00      0.00 
   124.07      0.00     15.89      0.00      0.00      0.00      0.00 
   124.08      0.00     15.89      0.00      0.00      0.00      0.00 
   124.09      0.00     15.89      0.00      0.00      0.00      0.00 
   124.10      0.00     15.89      0.00      0.00      0.00      0.00 
   124.11      0.00     15.89      0.00      0.00      0.00      0.00 
   124.12      0.00     15.89      0.00      0.00      0.00      0.00 
   124.13      0.00     15.89      0.00      0.00      0.00      0.00 
   124.14      0.00     15.89      0.00      0.00      0.00      0.00 
   124.15      0.00     15.89      0.00      0.00      0.00      0.00 
   124.16      0.00     15.89      0.00      0.00      0.00      0.00 
   124.17      0.00     15.89      0.00      0.00      0.00      0.00 
   124.18      0.00     15.89      0.00      0.00      0.00      0.00 
   124.19      0.00     15.89      0.00      0.00      0.00      0.00 
   124.20      0.00     15.89      0.00      0.00      0.00      0.00 
   124.21      0.00     15.89      0.00      0.00      0.00      0.00 
   124.22      0.00     15.89      0.00      0.00      0.00      0.00 
   124.23      0.00     15.89      0.00      0.00      0.00      0.00 
   124.24      0.00     15.89      0.00      0.00      0.00      0.00 
   124.25      0.00     15.89      0.00      0.00      0.00      0.00 
   124.26      0.00     15.89      0.00      0.00      0.00      0.00 
   124.27      0.00     15.89      0.00      0.00      0.00      0.00 
   124.28      0.00     15.89      0.00      0.00      0.00      0.00 
   124.29      0.00     15.89      0.00      0.00      0.00      0.00 
   124.30      0.00     15.89      0.00      0.00      0.00      0.00 
   124.31      0.00     15.89      0.00      0.00      0.00      0.00 
   124.32      0.00     15.89      0.00      0.00      0.00      0.00 
   124.33      0.00     15.89      0.00      0.00      0.00      0.00 
   124.34      0.00     15.89      0.00      0.00      0.00      0.00 
   124.35      0.00     15.89      0.00      0.00      0.00      0.00 
   124.36      0.00     15.89      0.00      0.00      0.00      0.00 
   124.37      0.00     15.89      0.00      0.00      0.00      0.00 
   124.38      0.00     15.89      0.00      0.00      0.00      0.00 
   124.39      0.00     15.89      0.00      0.00      0.00      0.00 
   124.40      0.00     15.89      0.00      0.00      0.00      0.00 
   124.41      0.00     15.89      0.00      0.00      0.00      0.00 
   124.42      0.00     15.89      0.00      0.00      0.00      0.00 
   124.43      0.00     15.89      0.00      0.00      0.00      0.00 
   124.44      0.00     15.89      0.00      0.00      0.00      0.00 
   124.45      0.00     15.89      0.00      0.00      0.00      0.00 
   124.46      0.00     15.89      0.00      0.00      0.00      0.00 
   124.47      0.00     15.89      0.00      0.00      0.00      0.00 
   124.48      0.00     15.89      0.00      0.00      0.00      0.00 
   124.49      0.00     15.89      0.00      0.00      0.00      0.00 
   124.50      0.00     15.89      0.00      0.00      0.00      0.00 
   124.51      0.00     15.89      0.00      0.00      0.00      0.00 
   124.52      0.00     15.89      0.00      0.00      0.00      0.00 
   124.53      0.00     15.89      0.00      0.00      0.00      0.00 
   124.54      0.00     15.89      0.00      0.00      0.00      0.00 
   124.55      0.00     15.89      0.00      0.00      0.00      0.00 
   124.56      0.00     15.89      0.00      0.00      0.00      0.00 
   124.57      0.00     15.89      0.00      0.00      0.00      0.00 
   124.58      0.00     15.89      0.00      0.00      0.00      0.00 
   124.59      0.00     15.89      0.00      0.00      0.00      0.00 
   124.60      0.00     15.89      0.00      0.00      0.00      0.00 
   124.61      0.00     15.89      0.00      0.00      0.00      0.00 
   124.62      0.00     15.89      0.00      0.00      0.00      0.00 
   124.63      0.00     15.89      0.00      0.00      0.00      0.00 
   124.64      0.00     15.89      0.00      0.00      0.00      0.00 
   124.65      0.00     15.89      0.00      0.00      0.00      0.00 
   124.66      0.00     15.89      0.00      0.00      0.00      0.00 
   124.67      0.00     15.89      0.00      0.00      0.00      0.00 
   124.68      0.00     15.89      0.00      0.00      0.00      0.00 
   124.69      0.00     15.89      0.00      0.00      0.00      0.00 
   124.70      0.00     15.89      0.00      0.00      0.00      0.00 
   124.71      0.00     15.89      0.00      0.00      0.00      0.00 
   124.72      0.00     15.89      0.00      0.00      0.00      0.00 
   124.73      0.00     15.89      0.00      0.00      0.00      0.00 
   124.74      0.00     15.89      0.00      0.00      0.00      0.00 
   124.75      0.00     15.89      0.00      0.00      0.00      0.00 
   124.76      0.00     15.89      0.00      0.00      0.00      0.00 
   124.77      0.00     15.89      0.00      0.00      0.00      0.00 
   124.78      0.00     15.89      0.00      0.00      0.00      0.00 
   124.79      0.00     15.89      0.00      0.00      0.00      0.00 
   124.80      0.00     15.89      0.00      0.00      0.00      0.00 
   124.81      0.00     15.89      0.00      0.00      0.00      0.00 
   124.82      0.00     15.89      0.00      0.00      0.00      0.00 
   124.83      0.00     15.89      0.00      0.00      0.00      0.00 
   124.84      0.00     15.89      0.00      0.00      0.00      0.00 
   124.85      0.00     15.89      0.00      0.00      0.00      0.00 
   124.86      0.00     15.89      0.00      0.00      0.00      0.00 
   124.87      0.00     15.89      0.00      0.00      0.00      0.00 
   124.88      0.00     15.89      0.00      0.00      0.00      0.00 
   124.89      0.00     15.89      0.00      0.00      0.00      0.00 
   124.90      0.00     15.89      0.00      0.00      0.00      0.00 
   124.91      0.00     15.89      0.00      0.00      0.00      0.00 
   124.92      0.00     15.89      0.00      0.00      0.00      0.00 
   124.93      0.00     15.89      0.00      0.00      0.00      0.00 
   124.94      0.00     15.89      0.00      0.00      0.00      0.00 
   124.95      0.00     15.89      0.00      0.00      0.00      0.00 
   124.96      0.00     15.89      0.00      0.00      0.00      0.00 
   124.97      0.00     15.89      0.00      0.00      0.00      0.00 
   124.98      0.00     15.89      0.00      0.00      0.00      0.00 
   124.99      0.00     15.89      0.00      0.00      0.00      0.00 
   125.00      0.00     15.89      0.00      0.00      0.00      0.00 
   125.01      0.00     15.89      0.00      0.00      0.00      0.00 
   125.02      0.00     15.89      0.00      0.00      0.00      0.00 
   125.03      0.00     15.89      0.00      0.00      0.00      0.00 
   125.04      0.00     15.89      0.00      0.00      0.00      0.00 
   125.05      0.00     15.89      0.00      0.00      0.00      0.00 
   125.06      0.00     15.89      0.00      0.00      0.00      0.00 
   125.07      0.00     15.89      0.00      0.00      0.00      0.00 
   125.08      0.00     15.89      0.00      0.00      0.00      0.00 
   125.09      0.00     15.89      0.00      0.00      0.00      0.00 
   125.10      0.00     15.89      0.00      0.00      0.00      0.00 
   125.11      0.00     15.89      0.00      0.00      0.00      0.00 
   125.12      0.00     15.89      0.00      0.00      0.00      0.00 
   125.13      0.00     15.89      0.00      0.00      0.00      0.00 
   125.14      0.00     15.89      0.00      0.00      0.00      0.00 
   125.15      0.00     15.89      0.00      0.00      0.00      0.00 
   125.16      0.00     15.89      0.00      0.00      0.00      0.00 
   125.17      0.00     15.89      0.00      0.00      0.00      0.00 
