#Written by Robertson Geologging WinLogger V1.0/370
~VERSION INFORMATION
#------------------------------------------------------------------------------
 VERS. 2.0 : CWLS LOG ASCII STANDARD - VERSION 2.0
 WRAP. NO  : ONE LINE PER DEPTH STEP
~WELL INFORMATION
#MNEM.UNIT         DATA                                DESCRIPTION OF MNEMONIC
#------------------------------------------------------------------------------
 STRT.M        124.0500                            :   START DEPTH
 STOP.M        430.1300                            :   STOP DEPTH
 STEP.M          0.0100                            :   STEP VALUE
 NULL.        -999.2500                            :   NULL VALUE
 COMP.    White Young Green                        :   COMPANY NAME
 WELL.    Hawthorn                                 :   WELL NAME
 FLD.     Hawthorn                                 :   FIELD NAME
 LOC.     N/A                                      :   LOCATION
 PROV.    N/A                                      :   PROVINCE
 SRVC.    N/A                                      :   SERVICE COMPANY NAME
 DATE.    05 Oct 05                                :   DATE
 UWI.     N/A                                      :   UNIQUE WELL IDENTIFIER
~PARAMETER INFORMATION
#MNEMO.UNIT         VALUE                 DESCRIPTION OF MNEMONIC
#------------------------------------------------------------------------------
~OTHER INFORMATION SECTION
#------------------------------------------------------------------------------
 TCGS1365
~CURVE INFORMATION
#MNEMO.UNIT         API CODE              CURVE DESCRIPTION
#------------------------------------------------------------------------------
 DEPTH.M                                 :   0     Depth
 TEMP.DegC                               :   1     Temperature
 CN25.mS/cm                              :   2     Conductivity@25DegC
 COND.mS/cm                              :   3     Conductivity
 DELT.DegC                               :   4     Delta T
 DELC.mS/cm                              :   5     Delta C
 NGAM.CPS                                :   6     Natural Gamma
#------------------------------------------------------------------------------
~A  DEPTH     TEMP      CN25      COND      DELT      DELC      NGAM      
# ...
   307.11     16.43     36.15     28.55     -0.01      0.02      2.12 
   307.12     16.43     36.16     28.55     -0.01      0.02      1.71 
   307.13     16.43     36.15     28.55     -0.01      0.02      1.71 
   307.14     16.43     36.16     28.55     -0.01      0.02      2.12 
   307.15     16.43     36.16     28.55     -0.01      0.02      1.71 
   307.16     16.43     36.16     28.55     -0.01      0.01      1.71 
   307.17     16.43     36.16     28.55     -0.01      0.02      1.71 
   307.18     16.43     36.15     28.55     -0.00      0.01      1.24 
   307.19     16.43     36.16     28.55     -0.00      0.02      0.82 
   307.20     16.43     36.15     28.55     -0.00      0.01      0.82 
   307.21     16.43     36.16     28.55     -0.00      0.01      0.82 
   307.22     16.43     36.15     28.54      0.00     -0.01      0.82 
   307.23     16.43     36.15     28.54      0.01     -0.01      1.24 
   307.24     16.43     36.14     28.55      0.01     -0.02      1.24 
   307.25     16.44     36.14     28.54      0.01     -0.02      1.24 
   307.26     16.43     36.14     28.55      0.01     -0.02      2.06 
   307.27     16.43     36.15     28.55      0.01     -0.01      2.06 
   307.28     16.43     36.15     28.55      0.01     -0.01      2.06 
   307.29     16.43     36.15     28.55      0.00     -0.00      2.06 
   307.30     16.43     36.14     28.54      0.00     -0.01      2.06 
   307.31     16.43     36.14     28.55      0.01     -0.01      1.65 
   307.32     16.44     36.13     28.55      0.01     -0.02      1.65 
   307.33     16.44     36.13     28.55      0.01     -0.02      1.65 
   307.34     16.44     36.13     28.55      0.01     -0.02      1.65 
   307.35     16.44     36.13     28.55      0.01     -0.02      1.65 
   307.36     16.44     36.13     28.55      0.01     -0.01      1.65 
   307.37     16.44     36.13     28.55      0.01     -0.02      1.65 
   307.38     16.45     36.12     28.55      0.01     -0.03      1.65 
   307.39     16.45     36.12     28.55      0.02     -0.03      1.65 
   307.40     16.45     36.12     28.55      0.02     -0.03      1.24 
   307.41     16.45     36.13     28.55      0.02     -0.03      1.24 
   307.42     16.44     36.13     28.55      0.01     -0.02      1.24 
   307.43     16.44     36.13     28.55      0.01     -0.02      0.41 
   307.44     16.44     36.14     28.55      0.01     -0.01      0.00 
   307.45     16.44     36.13     28.55      0.01     -0.01      0.47 
   307.46     16.44     36.14     28.55      0.01     -0.00      1.29 
   307.47     16.44     36.13     28.55      0.01     -0.01      1.71 
   307.48     16.44     36.13     28.55      0.01     -0.02      1.71 
   307.49     16.44     36.13     28.55      0.01     -0.02      1.71 
   307.50     16.44     36.13     28.55      0.01     -0.02      1.71 
   307.51     16.44     36.13     28.55      0.01     -0.02      1.71 
   307.52     16.44     36.13     28.55      0.01     -0.01      1.71 
   307.53     16.44     36.12     28.55      0.01     -0.02      1.71 
   307.54     16.44     36.13     28.55      0.01     -0.01      2.12 
   307.55     16.44     36.13     28.55      0.01     -0.02      2.12 
   307.56     16.44     36.14     28.55      0.01     -0.01      2.53 
   307.57     16.44     36.14     28.55      0.01     -0.01      2.53 
   307.58     16.44     36.14     28.55      0.00     -0.01      2.53 
   307.59     16.43     36.15     28.55      0.00     -0.00      2.53 
   307.60     16.43     36.15     28.55     -0.00      0.00      2.53 
   307.61     16.43     36.15     28.55     -0.00      0.01      2.94 
   307.62     16.43     36.15     28.55     -0.00      0.01      2.47 
   307.63     16.43     36.15     28.55     -0.00      0.01      2.47 
   307.64     16.43     36.16     28.55     -0.01      0.01      2.06 
   307.65     16.43     36.16     28.55     -0.01      0.01      2.88 
   307.66     16.43     36.16     28.55     -0.00      0.01      2.88 
   307.67     16.43     36.16     28.55     -0.00      0.01      2.88 
   307.68     16.43     36.15     28.55     -0.00      0.00      2.88 
   307.69     16.43     36.15     28.55     -0.00      0.01      2.88 
   307.70     16.43     36.15     28.55     -0.00      0.01      2.88 
   307.71     16.43     36.16     28.55     -0.00      0.01      2.88 
   307.72     16.43     36.15     28.55     -0.00      0.01      2.88 
   307.73     16.43     36.15     28.55     -0.00      0.01      2.47 
   307.74     16.43     36.15     28.55      0.00      0.00      2.88 
   307.75     16.44     36.14     28.55      0.00     -0.00      2.88 
   307.76     16.44     36.14     28.55      0.00     -0.00      2.88 
   307.77     16.44     36.14     28.55      0.00      0.00      2.88 
   307.78     16.44     36.14     28.55     -0.00      0.00      2.47 
   307.79     16.44     36.15     28.55     -0.00      0.01      2.94 
   307.80     16.43     36.15     28.55     -0.00      0.01      2.53 
   307.81     16.43     36.15     28.55     -0.00      0.01      2.94 
   307.82     16.43     36.14     28.55     -0.00      0.01      2.53 
   307.83     16.43     36.15     28.55     -0.00      0.01      2.53 
   307.84     16.43     36.15     28.55     -0.01      0.02      2.53 
   307.85     16.43     36.15     28.55     -0.01      0.02      2.53 
   307.86     16.43     36.15     28.55     -0.01      0.02      2.53 
   307.87     16.43     36.15     28.55     -0.01      0.02      2.53 
   307.88     16.43     36.15     28.55     -0.01      0.02      2.12 
   307.89     16.43     36.15     28.55     -0.01      0.01      2.12 
   307.90     16.43     36.15     28.55     -0.00      0.00      2.12 
   307.91     16.44     36.14     28.55      0.00      0.00      1.71 
   307.92     16.44     36.14     28.55      0.00     -0.00      1.71 
   307.93     16.44     36.14     28.55      0.00      0.01      2.12 
   307.94     16.44     36.14     28.55     -0.00      0.00      2.53 
   307.95     16.44     36.14     28.55     -0.00      0.00      2.94 
   307.96     16.44     36.14     28.55      0.00      0.01      2.47 
   307.97     16.44     36.13     28.55      0.00     -0.01      2.47 
   307.98     16.44     36.13     28.55      0.00     -0.00      2.06 
   307.99     16.44     36.14     28.55      0.00      0.00      1.65 
   308.00     16.44     36.14     28.55     -0.00      0.00      1.65 
   308.01     16.43     36.15     28.55     -0.00      0.01      1.65 
   308.02     16.43     36.16     28.55     -0.01      0.02      1.65 
   308.03     16.43     36.16     28.55     -0.01      0.02      1.65 
   308.04     16.43     36.16     28.55     -0.01      0.02      1.65 
   308.05     16.43     36.16     28.55     -0.01      0.03      2.06 
   308.06     16.43     36.16     28.55     -0.01      0.02      3.29 
   308.07     16.42     36.16     28.55     -0.01      0.02      3.71 
   308.08     16.43     36.17     28.55     -0.01      0.02      3.71 
   308.09     16.43     36.16     28.55     -0.01      0.02      3.71 
   308.10     16.43     36.16     28.55     -0.00      0.01      3.29 
   308.11     16.43     36.16     28.55     -0.00      0.00      3.29 
   308.12     16.43     36.15     28.55      0.00     -0.00      2.88 
   308.13     16.43     36.15     28.55      0.00     -0.01      3.29 
   308.14     16.43     36.15     28.55      0.01     -0.01      2.88 
   308.15     16.44     36.14     28.55      0.01     -0.01      2.88 
   308.16     16.44     36.14     28.55      0.01     -0.02      2.88 
   308.17     16.44     36.14     28.55      0.01     -0.01      2.88 
   308.18     16.44     36.14     28.55      0.01     -0.02      2.88 
   308.19     16.44     36.14     28.55      0.01     -0.02      2.88 
   308.20     16.44     36.14     28.55      0.01     -0.02      2.88 
   308.21     16.44     36.14     28.55      0.01     -0.01      2.88 
   308.22     16.44     36.14     28.55      0.01     -0.00      2.47 
   308.23     16.44     36.15     28.55      0.00      0.00      1.24 
