#Written by Robertson Geologging WinLogger V1.0/370
~VERSION INFORMATION
#------------------------------------------------------------------------------
 VERS. 2.0 : CWLS LOG ASCII STANDARD - VERSION 2.0
 WRAP. NO  : ONE LINE PER DEPTH STEP
~WELL INFORMATION
#MNEM.UNIT         DATA                                DESCRIPTION OF MNEMONIC
#------------------------------------------------------------------------------
 STRT.M        124.0500                            :   START DEPTH
 STOP.M        430.1300                            :   STOP DEPTH
 STEP.M          0.0100                            :   STEP VALUE
 NULL.        -999.2500                            :   NULL VALUE
 COMP.    White Young Green                        :   COMPANY NAME
 WELL.    Hawthorn                                 :   WELL NAME
 FLD.     Hawthorn                                 :   FIELD NAME
 LOC.     N/A                                      :   LOCATION
 PROV.    N/A                                      :   PROVINCE
 SRVC.    N/A                                      :   SERVICE COMPANY NAME
 DATE.    05 Oct 05                                :   DATE
 UWI.     N/A                                      :   UNIQUE WELL IDENTIFIER
~PARAMETER INFORMATION
#MNEMO.UNIT         VALUE                 DESCRIPTION OF MNEMONIC
#------------------------------------------------------------------------------
~OTHER INFORMATION SECTION
#------------------------------------------------------------------------------
 TCGS1365
~CURVE INFORMATION
#MNEMO.UNIT         API CODE              CURVE DESCRIPTION
#------------------------------------------------------------------------------
 DEPTH.M                                 :   0     Depth
 TEMP.DegC                               :   1     Temperature
 CN25.mS/cm                              :   2     Conductivity@25DegC
 COND.mS/cm                              :   3     Conductivity
 DELT.DegC                               :   4     Delta T
 DELC.mS/cm                              :   5     Delta C
 NGAM.CPS                                :   6     Natural Gamma
#------------------------------------------------------------------------------
~A  DEPTH     TEMP      CN25      COND      DELT      DELC      NGAM      
# ...
   144.39     12.20      7.93      1.36      0.00     -0.00      5.00 
   144.40     12.21      7.93      1.36      0.01     -0.00      5.00 
   144.41     12.21      7.93      1.36      0.01     -0.01      5.00 
   144.42     12.21      7.92      1.36      0.02     -0.01      5.00 
   144.43     12.21      7.92      1.36      0.02     -0.02      4.59 
   144.44     12.21      7.92      1.36      0.02     -0.02      4.59 
   144.45     12.21      7.92      1.36      0.03     -0.03      3.76 
   144.46     12.21      7.92      1.36      0.03     -0.03      2.53 
   144.47     12.21      7.92      1.36      0.02     -0.02      3.00 
   144.48     12.21      7.92      1.36      0.02     -0.02      2.53 
   144.49     12.21      7.93      1.36      0.02     -0.02      2.53 
   144.50     12.20      7.93      1.36      0.02     -0.02      2.53 
   144.51     12.20      7.93      1.36      0.01     -0.01      1.71 
   144.52     12.20      7.93      1.36      0.01     -0.01      1.71 
   144.53     12.20      7.93      1.36      0.01     -0.01      2.12 
   144.54     12.20      7.93      1.36      0.01     -0.01      1.71 
   144.55     12.20      7.93      1.36      0.01     -0.01      1.71 
   144.56     12.20      7.93      1.36      0.01     -0.01      1.29 
   144.57     12.20      7.93      1.36      0.00     -0.01      1.29 
   144.58     12.20      7.93      1.36      0.00     -0.01      1.29 
   144.59     12.20      7.93      1.36      0.00     -0.01      2.12 
   144.60     12.20      7.93      1.36      0.00     -0.00      2.53 
   144.61     12.20      7.93      1.36     -0.00     -0.00      3.00 
   144.62     12.20      7.93      1.36     -0.00     -0.00      3.41 
   144.63     12.20      7.93      1.36      0.00     -0.00      3.41 
   144.64     12.20      7.93      1.36      0.00     -0.00      3.35 
   144.65     12.20      7.93      1.36      0.00     -0.00      3.35 
   144.66     12.20      7.93      1.36      0.00     -0.00      4.18 
   144.67     12.20      7.93      1.36      0.01     -0.00      4.18 
   144.68     12.20      7.93      1.36      0.01     -0.01      4.59 
   144.69     12.20      7.93      1.36      0.02     -0.01      4.18 
   144.70     12.20      7.93      1.36      0.02     -0.02      3.76 
   144.71     12.21      7.93      1.36      0.03     -0.02      4.59 
   144.72     12.21      7.93      1.36      0.03     -0.02      5.00 
   144.73     12.21      7.93      1.36      0.03     -0.02      5.00 
   144.74     12.21      7.93      1.36      0.03     -0.02      5.00 
   144.75     12.21      7.92      1.36      0.03     -0.02      5.41 
   144.76     12.21      7.92      1.36      0.03     -0.03      5.41 
   144.77     12.21      7.92      1.36      0.03     -0.03      5.00 
   144.78     12.21      7.93      1.36      0.02     -0.02      4.53 
   144.79     12.20      7.93      1.36      0.02     -0.02      4.53 
   144.80     12.20      7.93      1.36      0.01     -0.02      4.53 
   144.81     12.20      7.93      1.36      0.00     -0.01      4.12 
   144.82     12.19      7.94      1.36     -0.00     -0.00      4.53 
   144.83     12.19      7.94      1.36     -0.00      0.00      3.71 
   144.84     12.19      7.94      1.36     -0.01      0.00      4.12 
   144.85     12.19      7.94      1.36     -0.01      0.00      3.71 
   144.86     12.19      7.94      1.36     -0.01      0.01      4.12 
   144.87     12.19      7.94      1.36     -0.01      0.01      4.53 
   144.88     12.19      7.94      1.36     -0.01      0.01      3.71 
   144.89     12.19      7.94      1.36     -0.01      0.01      3.29 
   144.90     12.19      7.94      1.36     -0.01      0.01      3.29 
   144.91     12.19      7.94      1.36     -0.01      0.01      3.29 
   144.92     12.19      7.94      1.36     -0.01      0.01      3.29 
   144.93     12.19      7.94      1.36     -0.01      0.01      2.47 
   144.94     12.20      7.94      1.36     -0.00      0.01      2.88 
   144.95     12.19      7.94      1.36     -0.00      0.01      3.29 
   144.96     12.19      7.94      1.36     -0.00      0.01      2.88 
   144.97     12.19      7.94      1.36     -0.00      0.00      2.88 
   144.98     12.19      7.94      1.36     -0.01      0.01      3.29 
   144.99     12.19      7.94      1.36     -0.01      0.01      3.29 
   145.00     12.19      7.94      1.36     -0.01      0.01      3.29 
   145.01     12.19      7.94      1.36     -0.01      0.01      2.88 
   145.02     12.19      7.94      1.36     -0.01      0.01      2.88 
   145.03     12.19      7.94      1.36     -0.01      0.01      2.88 
   145.04     12.19      7.94      1.36     -0.01      0.01      2.47 
   145.05     12.19      7.94      1.36     -0.01      0.01      2.47 
   145.06     12.20      7.94      1.36     -0.01      0.01      3.29 
   145.07     12.20      7.93      1.36     -0.01      0.01      3.29 
   145.08     12.20      7.93      1.36     -0.01      0.01      3.29 
   145.09     12.20      7.93      1.36     -0.01      0.00      3.29 
   145.10     12.20      7.93      1.36     -0.01      0.00      3.29 
   145.11     12.20      7.93      1.36     -0.01      0.01      2.88 
   145.12     12.20      7.93      1.36     -0.01      0.01      2.47 
   145.13     12.20      7.94      1.36     -0.01      0.01      3.29 
   145.14     12.20      7.93      1.36     -0.01      0.01      3.29 
   145.15     12.20      7.94      1.36     -0.01      0.01      2.88 
   145.16     12.20      7.94      1.36     -0.01      0.01      3.29 
   145.17     12.20      7.94      1.36     -0.01      0.01      4.12 
   145.18     12.19      7.94      1.36     -0.01      0.01      4.12 
   145.19     12.19      7.94      1.36     -0.01      0.01      4.53 
   145.20     12.19      7.94      1.36     -0.01      0.01      4.12 
   145.21     12.19      7.94      1.36     -0.01      0.01      4.53 
   145.22     12.20      7.94      1.36     -0.01      0.01      4.53 
   145.23     12.20      7.94      1.36     -0.00      0.01      3.71 
   145.24     12.20      7.94      1.36      0.00      0.00      4.12 
   145.25     12.20      7.94      1.36      0.00      0.00      4.94 
   145.26     12.20      7.94      1.36      0.00      0.00      4.53 
   145.27     12.20      7.94      1.36      0.00      0.00      4.53 
   145.28     12.20      7.93      1.36      0.01     -0.00      4.94 
   145.29     12.20      7.93      1.36      0.01     -0.01      4.94 
   145.30     12.20      7.93      1.36      0.01     -0.01      4.12 
   145.31     12.20      7.93      1.36      0.01     -0.01      4.53 
   145.32     12.20      7.93      1.36      0.00     -0.01      4.53 
   145.33     12.20      7.93      1.36     -0.00     -0.00      3.71 
   145.34     12.20      7.94      1.36     -0.00      0.00      2.88 
   145.35     12.20      7.94      1.36     -0.01      0.00      3.29 
   145.36     12.20      7.93      1.36     -0.01      0.00      2.88 
   145.37     12.20      7.93      1.36     -0.00      0.00      3.29 
   145.38     12.20      7.93      1.36     -0.00      0.00      3.29 
   145.39     12.20      7.93      1.36     -0.00      0.00      3.29 
   145.40     12.20      7.93      1.36     -0.01      0.01      3.29 
   145.41     12.20      7.93      1.36     -0.01      0.01      2.88 
   145.42     12.20      7.93      1.36     -0.01      0.01      2.47 
   145.43     12.21      7.93      1.36     -0.01      0.01      2.47 
   145.44     12.21      7.93      1.36     -0.01      0.01      2.47 
   145.45     12.21      7.93      1.36     -0.01      0.01      2.06 
   145.46     12.20      7.93      1.36     -0.01      0.01      2.06 
   145.47     12.20      7.93      1.36     -0.01      0.01      2.06 
   145.48     12.20      7.93      1.36     -0.01      0.01      1.65 
   145.49     12.20      7.94      1.36     -0.01      0.01      2.47 
   145.50     12.20      7.94      1.36     -0.01      0.01      2.47 
   145.51     12.20      7.94      1.36     -0.01      0.01      2.47 
