#Written by Robertson Geologging WinLogger V1.0/370
~VERSION INFORMATION
#------------------------------------------------------------------------------
 VERS. 2.0 : CWLS LOG ASCII STANDARD - VERSION 2.0
 WRAP. NO  : ONE LINE PER DEPTH STEP
~WELL INFORMATION
#MNEM.UNIT         DATA                                DESCRIPTION OF MNEMONIC
#------------------------------------------------------------------------------
 STRT.M        124.0500                            :   START DEPTH
 STOP.M        430.1300                            :   STOP DEPTH
 STEP.M          0.0100                            :   STEP VALUE
 NULL.        -999.2500                            :   NULL VALUE
 COMP.    White Young Green                        :   COMPANY NAME
 WELL.    Hawthorn                                 :   WELL NAME
 FLD.     Hawthorn                                 :   FIELD NAME
 LOC.     N/A                                      :   LOCATION
 PROV.    N/A                                      :   PROVINCE
 SRVC.    N/A                                      :   SERVICE COMPANY NAME
 DATE.    05 Oct 05                                :   DATE
 UWI.     N/A                                      :   UNIQUE WELL IDENTIFIER
~PARAMETER INFORMATION
#MNEMO.UNIT         VALUE                 DESCRIPTION OF MNEMONIC
#------------------------------------------------------------------------------
~OTHER INFORMATION SECTION
#------------------------------------------------------------------------------
 TCGS1365
~CURVE INFORMATION
#MNEMO.UNIT         API CODE              CURVE DESCRIPTION
#------------------------------------------------------------------------------
 DEPTH.M                                 :   0     Depth
 TEMP.DegC                               :   1     Temperature
 CN25.mS/cm                              :   2     Conductivity@25DegC
 COND.mS/cm                              :   3     Conductivity
 DELT.DegC                               :   4     Delta T
 DELC.mS/cm                              :   5     Delta C
 NGAM.CPS                                :   6     Natural Gamma
#------------------------------------------------------------------------------
~A  DEPTH     TEMP      CN25      COND      DELT      DELC      NGAM      
# ...
   164.73     12.18      7.95      1.36      0.01     -0.02      2.88 
   164.74     12.18      7.95      1.36      0.01     -0.01      2.47 
   164.75     12.18      7.95      1.36      0.01     -0.01      2.47 
   164.76     12.17      7.96      1.36      0.00     -0.01      2.47 
   164.77     12.17      7.96      1.36     -0.00     -0.00      2.88 
   164.78     12.17      7.96      1.36     -0.00      0.00      2.88 
   164.79     12.17      7.97      1.36     -0.01      0.00      3.29 
   164.80     12.17      7.97      1.36     -0.01      0.01      3.71 
   164.81     12.17      7.97      1.36     -0.01      0.01      3.29 
   164.82     12.16      7.97      1.36     -0.01      0.02      3.29 
   164.83     12.16      7.97      1.36     -0.02      0.02      3.29 
   164.84     12.16      7.97      1.36     -0.02      0.02      3.29 
   164.85     12.16      7.97      1.36     -0.01      0.02      2.47 
   164.86     12.17      7.97      1.36     -0.01      0.02      2.88 
   164.87     12.17      7.97      1.36     -0.01      0.01      3.71 
   164.88     12.17      7.97      1.36     -0.01      0.01      3.71 
   164.89     12.17      7.97      1.36     -0.01      0.01      4.12 
   164.90     12.16      7.97      1.36     -0.01      0.01      3.71 
   164.91     12.16      7.97      1.36     -0.01      0.01      3.71 
   164.92     12.16      7.97      1.36     -0.01      0.02      4.12 
   164.93     12.16      7.97      1.36     -0.01      0.01      4.12 
   164.94     12.16      7.97      1.36     -0.01      0.01      4.12 
   164.95     12.16      7.97      1.36     -0.01      0.01      4.12 
   164.96     12.16      7.97      1.36     -0.01      0.01      3.71 
   164.97     12.17      7.97      1.36     -0.01      0.01      3.29 
   164.98     12.17      7.96      1.36     -0.01      0.01      4.12 
   164.99     12.17      7.96      1.36     -0.01      0.00      4.12 
   165.00     12.17      7.96      1.36     -0.01      0.01      4.12 
   165.01     12.18      7.96      1.36     -0.00      0.00      4.12 
   165.02     12.18      7.95      1.36     -0.00      0.00      4.12 
   165.03     12.18      7.95      1.36     -0.00      0.00      4.12 
   165.04     12.18      7.95      1.36     -0.00      0.00      3.29 
   165.05     12.18      7.96      1.36     -0.01      0.01      2.88 
   165.06     12.18      7.95      1.36     -0.01      0.01      2.88 
   165.07     12.18      7.95      1.36     -0.01      0.01      3.29 
   165.08     12.18      7.95      1.36     -0.01      0.01      3.29 
   165.09     12.18      7.96      1.36     -0.01      0.02      2.88 
   165.10     12.18      7.96      1.36     -0.01      0.02      3.29 
   165.11     12.18      7.96      1.36     -0.01      0.01      3.29 
   165.12     12.18      7.96      1.36     -0.01      0.01      3.29 
   165.13     12.17      7.96      1.36     -0.01      0.01      3.71 
   165.14     12.17      7.96      1.36     -0.01      0.01      3.71 
   165.15     12.17      7.96      1.36     -0.01      0.01      3.29 
   165.16     12.17      7.96      1.36     -0.01      0.01      3.29 
   165.17     12.17      7.97      1.36     -0.01      0.01      3.29 
   165.18     12.17      7.97      1.36     -0.01      0.01      4.12 
   165.19     12.17      7.97      1.36     -0.01      0.00      4.12 
   165.20     12.17      7.96      1.36     -0.00     -0.00      3.29 
   165.21     12.17      7.96      1.36     -0.00     -0.00      3.29 
   165.22     12.17      7.96      1.36     -0.00     -0.00      3.29 
   165.23     12.17      7.96      1.36      0.00     -0.00      3.71 
   165.24     12.17      7.96      1.36      0.00     -0.00      3.71 
   165.25     12.17      7.96      1.36      0.01     -0.01      3.71 
   165.26     12.18      7.96      1.36      0.01     -0.01      4.12 
   165.27     12.18      7.95      1.36      0.01     -0.01      3.71 
   165.28     12.18      7.95      1.36      0.01     -0.01      3.29 
   165.29     12.19      7.95      1.36      0.01     -0.01      3.71 
   165.30     12.19      7.95      1.36      0.01     -0.00      3.29 
   165.31     12.18      7.95      1.36      0.01     -0.00      3.71 
   165.32     12.18      7.95      1.36      0.01     -0.00      3.29 
   165.33     12.18      7.95      1.36      0.01     -0.00      3.29 
   165.34     12.18      7.95      1.36      0.01     -0.01      4.12 
   165.35     12.18      7.95      1.36      0.01     -0.01      3.29 
   165.36     12.18      7.95      1.36      0.01     -0.01      3.29 
   165.37     12.18      7.96      1.36      0.01     -0.01      3.29 
   165.38     12.18      7.96      1.36      0.00     -0.00      3.71 
   165.39     12.17      7.96      1.36      0.00     -0.01      3.71 
   165.40     12.17      7.96      1.36      0.00     -0.01      3.29 
   165.41     12.17      7.96      1.36      0.00     -0.01      3.35 
   165.42     12.17      7.96      1.36     -0.00      0.00      3.76 
   165.43     12.17      7.96      1.36     -0.00      0.00      3.35 
   165.44     12.17      7.96      1.36     -0.01      0.01      3.35 
   165.45     12.17      7.97      1.36     -0.01      0.01      3.76 
   165.46     12.16      7.97      1.36     -0.02      0.02      3.76 
   165.47     12.16      7.97      1.36     -0.02      0.02      3.76 
   165.48     12.16      7.97      1.36     -0.02      0.02      3.35 
   165.49     12.16      7.97      1.36     -0.02      0.02      3.76 
   165.50     12.16      7.98      1.36     -0.02      0.02      3.76 
   165.51     12.16      7.98      1.36     -0.02      0.02      2.94 
   165.52     12.16      7.98      1.36     -0.01      0.02      2.94 
   165.53     12.16      7.98      1.36     -0.01      0.01      2.94 
   165.54     12.16      7.97      1.36     -0.01      0.01      3.76 
   165.55     12.16      7.97      1.36     -0.00      0.00      3.35 
   165.56     12.16      7.97      1.36     -0.00      0.00      3.35 
   165.57     12.16      7.97      1.36     -0.00      0.00      2.94 
   165.58     12.16      7.97      1.36      0.00     -0.00      2.47 
   165.59     12.17      7.97      1.36      0.00     -0.00      2.88 
   165.60     12.17      7.96      1.36      0.00     -0.01      2.88 
   165.61     12.17      7.96      1.36      0.00     -0.01      2.88 
   165.62     12.17      7.96      1.36      0.00     -0.01      2.47 
   165.63     12.17      7.96      1.36      0.00     -0.00      2.06 
   165.64     12.17      7.96      1.36     -0.00     -0.00      2.06 
   165.65     12.17      7.96      1.36     -0.01      0.00      2.47 
   165.66     12.17      7.96      1.36     -0.01      0.01      2.06 
   165.67     12.17      7.96      1.36     -0.01      0.01      2.06 
   165.68     12.17      7.96      1.36     -0.01      0.01      2.47 
   165.69     12.17      7.96      1.36     -0.01      0.01      3.71 
   165.70     12.17      7.96      1.36     -0.01      0.02      3.71 
   165.71     12.17      7.97      1.36     -0.02      0.02      2.88 
   165.72     12.17      7.97      1.36     -0.02      0.02      2.88 
   165.73     12.17      7.97      1.36     -0.01      0.02      3.71 
   165.74     12.17      7.97      1.36     -0.01      0.02      3.71 
   165.75     12.17      7.97      1.36     -0.01      0.01      3.71 
   165.76     12.17      7.97      1.36     -0.00      0.01      2.88 
   165.77     12.17      7.97      1.36      0.00      0.00      2.88 
   165.78     12.17      7.96      1.36      0.00     -0.00      3.29 
   165.79     12.17      7.96      1.36      0.00     -0.00      3.29 
   165.80     12.17      7.96      1.36      0.01     -0.01      3.71 
   165.81     12.17      7.96      1.36      0.01     -0.01      4.12 
   165.82     12.17      7.96      1.36      0.01     -0.01      3.71 
   165.83     12.17      7.96      1.36      0.01     -0.01      4.12 
   165.84     12.17      7.96      1.36      0.01     -0.01      4.47 
   165.85     12.17      7.96      1.36      0.00     -0.01      4.47 
