#Written by Robertson Geologging WinLogger V1.0/370
~VERSION INFORMATION
#------------------------------------------------------------------------------
 VERS. 2.0 : CWLS LOG ASCII STANDARD - VERSION 2.0
 WRAP. NO  : ONE LINE PER DEPTH STEP
~WELL INFORMATION
#MNEM.UNIT         DATA                                DESCRIPTION OF MNEMONIC
#------------------------------------------------------------------------------
 STRT.M        124.0500                            :   START DEPTH
 STOP.M        430.1300                            :   STOP DEPTH
 STEP.M          0.0100                            :   STEP VALUE
 NULL.        -999.2500                            :   NULL VALUE
 COMP.    White Young Green                        :   COMPANY NAME
 WELL.    Hawthorn                                 :   WELL NAME
 FLD.     Hawthorn                                 :   FIELD NAME
 LOC.     N/A                                      :   LOCATION
 PROV.    N/A                                      :   PROVINCE
 SRVC.    N/A                                      :   SERVICE COMPANY NAME
 DATE.    05 Oct 05                                :   DATE
 UWI.     N/A                                      :   UNIQUE WELL IDENTIFIER
~PARAMETER INFORMATION
#MNEMO.UNIT         VALUE                 DESCRIPTION OF MNEMONIC
#------------------------------------------------------------------------------
~OTHER INFORMATION SECTION
#------------------------------------------------------------------------------
 TCGS1365
~CURVE INFORMATION
#MNEMO.UNIT         API CODE              CURVE DESCRIPTION
#------------------------------------------------------------------------------
 DEPTH.M                                 :   0     Depth
 TEMP.DegC                               :   1     Temperature
 CN25.mS/cm                              :   2     Conductivity@25DegC
 COND.mS/cm                              :   3     Conductivity
 DELT.DegC                               :   4     Delta T
 DELC.mS/cm                              :   5     Delta C
 NGAM.CPS                                :   6     Natural Gamma
#------------------------------------------------------------------------------
~A  DEPTH     TEMP      CN25      COND      DELT      DELC      NGAM      
# ...
   327.45     16.66     44.52     35.90      0.22      8.05      3.41 
   327.46     16.67     44.53     35.91      0.22      8.00      3.41 
   327.47     16.67     44.54     35.92      0.22      7.94      3.00 
   327.48     16.67     44.56     35.94      0.22      7.86      3.00 
   327.49     16.67     44.57     35.95      0.21      7.77      3.41 
   327.50     16.67     44.58     35.96      0.21      7.66      3.00 
   327.51     16.67     44.58     35.97      0.21      7.52      2.59 
   327.52     16.68     44.60     35.99      0.21      7.38      2.59 
   327.53     16.68     44.60     36.00      0.21      7.23      3.00 
   327.54     16.69     44.61     36.01      0.21      7.07      3.00 
   327.55     16.69     44.62     36.02      0.21      6.91      3.00 
   327.56     16.69     44.63     36.03      0.21      6.75      3.00 
   327.57     16.69     44.64     36.05      0.22      6.59      3.00 
   327.58     16.69     44.65     36.06      0.22      6.44      3.41 
   327.59     16.70     44.66     36.07      0.22      6.31      3.41 
   327.60     16.70     44.66     36.08      0.22      6.17      2.47 
   327.61     16.70     44.67     36.09      0.22      6.05      2.06 
   327.62     16.70     44.69     36.10      0.22      5.96      2.06 
   327.63     16.70     44.70     36.11      0.22      5.86      2.06 
   327.64     16.70     44.71     36.12      0.22      5.78      2.06 
   327.65     16.70     44.72     36.13      0.22      5.70      2.47 
   327.66     16.70     44.73     36.14      0.21      5.63      2.06 
   327.67     16.71     44.73     36.15      0.21      5.56      2.06 
   327.68     16.71     44.73     36.16      0.21      5.50      2.47 
   327.69     16.71     44.74     36.17      0.22      5.44      2.06 
   327.70     16.71     44.75     36.18      0.21      5.39      1.65 
   327.71     16.71     44.76     36.19      0.21      5.34      1.65 
   327.72     16.71     44.77     36.20      0.21      5.29      1.24 
   327.73     16.71     44.78     36.20      0.21      5.23      1.65 
   327.74     16.71     44.79     36.22      0.21      5.19      1.65 
   327.75     16.72     44.80     36.22      0.20      5.13      1.65 
   327.76     16.72     44.81     36.23      0.20      5.08      1.65 
   327.77     16.72     44.82     36.24      0.20      5.01      2.06 
   327.78     16.72     44.82     36.25      0.20      4.94      2.47 
   327.79     16.72     44.83     36.26      0.20      4.88      2.94 
   327.80     16.72     44.84     36.27      0.20      4.80      2.94 
   327.81     16.73     44.84     36.28      0.21      4.72      2.94 
   327.82     16.73     44.85     36.29      0.21      4.64      2.94 
   327.83     16.73     44.85     36.30      0.21      4.55      3.35 
   327.84     16.73     44.86     36.31      0.21      4.46      3.35 
   327.85     16.73     44.86     36.31      0.21      4.36      2.94 
   327.86     16.74     44.87     36.32      0.21      4.26      2.94 
   327.87     16.74     44.88     36.33      0.21      4.16      2.94 
   327.88     16.74     44.89     36.34      0.21      4.05      3.76 
   327.89     16.74     44.90     36.35      0.20      3.95      3.76 
   327.90     16.74     44.90     36.36      0.20      3.84      3.35 
   327.91     16.74     44.92     36.37      0.20      3.73      3.76 
   327.92     16.74     44.93     36.37      0.20      3.61      3.35 
   327.93     16.74     44.93     36.38      0.20      3.49      3.35 
   327.94     16.75     44.93     36.39      0.20      3.37      2.94 
   327.95     16.75     44.93     36.40      0.20      3.25      2.53 
   327.96     16.75     44.94     36.41      0.20      3.13      2.06 
   327.97     16.76     44.95     36.42      0.21      3.02      2.47 
   327.98     16.76     44.95     36.43      0.21      2.89      2.88 
   327.99     16.76     44.95     36.43      0.21      2.78      2.47 
   328.00     16.76     44.96     36.45      0.21      2.67      2.06 
   328.01     16.77     44.97     36.45      0.21      2.56      2.06 
   328.02     16.77     44.97     36.46      0.21      2.46      2.47 
   328.03     16.77     44.98     36.47      0.21      2.35      2.47 
   328.04     16.77     44.99     36.48      0.21      2.26      2.47 
   328.05     16.77     44.99     36.49      0.21      2.16      1.65 
   328.06     16.77     45.00     36.50      0.21      2.08      1.65 
   328.07     16.77     45.01     36.51      0.20      1.99      1.65 
   328.08     16.77     45.02     36.51      0.20      1.91      1.24 
   328.09     16.77     45.03     36.52      0.19      1.84      1.65 
   328.10     16.78     45.03     36.53      0.19      1.76      1.65 
   328.11     16.78     45.04     36.54      0.19      1.69      1.65 
   328.12     16.78     45.05     36.54      0.19      1.61      1.65 
   328.13     16.78     45.06     36.55      0.18      1.55      1.65 
   328.14     16.78     45.06     36.56      0.18      1.48      1.24 
   328.15     16.78     45.06     36.56      0.18      1.42      0.82 
   328.16     16.78     45.07     36.57      0.18      1.37      0.82 
   328.17     16.78     45.08     36.58      0.18      1.31      1.24 
   328.18     16.78     45.08     36.59      0.18      1.27      1.24 
   328.19     16.79     45.09     36.59      0.18      1.22      0.82 
   328.20     16.79     45.10     36.60      0.18      1.18      1.24 
   328.21     16.79     45.10     36.61      0.18      1.15      1.24 
   328.22     16.79     45.11     36.62      0.18      1.10      1.24 
   328.23     16.79     45.11     36.62      0.17      1.07      1.65 
   328.24     16.79     45.11     36.63      0.17      1.04      1.65 
   328.25     16.80     45.12     36.64      0.17      1.01      2.06 
   328.26     16.80     45.13     36.65      0.17      0.99      2.12 
   328.27     16.80     45.13     36.66      0.17      0.96      2.12 
   328.28     16.80     45.14     36.66      0.17      0.93      2.12 
   328.29     16.80     45.14     36.67      0.17      0.90      2.12 
   328.30     16.81     45.14     36.68      0.18      0.87      2.12 
   328.31     16.81     45.15     36.69      0.18      0.85      2.12 
   328.32     16.81     45.15     36.69      0.18      0.83      2.12 
   328.33     16.82     45.15     36.70      0.18      0.81      2.12 
   328.34     16.82     45.15     36.71      0.18      0.78      2.53 
   328.35     16.82     45.15     36.72      0.18      0.77      2.53 
   328.36     16.83     45.15     36.72      0.18      0.75      2.53 
   328.37     16.83     45.15     36.73      0.18      0.74      2.12 
   328.38     16.83     45.16     36.74      0.18      0.73      2.12 
   328.39     16.84     45.16     36.75      0.18      0.71      2.12 
   328.40     16.84     45.17     36.76      0.18      0.70      1.71 
   328.41     16.84     45.18     36.77      0.18      0.70      1.71 
   328.42     16.84     45.18     36.77      0.18      0.69      1.29 
   328.43     16.84     45.19     36.78      0.18      0.69      1.24 
   328.44     16.84     45.20     36.79      0.18      0.68      1.24 
   328.45     16.84     45.21     36.80      0.18      0.68      2.18 
   328.46     16.84     45.22     36.80      0.18      0.67      2.18 
   328.47     16.84     45.23     36.82      0.18      0.67      2.18 
   328.48     16.85     45.23     36.82      0.18      0.66      2.59 
   328.49     16.85     45.23     36.82      0.18      0.65      3.00 
   328.50     16.85     45.24     36.83      0.18      0.65      3.82 
   328.51     16.85     45.24     36.84      0.17      0.64      3.00 
   328.52     16.86     45.24     36.85      0.17      0.64      3.00 
   328.53     16.86     45.24     36.85      0.17      0.63      3.47 
   328.54     16.86     45.24     36.86      0.18      0.62      3.88 
   328.55     16.87     45.24     36.87      0.18      0.62      3.88 
   328.56     16.87     45.24     36.88      0.18      0.61      4.29 
   328.57     16.87     45.25     36.89      0.18      0.60      4.29 
