#Written by Robertson Geologging WinLogger V1.0/370
~VERSION INFORMATION
#------------------------------------------------------------------------------
 VERS. 2.0 : CWLS LOG ASCII STANDARD - VERSION 2.0
 WRAP. NO  : ONE LINE PER DEPTH STEP
~WELL INFORMATION
#MNEM.UNIT         DATA                                DESCRIPTION OF MNEMONIC
#------------------------------------------------------------------------------
 STRT.M        124.0500                            :   START DEPTH
 STOP.M        430.1300                            :   STOP DEPTH
 STEP.M          0.0100                            :   STEP VALUE
 NULL.        -999.2500                            :   NULL VALUE
 COMP.    White Young Green                        :   COMPANY NAME
 WELL.    Hawthorn                                 :   WELL NAME
 FLD.     Hawthorn                                 :   FIELD NAME
 LOC.     N/A                                      :   LOCATION
 PROV.    N/A                                      :   PROVINCE
 SRVC.    N/A                                      :   SERVICE COMPANY NAME
 DATE.    05 Oct 05                                :   DATE
 UWI.     N/A                                      :   UNIQUE WELL IDENTIFIER
~PARAMETER INFORMATION
#MNEMO.UNIT         VALUE                 DESCRIPTION OF MNEMONIC
#------------------------------------------------------------------------------
~OTHER INFORMATION SECTION
#------------------------------------------------------------------------------
 TCGS1365
~CURVE INFORMATION
#MNEMO.UNIT         API CODE              CURVE DESCRIPTION
#------------------------------------------------------------------------------
 DEPTH.M                                 :   0     Depth
 TEMP.DegC                               :   1     Temperature
 CN25.mS/cm                              :   2     Conductivity@25DegC
 COND.mS/cm                              :   3     Conductivity
 DELT.DegC                               :   4     Delta T
 DELC.mS/cm                              :   5     Delta C
 NGAM.CPS                                :   6     Natural Gamma
#------------------------------------------------------------------------------
~A  DEPTH     TEMP      CN25      COND      DELT      DELC      NGAM      
# ...
   429.15     18.90     86.99     77.39      0.00      0.12      6.24 
   429.16     18.90     87.00     77.39      0.00      0.12      5.41 
   429.17     18.90     87.00     77.40      0.00      0.13      5.00 
   429.18     18.90     87.00     77.40      0.00      0.13      5.06 
   429.19     18.90     87.00     77.39      0.00      0.12      5.06 
   429.20     18.90     87.00     77.40      0.00      0.12      5.06 
   429.21     18.90     86.99     77.40      0.00      0.11      4.24 
   429.22     18.91     86.99     77.40      0.01      0.11      4.24 
   429.23     18.91     86.99     77.41      0.01      0.12      4.24 
   429.24     18.91     86.99     77.41      0.01      0.11      3.82 
   429.25     18.91     86.99     77.41      0.01      0.11      4.65 
   429.26     18.91     86.98     77.41      0.01      0.11      4.65 
   429.27     18.91     86.98     77.41      0.01      0.10      4.24 
   429.28     18.92     86.97     77.41      0.02      0.08      4.29 
   429.29     18.92     86.97     77.41      0.02      0.08      4.29 
   429.30     18.92     86.97     77.42      0.02      0.08      3.88 
   429.31     18.92     86.97     77.41      0.02      0.08      3.53 
   429.32     18.92     86.98     77.42      0.02      0.08      3.12 
   429.33     18.92     86.98     77.42      0.02      0.07      3.53 
   429.34     18.92     86.97     77.42      0.02      0.06      3.12 
   429.35     18.92     86.97     77.42      0.03      0.06      3.41 
   429.36     18.92     86.96     77.42      0.03      0.04      3.41 
   429.37     18.92     86.97     77.42      0.03      0.04      2.35 
   429.38     18.92     86.97     77.42      0.03      0.04      3.18 
   429.39     18.92     86.97     77.43      0.03      0.04      3.18 
   429.40     18.92     86.97     77.42      0.03      0.04      3.18 
   429.41     18.92     86.96     77.42      0.03      0.04      3.59 
   429.42     18.92     86.97     77.42      0.03      0.05      3.18 
   429.43     18.92     86.97     77.43      0.02      0.05      3.18 
   429.44     18.92     86.97     77.43      0.02      0.06      3.18 
   429.45     18.92     86.98     77.43      0.02      0.07      2.76 
   429.46     18.92     86.99     77.43      0.01      0.08      2.76 
   429.47     18.91     87.00     77.43      0.01      0.11      3.18 
   429.48     18.91     87.01     77.43      0.00      0.13      3.18 
   429.49     18.91     87.03     77.43     -0.00      0.14      3.18 
   429.50     18.90     87.04     77.43     -0.01      0.15      2.76 
   429.51     18.90     87.05     77.44     -0.01      0.16      3.18 
   429.52     18.90     87.06     77.44     -0.01      0.16      2.47 
   429.53     18.90     87.06     77.44     -0.01      0.16      2.47 
   429.54     18.90     87.07     77.44     -0.01      0.18      2.47 
   429.55     18.90     87.08     77.44     -0.01      0.19      1.65 
   429.56     18.90     87.08     77.45     -0.01      0.19      2.06 
   429.57     18.90     87.07     77.45     -0.01      0.17      2.88 
   429.58     18.90     87.07     77.45     -0.00      0.15      2.47 
   429.59     18.90     87.06     77.45      0.00      0.14      2.47 
   429.60     18.90     87.06     77.45      0.00      0.13      2.47 
   429.61     18.90     87.06     77.45      0.00      0.13      2.47 
   429.62     18.91     87.05     77.45      0.00      0.13      2.88 
   429.63     18.91     87.04     77.46      0.01      0.13      2.88 
   429.64     18.92     87.03     77.46      0.01      0.11      2.47 
   429.65     18.92     87.02     77.46      0.01      0.09      2.47 
   429.66     18.92     87.01     77.46      0.02      0.08      2.47 
   429.67     18.92     87.01     77.46      0.02      0.08      2.47 
   429.68     18.92     87.01     77.46      0.02      0.08      2.06 
   429.69     18.92     87.02     77.46      0.01      0.09      2.06 
   429.70     18.92     87.02     77.46      0.01      0.09      2.06 
   429.71     18.92     87.01     77.46      0.02      0.08      2.06 
   429.72     18.92     87.02     77.46      0.02      0.08      2.06 
   429.73     18.92     87.02     77.45      0.02      0.06      1.65 
   429.74     18.91     87.03     77.46      0.02      0.07      0.82 
   429.75     18.91     87.04     77.46      0.01      0.09      0.82 
   429.76     18.91     87.05     77.46      0.01      0.10      0.41 
   429.77     18.91     87.04     77.46      0.01      0.10      0.41 
   429.78     18.91     87.04     77.46      0.01      0.11      0.41 
   429.79     18.91     87.04     77.46      0.01      0.10      0.00 
   429.80     18.92     87.03     77.47      0.01      0.09      0.00 
   429.81     18.92     87.03     77.46      0.01      0.10      0.00 
   429.82     18.92     87.04     77.47      0.01      0.11      0.00 
   429.83     18.92     87.04     77.47      0.00      0.11      0.41 
   429.84     18.91     87.04     77.47      0.00      0.13      0.41 
   429.85     18.92     87.04     77.47      0.00      0.12      0.41 
   429.86     18.92     87.04     77.47      0.01      0.11      0.82 
   429.87     18.92     87.04     77.47      0.01      0.11      1.24 
   429.88     18.92     87.04     77.47      0.01      0.10      1.24 
   429.89     18.92     87.03     77.47      0.01      0.09      1.24 
   429.90     18.92     87.04     77.48      0.01      0.10      1.24 
   429.91     18.92     87.04     77.48      0.01      0.10      1.24 
   429.92     18.92     87.04     77.48      0.01      0.09      2.06 
   429.93     18.92     87.04     77.48      0.01      0.07      2.06 
   429.94     18.92     87.04     77.48      0.01      0.08      2.06 
   429.95     18.92     87.04     77.48      0.02      0.08      2.41 
   429.96     18.92     87.04     77.48      0.01      0.08      2.82 
   429.97     18.92     87.03     77.48      0.01      0.08      3.24 
   429.98     18.92     87.02     77.48      0.02      0.06      3.94 
   429.99     18.93     87.02     77.48      0.02      0.05      3.94 
   430.00     18.93     87.02     77.48      0.02      0.06      3.53 
   430.01     18.93     87.02     77.48      0.02      0.06      4.59 
   430.02     18.93     87.02     77.48      0.02      0.06      4.59 
   430.03     18.93     87.02     77.48      0.01      0.07      4.18 
   430.04     18.93     87.01     77.48      0.02      0.07      3.76 
   430.05     18.93     87.00     77.49      0.02      0.06      3.76 
   430.06     18.94     86.99     77.49      0.02      0.05      3.76 
   430.07     18.94     86.99     77.48      0.02      0.04      3.76 
   430.08     18.93     87.00     77.49      0.02      0.05      4.18 
   430.09     18.93     87.02     77.49      0.02      0.06      3.35 
   430.10     18.93     87.03     77.49      0.02      0.07      3.76 
   430.11     18.93     87.04     77.49      0.02      0.07      4.12 
   430.12     18.92     87.03     77.49      0.02      0.06      3.76 
   430.13     18.93     87.04     77.50      0.02      0.05      4.06 
