#Written by Robertson Geologging WinLogger V1.0/370
~VERSION INFORMATION
#------------------------------------------------------------------------------
 VERS. 2.0 : CWLS LOG ASCII STANDARD - VERSION 2.0
 WRAP. NO  : ONE LINE PER DEPTH STEP
~WELL INFORMATION
#MNEM.UNIT         DATA                                DESCRIPTION OF MNEMONIC
#------------------------------------------------------------------------------
 STRT.M         73.4200                            :   START DEPTH
 STOP.M        406.0200                            :   STOP DEPTH
 STEP.M          0.0100                            :   STEP VALUE
 NULL.        -999.2500                            :   NULL VALUE
 COMP.    WHITE YOUN GREEN                         :   COMPANY NAME
 WELL.    HORDEN SHAFT                             :   WELL NAME
 FLD.     HORDEN                                   :   FIELD NAME
 LOC.     N/A                                      :   LOCATION
 PROV.    N/A                                      :   PROVINCE
 SRVC.    N/A                                      :   SERVICE COMPANY NAME
 DATE.    12 Dec 06                                :   DATE
 UWI.     N/A                                      :   UNIQUE WELL IDENTIFIER
~PARAMETER INFORMATION
#MNEMO.UNIT         VALUE                 DESCRIPTION OF MNEMONIC
#------------------------------------------------------------------------------
~OTHER INFORMATION SECTION
#------------------------------------------------------------------------------
 lLOGGING DOWN
~CURVE INFORMATION
#MNEMO.UNIT         API CODE              CURVE DESCRIPTION
#------------------------------------------------------------------------------
 DEPTH.M                                 :   0     Depth
 TEMP.DegC                               :   1     Temperature
 CN25.mS/cm                              :   2     Conductivity@25DegC
 COND.mS/cm                              :   3     Conductivity
 DELT.DegC                               :   4     Delta T
 DELC.mS/cm                              :   5     Delta C
 NGAM.CPS                                :   6     Natural Gamma
#------------------------------------------------------------------------------
~A  DEPTH     TEMP      CN25      COND      DELT      DELC      NGAM      
# ...
   117.49     16.26     48.65     38.58      0.00     -0.01      1.47 
   117.50     16.26     48.65     38.58      0.00     -0.01      1.53 
   117.51     16.26     48.65     38.59      0.00     -0.02      1.53 
   117.52     16.26     48.65     38.59      0.00     -0.02      1.12 
   117.53     16.26     48.64     38.59      0.01     -0.02      1.12 
   117.54     16.26     48.64     38.59      0.01     -0.02      1.12 
   117.55     16.26     48.64     38.59      0.01     -0.02      1.12 
   117.56     16.26     48.64     38.59      0.01     -0.02      1.12 
   117.57     16.26     48.64     38.59      0.01     -0.02      1.53 
   117.58     16.26     48.65     38.59      0.01     -0.01      1.88 
   117.59     16.26     48.65     38.59      0.01     -0.01      1.88 
   117.60     16.26     48.65     38.59      0.00     -0.00      1.53 
   117.61     16.26     48.66     38.59      0.00     -0.00      1.53 
   117.62     16.26     48.66     38.59      0.00      0.01      1.53 
   117.63     16.25     48.67     38.59     -0.00      0.01      1.53 
   117.64     16.25     48.67     38.59     -0.00      0.01      1.18 
   117.65     16.25     48.67     38.59     -0.01      0.03      1.18 
   117.66     16.25     48.68     38.59     -0.01      0.03      1.53 
   117.67     16.25     48.68     38.59     -0.01      0.03      1.12 
   117.68     16.25     48.68     38.59     -0.01      0.02      1.12 
   117.69     16.25     48.68     38.59     -0.01      0.02      1.12 
   117.70     16.25     48.68     38.59     -0.00      0.02      1.47 
   117.71     16.25     48.68     38.59     -0.00      0.02      1.47 
   117.72     16.25     48.68     38.59     -0.00      0.02      2.18 
   117.73     16.25     48.67     38.59      0.00      0.01      2.18 
   117.74     16.25     48.67     38.59      0.00      0.01      1.76 
   117.75     16.25     48.66     38.59      0.00      0.01      1.41 
   117.76     16.26     48.66     38.59      0.00      0.01      1.41 
   117.77     16.26     48.66     38.59      0.00      0.01      1.41 
   117.78     16.26     48.66     38.59      0.00      0.00      1.41 
   117.79     16.26     48.66     38.59      0.00      0.01      1.41 
   117.80     16.26     48.66     38.59      0.01      0.01      1.41 
   117.81     16.26     48.65     38.59      0.01      0.01      1.41 
   117.82     16.26     48.65     38.59      0.00      0.01      1.41 
   117.83     16.26     48.65     38.59      0.00      0.00      1.06 
   117.84     16.26     48.65     38.59      0.01      0.01      1.06 
   117.85     16.26     48.65     38.59      0.01      0.00      1.06 
   117.86     16.26     48.66     38.59      0.01      0.00      1.06 
   117.87     16.26     48.65     38.59      0.01     -0.00      0.71 
   117.88     16.26     48.66     38.59      0.01      0.00      0.71 
   117.89     16.26     48.66     38.59      0.01      0.00      0.00 
   117.90     16.26     48.66     38.59      0.01      0.00      0.00 
   117.91     16.26     48.66     38.59      0.00      0.01      0.82 
   117.92     16.26     48.66     38.59      0.00      0.01      0.82 
   117.93     16.26     48.66     38.59      0.01      0.01      0.82 
   117.94     16.26     48.66     38.59      0.01      0.01      0.82 
   117.95     16.26     48.66     38.59      0.01      0.01      1.24 
   117.96     16.26     48.66     38.59      0.01      0.01      1.24 
   117.97     16.26     48.66     38.59      0.01      0.01      1.24 
   117.98     16.26     48.66     38.59      0.00      0.01      1.24 
   117.99     16.26     48.66     38.59      0.01      0.00      1.24 
   118.00     16.26     48.65     38.59      0.01     -0.00      1.24 
   118.01     16.26     48.65     38.59      0.01     -0.01      1.24 
   118.02     16.26     48.65     38.59      0.01     -0.01      1.24 
   118.03     16.26     48.65     38.59      0.01     -0.01      1.24 
   118.04     16.26     48.65     38.59      0.01     -0.01      1.24 
   118.05     16.26     48.64     38.59      0.01     -0.01      1.24 
   118.06     16.26     48.64     38.59      0.01     -0.02      1.24 
   118.07     16.26     48.64     38.59      0.01     -0.02      1.24 
   118.08     16.26     48.64     38.59      0.01     -0.01      0.82 
   118.09     16.26     48.65     38.59      0.01     -0.01      0.82 
   118.10     16.26     48.65     38.59      0.01     -0.01      1.18 
   118.11     16.26     48.65     38.59      0.01     -0.01      1.18 
   118.12     16.26     48.65     38.59      0.01     -0.01      0.76 
   118.13     16.26     48.65     38.59      0.01     -0.00      0.76 
   118.14     16.26     48.65     38.59      0.00     -0.00      0.76 
   118.15     16.26     48.65     38.59      0.01     -0.00      0.76 
   118.16     16.26     48.65     38.59      0.01     -0.00      0.76 
   118.17     16.26     48.66     38.59      0.01     -0.01      0.76 
   118.18     16.26     48.65     38.59      0.01     -0.01      0.76 
   118.19     16.26     48.65     38.59      0.01     -0.02      1.12 
   118.20     16.26     48.65     38.59      0.01     -0.01      1.12 
   118.21     16.26     48.65     38.59      0.01     -0.01      1.82 
   118.22     16.26     48.66     38.59      0.01     -0.01      1.82 
   118.23     16.26     48.66     38.59      0.01     -0.00      1.82 
   118.24     16.26     48.66     38.59      0.00     -0.01      1.82 
   118.25     16.26     48.65     38.59      0.01     -0.01      1.76 
   118.26     16.26     48.65     38.59      0.01     -0.01      1.76 
   118.27     16.26     48.65     38.59      0.01     -0.01      2.24 
   118.28     16.26     48.65     38.59      0.01     -0.01      2.59 
   118.29     16.26     48.65     38.59      0.00     -0.00      2.59 
   118.30     16.26     48.65     38.59      0.00      0.00      2.94 
   118.31     16.26     48.65     38.59      0.00     -0.00      3.35 
   118.32     16.26     48.65     38.59      0.01     -0.01      3.35 
   118.33     16.26     48.64     38.59      0.01     -0.01      3.35 
   118.34     16.26     48.64     38.59      0.01     -0.02      3.35 
   118.35     16.26     48.64     38.59      0.01     -0.03      3.35 
   118.36     16.26     48.64     38.59      0.01     -0.02      3.00 
   118.37     16.26     48.65     38.59      0.01     -0.02      3.00 
   118.38     16.26     48.66     38.59      0.01     -0.01      2.29 
   118.39     16.26     48.66     38.59      0.00     -0.00      2.29 
   118.40     16.26     48.66     38.59      0.01     -0.01      2.29 
   118.41     16.26     48.66     38.59      0.01     -0.01      2.29 
   118.42     16.26     48.66     38.59      0.01     -0.01      2.35 
   118.43     16.26     48.65     38.59      0.01     -0.01      2.35 
   118.44     16.26     48.66     38.59      0.00     -0.00      1.53 
   118.45     16.26     48.65     38.59      0.00     -0.00      2.00 
   118.46     16.26     48.65     38.59      0.00      0.00      2.00 
   118.47     16.26     48.65     38.59      0.00     -0.00      2.00 
   118.48     16.26     48.65     38.59      0.00     -0.00      1.59 
   118.49     16.26     48.65     38.59      0.01     -0.01      1.59 
   118.50     16.26     48.64     38.59      0.01     -0.01      1.59 
   118.51     16.26     48.64     38.59      0.00     -0.00      1.59 
   118.52     16.26     48.65     38.59     -0.00      0.00      1.59 
   118.53     16.26     48.65     38.59     -0.00      0.01      1.59 
   118.54     16.26     48.65     38.59     -0.01      0.01      1.59 
   118.55     16.26     48.65     38.58     -0.01      0.01      1.59 
   118.56     16.26     48.66     38.59     -0.01      0.01      2.00 
   118.57     16.26     48.66     38.59     -0.01      0.01      2.00 
   118.58     16.26     48.66     38.59     -0.01      0.01      2.00 
   118.59     16.26     48.66     38.59     -0.00      0.00      1.59 
   118.60     16.26     48.65     38.59     -0.00     -0.00      1.59 
   118.61     16.26     48.65     38.59      0.00     -0.01      1.59 
