#Written by Robertson Geologging WinLogger V1.0/312
~VERSION INFORMATION
#------------------------------------------------------------------------------
 VERS. 2.0 : CWLS LOG ASCII STANDARD - VERSION 2.0
 WRAP. NO  : ONE LINE PER DEPTH STEP
~WELL INFORMATION
#MNEM.UNIT         DATA                                DESCRIPTION OF MNEMONIC
#------------------------------------------------------------------------------
 STRT.M         75.1000                            :   START DEPTH
 STOP.M        380.0000                            :   STOP DEPTH
 STEP.M          0.1000                            :   STEP VALUE
 NULL.        -999.2500                            :   NULL VALUE
 COMP.    I.M.C.                                   :   COMPANY NAME
 WELL.    South shaft                              :   WELL NAME
 FLD.     Hordon                                   :   FIELD NAME
 LOC.     N/A                                      :   LOCATION
 PROV.    N/A                                      :   PROVINCE
 SRVC.    N/A                                      :   SERVICE COMPANY NAME
 DATE.    05 Jan 04                                :   DATE
 UWI.     N/A                                      :   UNIQUE WELL IDENTIFIER
~PARAMETER INFORMATION
#MNEMO.UNIT         VALUE                 DESCRIPTION OF MNEMONIC
#------------------------------------------------------------------------------
~OTHER INFORMATION SECTION
#------------------------------------------------------------------------------
 TCGS ex range 1365
~CURVE INFORMATION
#MNEMO.UNIT         API CODE              CURVE DESCRIPTION
#------------------------------------------------------------------------------
 DEPTH.M                                 :   0     Depth
 COND.mS/cm                              :   1     Conductivity
 TEMP.DegC                               :   2     Temperature
 C@25.mS/cm                              :   3     Conductivity @25Deg
 DELT.DegC                               :   4     Delta T
 DC@25.mS/cm                             :   5     Delta C @25Deg
 OUT4.CPS                                :   6     Natural Gamma
#------------------------------------------------------------------------------
~A  DEPTH     COND      TEMP      C@25      DELT      DC@25     OUT4      
# ...
    97.70      7.94     13.48     15.15      0.01     -0.00      1.76 
    97.80      7.94     13.48     15.16      0.00     -0.00      1.76 
    97.90      7.94     13.48     15.15      0.01     -0.01      2.29 
    98.00      7.94     13.47     15.16      0.00      0.01      0.94 
    98.10      7.94     13.47     15.16      0.00      0.00      1.29 
    98.20      7.95     13.47     15.17     -0.00      0.01      1.24 
    98.30      7.94     13.47     15.16      0.00      0.00      0.41 
    98.40      7.94     13.47     15.16      0.00      0.00      0.47 
    98.50      7.94     13.47     15.16      0.01      0.00      0.82 
    98.60      7.94     13.47     15.17      0.00     -0.00      1.76 
    98.70      7.94     13.48     15.16     -0.00      0.01      2.29 
    98.80      7.94     13.47     15.17     -0.01      0.01      1.35 
    98.90      7.95     13.47     15.17     -0.01      0.02      0.00 
    99.00      7.95     13.47     15.16      0.00      0.01      0.00 
    99.10      7.95     13.48     15.16      0.01     -0.00      1.35 
    99.20      7.94     13.47     15.17      0.00     -0.00      0.88 
    99.30      7.95     13.47     15.17     -0.00      0.01      0.47 
    99.40      7.94     13.47     15.16      0.00     -0.00      1.35 
    99.50      7.95     13.47     15.17     -0.00      0.01      0.82 
    99.60      7.95     13.47     15.17     -0.01      0.01      0.82 
    99.70      7.95     13.46     15.18     -0.01      0.02      0.41 
    99.80      7.95     13.47     15.17     -0.00      0.00      2.24 
    99.90      7.95     13.46     15.18     -0.01      0.01      1.76 
   100.00      7.95     13.47     15.18     -0.00      0.01      2.59 
   100.10      7.95     13.47     15.18     -0.01      0.02      2.18 
   100.20      7.95     13.48     15.17      0.01     -0.00      0.88 
   100.30      7.95     13.47     15.18     -0.01      0.01      1.76 
   100.40      7.95     13.47     15.17      0.00      0.00      0.41 
   100.50      7.95     13.46     15.18     -0.01      0.01      0.88 
   100.60      7.95     13.47     15.18      0.00      0.00      0.00 
   100.70      7.95     13.47     15.18      0.00     -0.00      0.47 
   100.80      7.95     13.47     15.17      0.01     -0.01      0.47 
   100.90      7.95     13.47     15.18      0.00      0.01      0.41 
   101.00      7.95     13.46     15.19     -0.01      0.01      0.94 
   101.10      7.95     13.47     15.17      0.01     -0.00      3.18 
   101.20      7.95     13.47     15.18     -0.01      0.01      1.35 
   101.30      7.95     13.46     15.19     -0.01      0.01      1.35 
   101.40      7.95     13.46     15.19     -0.01      0.02      1.35 
   101.50      7.95     13.48     15.17      0.01     -0.01      0.47 
   101.60      7.95     13.46     15.19     -0.00      0.01      1.88 
   101.70      7.95     13.48     15.17      0.01     -0.01      1.35 
   101.80      7.95     13.48     15.17      0.00      0.00      0.82 
   101.90      7.95     13.47     15.18      0.00     -0.00      0.82 
   102.00      7.95     13.47     15.18      0.01     -0.01      0.41 
   102.10      7.96     13.47     15.18     -0.00      0.01      2.29 
   102.20      7.95     13.48     15.17      0.01     -0.01      4.94 
   102.30      7.96     13.48     15.17      0.02     -0.02      2.12 
   102.40      7.96     13.47     15.18      0.01     -0.01      0.94 
   102.50      7.95     13.48     15.17      0.00      0.00      0.94 
   102.60      7.96     13.47     15.18      0.01     -0.01      0.41 
   102.70      7.95     13.48     15.17      0.00     -0.00      1.35 
   102.80      7.95     13.47     15.17     -0.01      0.00      0.47 
   102.90      7.96     13.47     15.18      0.00     -0.00      1.82 
   103.00      7.95     13.47     15.18     -0.00      0.00      1.76 
   103.10      7.96     13.47     15.18      0.00      0.00      1.24 
   103.20      7.95     13.47     15.18     -0.01      0.01      1.29 
   103.30      7.96     13.46     15.19     -0.01      0.02      1.29 
   103.40      7.95     13.48     15.17      0.01     -0.01      1.65 
   103.50      7.96     13.47     15.18     -0.00      0.01      0.88 
   103.60      7.96     13.47     15.18      0.00     -0.00      1.88 
   103.70      7.95     13.47     15.18     -0.01      0.01      2.24 
   103.80      7.95     13.47     15.17      0.00     -0.01      1.29 
   103.90      7.96     13.47     15.18     -0.00      0.00      0.88 
   104.00      7.96     13.46     15.19     -0.01      0.01      0.47 
   104.10      7.96     13.46     15.19     -0.01      0.02      0.47 
   104.20      7.96     13.47     15.19     -0.00      0.00      1.35 
   104.30      7.95     13.48     15.17      0.02     -0.03      0.88 
   104.40      7.95     13.47     15.18     -0.01      0.01      0.00 
   104.50      7.96     13.47     15.18     -0.00      0.00      1.29 
   104.60      7.96     13.47     15.19     -0.01      0.01      0.88 
   104.70      7.96     13.47     15.18     -0.00      0.00      0.00 
   104.80      7.96     13.48     15.18      0.00      0.00      1.35 
   104.90      7.96     13.48     15.17      0.01     -0.01      1.35 
   105.00      7.96     13.48     15.18      0.01     -0.01      0.88 
   105.10      7.96     13.47     15.18      0.01     -0.01      1.35 
   105.20      7.96     13.47     15.18      0.00      0.00      1.41 
   105.30      7.96     13.47     15.18     -0.01      0.01      0.00 
   105.40      7.96     13.47     15.18      0.01     -0.01      0.94 
   105.50      7.96     13.48     15.18      0.01     -0.01      0.94 
   105.60      7.96     13.47     15.18      0.01     -0.01      1.29 
   105.70      7.96     13.47     15.18     -0.00     -0.00      1.29 
   105.80      7.96     13.47     15.18     -0.00     -0.00      0.88 
   105.90      7.96     13.47     15.19     -0.01      0.02      0.82 
   106.00      7.96     13.48     15.18      0.00     -0.00      0.88 
   106.10      7.96     13.47     15.18     -0.00      0.01      0.47 
   106.20      7.96     13.47     15.18     -0.00      0.00      0.88 
   106.30      7.96     13.48     15.18      0.00      0.00      1.29 
   106.40      7.96     13.48     15.18      0.00     -0.01      1.71 
   106.50      7.96     13.48     15.18     -0.00      0.00      1.24 
   106.60      7.96     13.48     15.18      0.00     -0.00      1.24 
   106.70      7.96     13.48     15.17      0.01     -0.01      0.41 
   106.80      7.96     13.48     15.17      0.00      0.00      0.41 
   106.90      7.96     13.47     15.19     -0.00      0.00      1.76 
   107.00      7.96     13.48     15.18      0.00      0.00      1.82 
   107.10      7.96     13.47     15.18      0.00     -0.00      1.41 
   107.20      7.96     13.48     15.18      0.00     -0.01      0.94 
   107.30      7.96     13.48     15.18      0.00     -0.00      0.47 
   107.40      7.96     13.48     15.17      0.00     -0.00      2.35 
   107.50      7.96     13.49     15.17      0.01     -0.01      1.76 
   107.60      7.96     13.47     15.18     -0.01      0.01      1.35 
   107.70      7.96     13.47     15.19     -0.01      0.01      1.76 
   107.80      7.96     13.48     15.18     -0.00     -0.00      0.88 
   107.90      7.96     13.47     15.18      0.01     -0.01      1.88 
   108.00      7.96     13.47     15.19     -0.00      0.00      2.24 
   108.10      7.96     13.48     15.17      0.01     -0.01      1.29 
   108.20      7.96     13.48     15.17      0.01     -0.01      1.35 
   108.30      7.96     13.47     15.18     -0.00      0.01      1.35 
   108.40      7.96     13.48     15.18     -0.00      0.01      0.41 
   108.50      7.96     13.47     15.19     -0.02      0.02      1.29 
   108.60      7.96     13.48     15.17      0.01     -0.02      0.41 
   108.70      7.96     13.48     15.17      0.01     -0.01      0.82 
   108.80      7.96     13.49     15.17      0.01     -0.01      0.82 
   108.90      7.96     13.47     15.19      0.00     -0.00      1.29 
