#Written by Robertson Geologging WinLogger V1.0/370
~VERSION INFORMATION
#------------------------------------------------------------------------------
 VERS. 2.0 : CWLS LOG ASCII STANDARD - VERSION 2.0
 WRAP. NO  : ONE LINE PER DEPTH STEP
~WELL INFORMATION
#MNEM.UNIT         DATA                                DESCRIPTION OF MNEMONIC
#------------------------------------------------------------------------------
 STRT.M         73.4200                            :   START DEPTH
 STOP.M        406.0200                            :   STOP DEPTH
 STEP.M          0.0100                            :   STEP VALUE
 NULL.        -999.2500                            :   NULL VALUE
 COMP.    WHITE YOUN GREEN                         :   COMPANY NAME
 WELL.    HORDEN SHAFT                             :   WELL NAME
 FLD.     HORDEN                                   :   FIELD NAME
 LOC.     N/A                                      :   LOCATION
 PROV.    N/A                                      :   PROVINCE
 SRVC.    N/A                                      :   SERVICE COMPANY NAME
 DATE.    12 Dec 06                                :   DATE
 UWI.     N/A                                      :   UNIQUE WELL IDENTIFIER
~PARAMETER INFORMATION
#MNEMO.UNIT         VALUE                 DESCRIPTION OF MNEMONIC
#------------------------------------------------------------------------------
~OTHER INFORMATION SECTION
#------------------------------------------------------------------------------
 lLOGGING DOWN
~CURVE INFORMATION
#MNEMO.UNIT         API CODE              CURVE DESCRIPTION
#------------------------------------------------------------------------------
 DEPTH.M                                 :   0     Depth
 TEMP.DegC                               :   1     Temperature
 CN25.mS/cm                              :   2     Conductivity@25DegC
 COND.mS/cm                              :   3     Conductivity
 DELT.DegC                               :   4     Delta T
 DELC.mS/cm                              :   5     Delta C
 NGAM.CPS                                :   6     Natural Gamma
#------------------------------------------------------------------------------
~A  DEPTH     TEMP      CN25      COND      DELT      DELC      NGAM      
# ...
   272.30     18.06     78.64     67.87     -0.02      0.13     10.65 
   272.31     18.07     78.63     67.87     -0.01      0.11     10.29 
   272.32     18.07     78.63     67.87     -0.01      0.10     10.65 
   272.33     18.07     78.63     67.87     -0.01      0.10     10.24 
   272.34     18.07     78.64     67.87     -0.01      0.10     11.06 
   272.35     18.06     78.64     67.87     -0.01      0.09      9.82 
   272.36     18.07     78.63     67.87     -0.01      0.09     10.65 
   272.37     18.07     78.62     67.86     -0.01      0.09     10.18 
   272.38     18.07     78.62     67.87     -0.01      0.09      9.76 
   272.39     18.07     78.62     67.87     -0.02      0.10      9.76 
   272.40     18.07     78.63     67.87     -0.02      0.11      8.94 
   272.41     18.07     78.63     67.87     -0.02      0.12      8.88 
   272.42     18.07     78.63     67.87     -0.02      0.12      8.47 
   272.43     18.07     78.63     67.87     -0.02      0.11      8.88 
   272.44     18.07     78.63     67.87     -0.02      0.10      8.47 
   272.45     18.07     78.63     67.87     -0.01      0.10      6.82 
   272.46     18.07     78.64     67.87     -0.01      0.09      6.35 
   272.47     18.06     78.65     67.87     -0.02      0.11      6.35 
   272.48     18.06     78.66     67.87     -0.02      0.11      6.35 
   272.49     18.05     78.67     67.87     -0.02      0.11      6.00 
   272.50     18.05     78.68     67.88     -0.02      0.11      6.41 
   272.51     18.05     78.68     67.87     -0.02      0.10      7.06 
   272.52     18.05     78.68     67.87     -0.02      0.11      6.65 
   272.53     18.05     78.69     67.87     -0.02      0.12      5.41 
   272.54     18.05     78.70     67.87     -0.03      0.13      5.06 
   272.55     18.05     78.70     67.88     -0.03      0.13      5.06 
   272.56     18.05     78.69     67.87     -0.03      0.13      4.65 
   272.57     18.05     78.69     67.88     -0.03      0.14      5.06 
   272.58     18.05     78.68     67.87     -0.03      0.12      5.53 
   272.59     18.05     78.68     67.88     -0.03      0.12      5.12 
   272.60     18.05     78.68     67.88     -0.03      0.12      4.29 
   272.61     18.05     78.67     67.87     -0.03      0.12      5.12 
   272.62     18.05     78.68     67.88     -0.02      0.12      5.12 
   272.63     18.05     78.68     67.87     -0.03      0.12      5.18 
   272.64     18.05     78.68     67.88     -0.03      0.13      5.18 
   272.65     18.05     78.68     67.87     -0.03      0.11      5.53 
   272.66     18.05     78.69     67.87     -0.03      0.12      5.53 
   272.67     18.05     78.69     67.88     -0.03      0.12      5.53 
   272.68     18.05     78.69     67.87     -0.03      0.12      4.88 
   272.69     18.05     78.69     67.87     -0.03      0.12      5.29 
   272.70     18.05     78.68     67.87     -0.03      0.12      4.88 
   272.71     18.05     78.68     67.87     -0.03      0.12      4.88 
   272.72     18.05     78.68     67.87     -0.02      0.11      4.88 
   272.73     18.05     78.68     67.87     -0.02      0.11      4.88 
   272.74     18.05     78.68     67.87     -0.02      0.10      4.88 
   272.75     18.05     78.67     67.87     -0.02      0.09      4.06 
   272.76     18.05     78.67     67.87     -0.02      0.10      4.06 
   272.77     18.06     78.66     67.87     -0.02      0.09      4.06 
   272.78     18.06     78.65     67.87     -0.02      0.08      3.65 
   272.79     18.06     78.66     67.87     -0.02      0.09      3.65 
   272.80     18.06     78.66     67.87     -0.02      0.08      3.24 
   272.81     18.06     78.67     67.88     -0.02      0.09      3.24 
   272.82     18.06     78.67     67.87     -0.02      0.09      3.29 
   272.83     18.05     78.68     67.88     -0.02      0.10      3.29 
   272.84     18.05     78.68     67.88     -0.02      0.11      2.88 
   272.85     18.06     78.67     67.87     -0.03      0.11      2.47 
   272.86     18.06     78.67     67.88     -0.02      0.11      2.47 
   272.87     18.06     78.66     67.87     -0.02      0.10      3.29 
   272.88     18.06     78.67     67.88     -0.02      0.10      3.65 
   272.89     18.06     78.66     67.87     -0.02      0.09      4.06 
   272.90     18.06     78.67     67.87     -0.02      0.08      4.88 
   272.91     18.06     78.67     67.88     -0.01      0.08      4.47 
   272.92     18.06     78.66     67.87     -0.01      0.06      4.88 
   272.93     18.06     78.66     67.88     -0.01      0.05      5.29 
   272.94     18.06     78.65     67.88     -0.00      0.03      5.65 
   272.95     18.06     78.65     67.87      0.00      0.02      6.06 
   272.96     18.06     78.66     67.88      0.00      0.02      6.06 
   272.97     18.06     78.67     67.88      0.00      0.02      6.47 
   272.98     18.05     78.68     67.88      0.00      0.02      6.06 
   272.99     18.05     78.69     67.88      0.00      0.02      5.65 
   273.00     18.05     78.70     67.88      0.00      0.03      5.65 
   273.01     18.05     78.69     67.87      0.00      0.03      5.65 
   273.02     18.05     78.68     67.87     -0.00      0.03      5.65 
   273.03     18.05     78.68     67.88     -0.00      0.04      5.24 
   273.04     18.05     78.68     67.88     -0.00      0.04      4.41 
   273.05     18.05     78.67     67.87     -0.01      0.05      4.88 
   273.06     18.05     78.68     67.87     -0.01      0.06      5.71 
   273.07     18.05     78.68     67.87     -0.01      0.06      4.88 
   273.08     18.05     78.68     67.87     -0.01      0.06      5.71 
   273.09     18.05     78.68     67.87     -0.01      0.07      5.29 
   273.10     18.06     78.67     67.87     -0.01      0.06      4.88 
   273.11     18.06     78.67     67.87     -0.01      0.05      4.53 
   273.12     18.06     78.67     67.88     -0.01      0.05      4.12 
   273.13     18.06     78.67     67.88     -0.01      0.05      4.94 
   273.14     18.06     78.67     67.88     -0.01      0.05      5.76 
   273.15     18.06     78.67     67.88     -0.01      0.05      5.76 
   273.16     18.06     78.67     67.88     -0.01      0.04      6.18 
   273.17     18.06     78.67     67.88     -0.00      0.03      6.18 
   273.18     18.06     78.66     67.88     -0.00      0.01      6.18 
   273.19     18.06     78.66     67.88      0.00      0.01      5.76 
   273.20     18.07     78.64     67.88      0.00     -0.00      5.76 
   273.21     18.07     78.64     67.88      0.00      0.00      6.18 
   273.22     18.07     78.65     67.88      0.00      0.01      6.18 
   273.23     18.07     78.65     67.88      0.00      0.00      5.35 
   273.24     18.07     78.65     67.88      0.01     -0.00      5.35 
   273.25     18.07     78.65     67.88      0.01     -0.00      4.53 
   273.26     18.06     78.65     67.88      0.01     -0.00      4.53 
   273.27     18.06     78.65     67.88      0.00     -0.00      5.35 
   273.28     18.07     78.65     67.88      0.00      0.00      5.71 
   273.29     18.07     78.64     67.88      0.00      0.00      5.29 
   273.30     18.07     78.63     67.88      0.00      0.00      4.47 
   273.31     18.07     78.64     67.88      0.00      0.02      3.65 
   273.32     18.07     78.65     67.88      0.00      0.02      4.06 
   273.33     18.07     78.65     67.88      0.00      0.01      4.06 
   273.34     18.06     78.65     67.87     -0.00      0.01      4.47 
   273.35     18.06     78.65     67.88     -0.00      0.02      4.47 
   273.36     18.06     78.65     67.87     -0.00      0.02      4.88 
   273.37     18.06     78.65     67.87     -0.01      0.03      5.29 
   273.38     18.06     78.65     67.88     -0.00      0.03      5.29 
   273.39     18.06     78.65     67.87     -0.01      0.03      4.88 
   273.40     18.06     78.66     67.88     -0.01      0.03      4.88 
   273.41     18.06     78.66     67.88     -0.01      0.03      4.88 
   273.42     18.06     78.65     67.88     -0.00      0.02      5.29 
