#Written by Robertson Geologging WinLogger V1.0/370
~VERSION INFORMATION
#------------------------------------------------------------------------------
 VERS. 2.0 : CWLS LOG ASCII STANDARD - VERSION 2.0
 WRAP. NO  : ONE LINE PER DEPTH STEP
~WELL INFORMATION
#MNEM.UNIT         DATA                                DESCRIPTION OF MNEMONIC
#------------------------------------------------------------------------------
 STRT.M         73.4200                            :   START DEPTH
 STOP.M        406.0200                            :   STOP DEPTH
 STEP.M          0.0100                            :   STEP VALUE
 NULL.        -999.2500                            :   NULL VALUE
 COMP.    WHITE YOUN GREEN                         :   COMPANY NAME
 WELL.    HORDEN SHAFT                             :   WELL NAME
 FLD.     HORDEN                                   :   FIELD NAME
 LOC.     N/A                                      :   LOCATION
 PROV.    N/A                                      :   PROVINCE
 SRVC.    N/A                                      :   SERVICE COMPANY NAME
 DATE.    12 Dec 06                                :   DATE
 UWI.     N/A                                      :   UNIQUE WELL IDENTIFIER
~PARAMETER INFORMATION
#MNEMO.UNIT         VALUE                 DESCRIPTION OF MNEMONIC
#------------------------------------------------------------------------------
~OTHER INFORMATION SECTION
#------------------------------------------------------------------------------
 lLOGGING DOWN
~CURVE INFORMATION
#MNEMO.UNIT         API CODE              CURVE DESCRIPTION
#------------------------------------------------------------------------------
 DEPTH.M                                 :   0     Depth
 TEMP.DegC                               :   1     Temperature
 CN25.mS/cm                              :   2     Conductivity@25DegC
 COND.mS/cm                              :   3     Conductivity
 DELT.DegC                               :   4     Delta T
 DELC.mS/cm                              :   5     Delta C
 NGAM.CPS                                :   6     Natural Gamma
#------------------------------------------------------------------------------
~A  DEPTH     TEMP      CN25      COND      DELT      DELC      NGAM      
# ...
   228.23     16.30     48.50     38.53     -0.00      0.01      3.71 
   228.24     16.30     48.50     38.53      0.00      0.01      3.29 
   228.25     16.30     48.49     38.53      0.00      0.01      3.71 
   228.26     16.30     48.48     38.53      0.01     -0.00      2.88 
   228.27     16.31     48.48     38.53      0.01     -0.01      2.88 
   228.28     16.31     48.48     38.53      0.01     -0.02      4.12 
   228.29     16.31     48.47     38.53      0.02     -0.03      4.53 
   228.30     16.31     48.47     38.53      0.02     -0.03      4.53 
   228.31     16.31     48.47     38.53      0.02     -0.03      4.12 
   228.32     16.31     48.47     38.53      0.01     -0.02      4.12 
   228.33     16.31     48.46     38.53      0.01     -0.02      4.47 
   228.34     16.31     48.46     38.53      0.01     -0.02      4.47 
   228.35     16.31     48.46     38.53      0.01     -0.02      5.29 
   228.36     16.31     48.47     38.53      0.01     -0.01      4.47 
   228.37     16.31     48.47     38.53      0.00     -0.00      5.18 
   228.38     16.31     48.47     38.53      0.00      0.00      5.59 
   228.39     16.31     48.46     38.52     -0.00      0.01      5.59 
   228.40     16.31     48.47     38.53     -0.00      0.01      5.59 
   228.41     16.31     48.47     38.53     -0.00      0.01      5.88 
   228.42     16.31     48.47     38.53     -0.00      0.01      5.88 
   228.43     16.31     48.47     38.53      0.00      0.01      6.29 
   228.44     16.31     48.47     38.53      0.00      0.00      6.29 
   228.45     16.31     48.47     38.53      0.00      0.00      6.29 
   228.46     16.31     48.48     38.53      0.00      0.01      5.88 
   228.47     16.30     48.48     38.53      0.00      0.01      5.47 
   228.48     16.30     48.48     38.53      0.00      0.00      5.88 
   228.49     16.30     48.49     38.53     -0.00      0.01      6.29 
   228.50     16.30     48.50     38.53     -0.00      0.02      6.76 
   228.51     16.30     48.49     38.53     -0.00      0.02      8.24 
   228.52     16.30     48.49     38.53     -0.00      0.03      8.65 
   228.53     16.30     48.49     38.53     -0.01      0.03      8.65 
   228.54     16.30     48.50     38.53     -0.01      0.03      8.35 
   228.55     16.29     48.51     38.53     -0.01      0.03      7.94 
   228.56     16.29     48.51     38.53     -0.01      0.04      7.53 
   228.57     16.29     48.51     38.53     -0.01      0.04      7.53 
   228.58     16.29     48.51     38.54     -0.01      0.04      7.65 
   228.59     16.30     48.51     38.54     -0.01      0.04      7.24 
   228.60     16.30     48.50     38.54     -0.00      0.03      7.24 
   228.61     16.30     48.50     38.54     -0.00      0.03      7.65 
   228.62     16.30     48.49     38.54     -0.00      0.03      7.24 
   228.63     16.30     48.50     38.54     -0.00      0.02      7.94 
   228.64     16.30     48.49     38.54      0.00      0.02      9.18 
   228.65     16.30     48.49     38.54      0.00      0.02      8.76 
   228.66     16.31     48.49     38.54      0.00      0.03      8.35 
   228.67     16.31     48.48     38.54      0.00      0.03      8.35 
   228.68     16.31     48.49     38.54     -0.00      0.03      7.29 
   228.69     16.31     48.48     38.54      0.00      0.02      6.47 
   228.70     16.31     48.48     38.54      0.00      0.02      6.47 
   228.71     16.31     48.48     38.54      0.00      0.02      6.06 
   228.72     16.31     48.48     38.54      0.00      0.02      6.06 
   228.73     16.31     48.48     38.54      0.00      0.02      6.88 
   228.74     16.31     48.48     38.54      0.00      0.01      7.29 
   228.75     16.31     48.48     38.54      0.00      0.02      6.88 
   228.76     16.31     48.48     38.54      0.01      0.02      7.59 
   228.77     16.31     48.47     38.54      0.01      0.01      7.18 
   228.78     16.31     48.47     38.54      0.01      0.01      6.76 
   228.79     16.31     48.47     38.54      0.01      0.00      6.76 
   228.80     16.31     48.48     38.55      0.01      0.01      6.06 
   228.81     16.31     48.48     38.55      0.01      0.01      5.24 
   228.82     16.31     48.49     38.55      0.01      0.02      5.24 
   228.83     16.31     48.49     38.55      0.01      0.02      6.06 
   228.84     16.31     48.49     38.55      0.00      0.03      5.24 
   228.85     16.31     48.49     38.55      0.00      0.03      4.82 
   228.86     16.31     48.49     38.55      0.00      0.03      5.24 
   228.87     16.31     48.50     38.55      0.00      0.03      5.65 
   228.88     16.31     48.50     38.55      0.00      0.03      6.88 
   228.89     16.31     48.49     38.55      0.00      0.02      6.88 
   228.90     16.31     48.49     38.55      0.01      0.02      6.47 
   228.91     16.31     48.49     38.55      0.01      0.02      6.88 
   228.92     16.32     48.48     38.55      0.01      0.01      6.47 
   228.93     16.32     48.47     38.55      0.02     -0.01      5.76 
   228.94     16.32     48.47     38.56      0.03     -0.02      5.76 
   228.95     16.33     48.46     38.56      0.03     -0.03      5.76 
   228.96     16.33     48.46     38.56      0.04     -0.04      5.35 
   228.97     16.33     48.47     38.56      0.04     -0.04      6.18 
   228.98     16.32     48.47     38.56      0.04     -0.04      6.82 
   228.99     16.32     48.48     38.56      0.04     -0.03      7.24 
   229.00     16.32     48.48     38.56      0.03     -0.03      6.82 
   229.01     16.32     48.49     38.56      0.03     -0.03      6.82 
   229.02     16.32     48.49     38.56      0.03     -0.02      6.82 
   229.03     16.31     48.50     38.57      0.03     -0.00      6.00 
   229.04     16.31     48.51     38.57      0.02      0.01      5.59 
   229.05     16.31     48.51     38.57      0.01      0.02      4.35 
   229.06     16.31     48.52     38.57      0.01      0.03      5.18 
   229.07     16.31     48.52     38.57      0.01      0.04      5.47 
   229.08     16.31     48.52     38.57      0.00      0.04      4.65 
   229.09     16.31     48.52     38.57      0.00      0.04      4.65 
   229.10     16.31     48.52     38.57      0.00      0.05      5.06 
   229.11     16.31     48.52     38.57      0.00      0.05      5.06 
   229.12     16.31     48.52     38.57      0.00      0.05      6.29 
   229.13     16.31     48.52     38.57      0.00      0.05      5.88 
   229.14     16.31     48.53     38.57      0.00      0.05      5.88 
   229.15     16.31     48.53     38.57      0.01      0.04      5.18 
   229.16     16.31     48.53     38.57      0.01      0.03      4.76 
   229.17     16.31     48.53     38.58      0.01      0.03      4.35 
   229.18     16.31     48.52     38.58      0.02      0.02      4.76 
   229.19     16.31     48.53     38.58      0.02      0.02      4.76 
   229.20     16.31     48.53     38.58      0.02      0.03      5.59 
   229.21     16.31     48.53     38.58      0.01      0.03      6.82 
   229.22     16.31     48.54     38.58      0.01      0.04      7.24 
   229.23     16.30     48.54     38.58      0.01      0.04      6.41 
   229.24     16.31     48.53     38.58      0.01      0.04      6.12 
   229.25     16.31     48.53     38.58      0.00      0.04      6.12 
   229.26     16.31     48.53     38.58      0.00      0.05      7.35 
   229.27     16.31     48.53     38.58     -0.00      0.06      7.76 
   229.28     16.31     48.53     38.58     -0.00      0.06      7.76 
   229.29     16.31     48.53     38.58     -0.00      0.07      6.53 
   229.30     16.31     48.53     38.58     -0.00      0.06      6.94 
   229.31     16.31     48.52     38.58      0.00      0.06      6.12 
   229.32     16.31     48.52     38.58      0.00      0.06      6.18 
   229.33     16.31     48.52     38.58      0.00      0.05      7.00 
   229.34     16.31     48.52     38.58      0.00      0.06      7.00 
   229.35     16.31     48.53     38.58      0.00      0.06      6.59 
