#Written by Robertson Geologging WinLogger V1.0/312
~VERSION INFORMATION
#------------------------------------------------------------------------------
 VERS. 2.0 : CWLS LOG ASCII STANDARD - VERSION 2.0
 WRAP. NO  : ONE LINE PER DEPTH STEP
~WELL INFORMATION
#MNEM.UNIT         DATA                                DESCRIPTION OF MNEMONIC
#------------------------------------------------------------------------------
 STRT.M         75.1000                            :   START DEPTH
 STOP.M        380.0000                            :   STOP DEPTH
 STEP.M          0.1000                            :   STEP VALUE
 NULL.        -999.2500                            :   NULL VALUE
 COMP.    I.M.C.                                   :   COMPANY NAME
 WELL.    South shaft                              :   WELL NAME
 FLD.     Hordon                                   :   FIELD NAME
 LOC.     N/A                                      :   LOCATION
 PROV.    N/A                                      :   PROVINCE
 SRVC.    N/A                                      :   SERVICE COMPANY NAME
 DATE.    05 Jan 04                                :   DATE
 UWI.     N/A                                      :   UNIQUE WELL IDENTIFIER
~PARAMETER INFORMATION
#MNEMO.UNIT         VALUE                 DESCRIPTION OF MNEMONIC
#------------------------------------------------------------------------------
~OTHER INFORMATION SECTION
#------------------------------------------------------------------------------
 TCGS ex range 1365
~CURVE INFORMATION
#MNEMO.UNIT         API CODE              CURVE DESCRIPTION
#------------------------------------------------------------------------------
 DEPTH.M                                 :   0     Depth
 COND.mS/cm                              :   1     Conductivity
 TEMP.DegC                               :   2     Temperature
 C@25.mS/cm                              :   3     Conductivity @25Deg
 DELT.DegC                               :   4     Delta T
 DC@25.mS/cm                             :   5     Delta C @25Deg
 OUT4.CPS                                :   6     Natural Gamma
#------------------------------------------------------------------------------
~A  DEPTH     COND      TEMP      C@25      DELT      DC@25     OUT4      
# ...
   233.30      8.32     14.12     14.81      0.01      0.02      6.65 
   233.40      8.32     14.12     14.81      0.02      0.01      5.53 
   233.50      8.32     14.12     14.81      0.01      0.01      6.53 
   233.60      8.32     14.13     14.81      0.01      0.01      8.06 
   233.70      8.33     14.12     14.82     -0.00      0.03      7.06 
   233.80      8.33     14.12     14.82      0.01      0.01     12.65 
   233.90      8.33     14.13     14.81      0.00      0.02     10.47 
   234.00      8.33     14.13     14.81      0.01      0.02      8.24 
   234.10      8.35     14.13     14.83      0.01      0.03      7.24 
   234.20      8.35     14.14     14.83      0.02      0.02      5.12 
   234.30      8.36     14.15     14.82      0.03     -0.00      6.35 
   234.40      8.36     14.15     14.82      0.02      0.02      7.47 
   234.50      8.36     14.15     14.82      0.03      0.01      5.35 
   234.60      8.36     14.16     14.81      0.04     -0.00      5.82 
   234.70      8.36     14.15     14.82      0.03     -0.00      7.18 
   234.80      8.37     14.15     14.83      0.03      0.01      3.47 
   234.90      8.37     14.16     14.83      0.03      0.02      1.35 
   235.00      8.37     14.15     14.83      0.02      0.02      1.65 
   235.10      8.38     14.16     14.83      0.03     -0.01      1.65 
   235.20      8.38     14.16     14.83      0.02      0.00      0.47 
   235.30      8.38     14.16     14.83      0.01      0.02      0.41 
   235.40      8.38     14.16     14.84      0.01      0.02      1.24 
   235.50      8.38     14.16     14.83      0.01      0.01      2.06 
   235.60      8.38     14.16     14.83      0.00      0.03      3.29 
   235.70      8.39     14.17     14.84      0.02      0.01      3.35 
   235.80      8.39     14.17     14.83      0.01      0.01      2.88 
   235.90      8.39     14.17     14.84      0.01      0.01      2.47 
   236.00      8.39     14.16     14.84      0.01      0.01      4.41 
   236.10      8.39     14.17     14.84      0.01      0.01      5.35 
   236.20      8.40     14.17     14.84      0.00      0.02      4.65 
   236.30      8.39     14.17     14.83      0.01      0.00      6.00 
   236.40      8.39     14.17     14.84      0.01      0.00      4.65 
   236.50      8.39     14.17     14.84      0.00      0.01      6.12 
   236.60      8.39     14.17     14.85      0.00      0.01      7.41 
   236.70      8.39     14.17     14.84      0.00      0.02     10.65 
   236.80      8.40     14.17     14.85      0.00      0.01      7.41 
   236.90      8.40     14.17     14.85      0.00      0.02      3.76 
   237.00      8.40     14.16     14.86      0.00      0.01      5.06 
   237.10      8.39     14.18     14.82      0.02     -0.02      5.76 
   237.20      8.39     14.17     14.84      0.01     -0.01      8.88 
   237.30      8.39     14.17     14.84     -0.00      0.00      7.94 
   237.40      8.39     14.18     14.83      0.01     -0.01      5.76 
   237.50      8.40     14.18     14.83      0.01     -0.01      5.82 
   237.60      8.40     14.18     14.83      0.01     -0.01      7.47 
   237.70      8.40     14.18     14.83      0.01     -0.01      4.53 
   237.80      8.40     14.19     14.83      0.02     -0.02      4.12 
   237.90      8.40     14.18     14.84      0.01     -0.01      4.12 
   238.00      8.40     14.18     14.84      0.01     -0.01      3.71 
   238.10      8.40     14.19     14.82      0.01     -0.00      2.88 
   238.20      8.41     14.17     14.85      0.00      0.02      0.76 
   238.30      8.41     14.18     14.85      0.01      0.01      2.82 
   238.40      8.41     14.17     14.86     -0.01      0.03      6.18 
   238.50      8.41     14.19     14.84      0.01      0.00      3.29 
   238.60      8.41     14.18     14.85      0.00      0.02      2.47 
   238.70      8.41     14.19     14.84      0.01      0.01      3.29 
   238.80      8.41     14.20     14.83      0.01      0.01      2.47 
   238.90      8.41     14.18     14.85      0.00      0.01      2.12 
   239.00      8.41     14.17     14.86     -0.00      0.03      2.12 
   239.10      8.41     14.19     14.84      0.00      0.02      3.29 
   239.20      8.42     14.18     14.85      0.00      0.00      3.29 
   239.30      8.42     14.19     14.84      0.01     -0.01      1.65 
   239.40      8.41     14.19     14.83      0.03     -0.03      1.24 
   239.50      8.41     14.19     14.84      0.00     -0.00      1.24 
   239.60      8.43     14.20     14.84      0.02     -0.01      1.65 
   239.70      8.43     14.19     14.86      0.00      0.02      1.65 
   239.80      8.43     14.19     14.86     -0.00      0.03      0.82 
   239.90      8.45     14.19     14.88      0.02      0.03      0.41 
   240.00      8.46     14.19     14.89      0.02      0.04      0.82 
   240.10      8.47     14.20     14.90      0.01      0.05      1.71 
   240.20      8.48     14.20     14.90      0.02      0.04      1.29 
   240.30      8.48     14.22     14.88      0.02      0.05      0.76 
   240.40      8.48     14.23     14.87      0.03      0.04      1.18 
   240.50      8.49     14.22     14.89      0.03      0.05      1.24 
   240.60      8.50     14.23     14.89      0.04      0.05      2.47 
   240.70      8.51     14.23     14.91      0.04      0.05      2.06 
   240.80      8.50     14.23     14.90      0.04      0.03      1.29 
   240.90      8.50     14.23     14.90      0.04      0.01      0.41 
   241.00      8.51     14.24     14.90      0.04      0.00      0.41 
   241.10      8.51     14.24     14.90      0.04     -0.00      0.41 
   241.20      8.52     14.23     14.92      0.02      0.02      0.41 
   241.30      8.53     14.23     14.93      0.01      0.05      0.00 
   241.40      8.54     14.24     14.93      0.01      0.06      0.82 
   241.50      8.56     14.24     14.94      0.02      0.06      2.41 
   241.60      8.57     14.25     14.96      0.02      0.07      2.00 
   241.70      8.62     14.24     15.02      0.01      0.12      0.00 
   241.80      8.70     14.26     15.10      0.02      0.21      0.00 
   241.90      8.73     14.28     15.12      0.05      0.22      0.41 
   242.00      8.75     14.30     15.12      0.07      0.21      0.00 
   242.10      8.77     14.31     15.13      0.07      0.23      0.82 
   242.20      8.78     14.33     15.13      0.10      0.20      1.24 
   242.30      8.80     14.32     15.16      0.09      0.23      1.24 
   242.40      8.83     14.32     15.20      0.08      0.27      0.41 
   242.50      8.95     14.34     15.31      0.09      0.37      0.41 
   242.60      9.11     14.38     15.45      0.14      0.50      0.82 
   242.70      9.25     14.45     15.56      0.20      0.52      0.82 
   242.80      9.37     14.51     15.62      0.25      0.51      0.82 
   242.90      9.45     14.62     15.59      0.33      0.46      1.24 
   243.00      9.50     14.70     15.54      0.40      0.42      0.41 
   243.10      9.55     14.78     15.48      0.47      0.34      2.47 
   243.20      9.59     14.84     15.47      0.51      0.34      2.41 
   243.30      9.61     14.88     15.43      0.56      0.27      1.59 
   243.40      9.63     14.90     15.43      0.58      0.22      1.24 
   243.50      9.64     14.91     15.42      0.57      0.09      1.24 
   243.60      9.66     14.94     15.41      0.55     -0.08      1.24 
   243.70      9.66     14.94     15.40      0.49     -0.16      0.82 
   243.80      9.67     14.95     15.41      0.43     -0.21      1.24 
   243.90      9.68     14.95     15.42      0.32     -0.15      0.82 
   244.00      9.69     14.95     15.43      0.24     -0.10      0.82 
   244.10      9.71     14.95     15.45      0.17     -0.03      0.82 
   244.20      9.73     14.97     15.46      0.12      0.01      2.06 
   244.30      9.75     14.98     15.47      0.10      0.03      1.24 
   244.40      9.76     14.99     15.46      0.09      0.04      1.24 
   244.50      9.77     15.00     15.47      0.08      0.04      2.06 
