#Written by Robertson Geologging WinLogger V1.0/312
~VERSION INFORMATION
#------------------------------------------------------------------------------
 VERS. 2.0 : CWLS LOG ASCII STANDARD - VERSION 2.0
 WRAP. NO  : ONE LINE PER DEPTH STEP
~WELL INFORMATION
#MNEM.UNIT         DATA                                DESCRIPTION OF MNEMONIC
#------------------------------------------------------------------------------
 STRT.M         75.1000                            :   START DEPTH
 STOP.M        380.0000                            :   STOP DEPTH
 STEP.M          0.1000                            :   STEP VALUE
 NULL.        -999.2500                            :   NULL VALUE
 COMP.    I.M.C.                                   :   COMPANY NAME
 WELL.    South shaft                              :   WELL NAME
 FLD.     Hordon                                   :   FIELD NAME
 LOC.     N/A                                      :   LOCATION
 PROV.    N/A                                      :   PROVINCE
 SRVC.    N/A                                      :   SERVICE COMPANY NAME
 DATE.    05 Jan 04                                :   DATE
 UWI.     N/A                                      :   UNIQUE WELL IDENTIFIER
~PARAMETER INFORMATION
#MNEMO.UNIT         VALUE                 DESCRIPTION OF MNEMONIC
#------------------------------------------------------------------------------
~OTHER INFORMATION SECTION
#------------------------------------------------------------------------------
 TCGS ex range 1365
~CURVE INFORMATION
#MNEMO.UNIT         API CODE              CURVE DESCRIPTION
#------------------------------------------------------------------------------
 DEPTH.M                                 :   0     Depth
 COND.mS/cm                              :   1     Conductivity
 TEMP.DegC                               :   2     Temperature
 C@25.mS/cm                              :   3     Conductivity @25Deg
 DELT.DegC                               :   4     Delta T
 DC@25.mS/cm                             :   5     Delta C @25Deg
 OUT4.CPS                                :   6     Natural Gamma
#------------------------------------------------------------------------------
~A  DEPTH     COND      TEMP      C@25      DELT      DC@25     OUT4      
# ...
   131.60      7.97     13.49     15.17      0.01     -0.01      3.18 
   131.70      7.97     13.49     15.18     -0.00      0.00      2.65 
   131.80      7.97     13.49     15.18     -0.01      0.01      2.12 
   131.90      7.97     13.49     15.17     -0.00      0.00      1.24 
   132.00      7.97     13.49     15.17     -0.00      0.01      0.82 
   132.10      7.97     13.49     15.18      0.00     -0.00      2.12 
   132.20      7.97     13.49     15.17     -0.00      0.01      2.24 
   132.30      7.97     13.49     15.18      0.00      0.00      0.94 
   132.40      7.97     13.49     15.18     -0.00     -0.00      1.65 
   132.50      7.97     13.49     15.18     -0.01      0.01      1.24 
   132.60      7.97     13.49     15.17     -0.00      0.00      0.41 
   132.70      7.97     13.49     15.18      0.00     -0.00      0.47 
   132.80      7.97     13.49     15.18     -0.00      0.00      0.47 
   132.90      7.97     13.50     15.17      0.00     -0.00      0.00 
   133.00      7.97     13.49     15.17      0.00      0.00      0.41 
   133.10      7.97     13.49     15.18     -0.00      0.01      1.65 
   133.20      7.97     13.49     15.18     -0.01      0.01      3.00 
   133.30      7.97     13.49     15.17      0.00     -0.00      3.12 
   133.40      7.98     13.49     15.18     -0.00      0.01      2.65 
   133.50      7.97     13.49     15.18      0.00     -0.00      1.29 
   133.60      7.97     13.49     15.18     -0.00      0.01      1.29 
   133.70      7.97     13.49     15.18      0.00     -0.00      2.59 
   133.80      7.97     13.49     15.18      0.00     -0.00      2.53 
   133.90      7.97     13.49     15.18     -0.01      0.01      1.71 
   134.00      7.97     13.49     15.17      0.00     -0.00      1.35 
   134.10      7.97     13.49     15.18      0.00     -0.00      1.29 
   134.20      7.97     13.49     15.18      0.00     -0.01      0.41 
   134.30      7.97     13.49     15.18     -0.00      0.00      0.82 
   134.40      7.97     13.49     15.18      0.00      0.00      2.12 
   134.50      7.97     13.48     15.19     -0.01      0.01      1.29 
   134.60      7.97     13.49     15.18      0.00     -0.00      1.65 
   134.70      7.97     13.49     15.18      0.00     -0.01      1.24 
   134.80      7.97     13.49     15.18      0.00     -0.01      0.41 
   134.90      7.97     13.48     15.19     -0.01      0.01      0.00 
   135.00      7.97     13.50     15.17      0.00      0.00      1.65 
   135.10      7.97     13.49     15.18      0.00      0.00      1.71 
   135.20      7.97     13.50     15.17      0.01     -0.01      1.35 
   135.30      7.97     13.50     15.17      0.00     -0.00      0.88 
   135.40      7.97     13.49     15.17      0.00     -0.01      0.47 
   135.50      7.98     13.49     15.18      0.01     -0.01      1.76 
   135.60      7.97     13.49     15.18     -0.00     -0.00      2.94 
   135.70      7.97     13.49     15.18     -0.01      0.01      2.59 
   135.80      7.97     13.49     15.17      0.00      0.00      0.47 
   135.90      7.97     13.49     15.18      0.01     -0.00      1.29 
   136.00      7.97     13.49     15.19     -0.01      0.01      1.76 
   136.10      7.97     13.49     15.17      0.01     -0.01      0.41 
   136.20      7.97     13.49     15.19     -0.01      0.01      0.82 
   136.30      7.97     13.49     15.18     -0.00      0.00      1.71 
   136.40      7.97     13.49     15.17      0.00     -0.00      1.76 
   136.50      7.98     13.49     15.18      0.00      0.00      1.65 
   136.60      7.97     13.49     15.18      0.00      0.00      2.24 
   136.70      7.97     13.49     15.18      0.00      0.00      3.12 
   136.80      7.97     13.49     15.17     -0.00     -0.01      2.59 
   136.90      7.97     13.49     15.18      0.00      0.00      1.29 
   137.00      7.97     13.49     15.18      0.00     -0.00      2.18 
   137.10      7.98     13.48     15.19     -0.01      0.01      1.71 
   137.20      7.98     13.49     15.18      0.00      0.00      2.12 
   137.30      7.98     13.49     15.18     -0.00      0.00      2.12 
   137.40      7.97     13.49     15.18     -0.00      0.00      1.24 
   137.50      7.97     13.49     15.19     -0.00      0.00      0.82 
   137.60      7.97     13.48     15.19     -0.01      0.01      1.35 
   137.70      7.97     13.49     15.18      0.00     -0.00      1.76 
   137.80      7.97     13.49     15.18     -0.00      0.01      1.24 
   137.90      7.97     13.49     15.19     -0.00      0.00      1.24 
   138.00      7.97     13.48     15.19     -0.00      0.01      1.76 
   138.10      7.97     13.49     15.18      0.01     -0.01      2.18 
   138.20      7.98     13.49     15.17      0.00     -0.00      2.88 
   138.30      7.97     13.48     15.19     -0.01      0.01      2.53 
   138.40      7.97     13.49     15.18     -0.00      0.01      1.76 
   138.50      7.97     13.50     15.18      0.01     -0.01      1.29 
   138.60      7.97     13.50     15.17      0.01     -0.02      3.06 
   138.70      7.97     13.49     15.17      0.00     -0.01      2.18 
   138.80      7.97     13.48     15.19     -0.00      0.00      3.06 
   138.90      7.97     13.48     15.19     -0.01      0.00      3.12 
   139.00      7.97     13.49     15.18      0.01     -0.01      1.29 
   139.10      7.97     13.49     15.18     -0.01      0.01      0.41 
   139.20      7.97     13.49     15.18     -0.00      0.01      0.00 
   139.30      7.98     13.48     15.20     -0.00      0.01      0.47 
   139.40      7.97     13.49     15.18     -0.00      0.00      0.88 
   139.50      7.97     13.49     15.18     -0.01      0.02      0.41 
   139.60      7.97     13.49     15.18     -0.01      0.00      1.35 
   139.70      7.98     13.50     15.18      0.00      0.00      0.82 
   139.80      7.98     13.49     15.18      0.01     -0.01      0.88 
   139.90      7.97     13.50     15.17      0.01     -0.02      2.24 
   140.00      7.97     13.50     15.17      0.01     -0.01      2.65 
   140.10      7.97     13.49     15.18      0.00     -0.00      1.71 
   140.20      7.97     13.50     15.17      0.01     -0.01      0.88 
   140.30      7.97     13.51     15.16      0.03     -0.04      2.24 
   140.40      7.97     13.50     15.17      0.01     -0.01      1.82 
   140.50      7.98     13.49     15.18      0.00     -0.00      2.18 
   140.60      7.98     13.49     15.18     -0.00      0.00      0.88 
   140.70      7.97     13.49     15.18     -0.00     -0.00      1.29 
   140.80      7.98     13.50     15.17      0.01     -0.00      0.82 
   140.90      7.97     13.49     15.18     -0.01      0.01      2.59 
   141.00      7.97     13.49     15.18     -0.00      0.01      3.00 
   141.10      7.98     13.50     15.17      0.01     -0.01      1.71 
   141.20      7.98     13.49     15.18     -0.01      0.02      0.41 
   141.30      7.97     13.49     15.18     -0.02      0.03      0.82 
   141.40      7.97     13.49     15.18     -0.01      0.01      2.18 
   141.50      7.98     13.49     15.18     -0.00      0.00      1.76 
   141.60      7.97     13.49     15.18      0.00     -0.00      0.82 
   141.70      7.98     13.50     15.17      0.01     -0.01      4.24 
   141.80      7.98     13.50     15.17     -0.00      0.01      4.35 
   141.90      7.98     13.50     15.17      0.01     -0.01      1.76 
   142.00      7.98     13.48     15.19     -0.02      0.02      1.82 
   142.10      7.97     13.49     15.18     -0.01      0.01      2.24 
   142.20      7.97     13.49     15.18     -0.00     -0.00      2.59 
   142.30      7.98     13.50     15.17      0.01     -0.01      0.94 
   142.40      7.97     13.50     15.16      0.01     -0.02      0.88 
   142.50      7.98     13.50     15.17      0.00      0.00      1.76 
   142.60      7.98     13.49     15.18     -0.00      0.01      0.88 
   142.70      7.98     13.48     15.20     -0.03      0.03      0.41 
   142.80      7.98     13.49     15.18     -0.00      0.01      1.71 
