#Written by Robertson Geologging WinLogger V1.0/312
~VERSION INFORMATION
#------------------------------------------------------------------------------
 VERS. 2.0 : CWLS LOG ASCII STANDARD - VERSION 2.0
 WRAP. NO  : ONE LINE PER DEPTH STEP
~WELL INFORMATION
#MNEM.UNIT         DATA                                DESCRIPTION OF MNEMONIC
#------------------------------------------------------------------------------
 STRT.M         75.1000                            :   START DEPTH
 STOP.M        380.0000                            :   STOP DEPTH
 STEP.M          0.1000                            :   STEP VALUE
 NULL.        -999.2500                            :   NULL VALUE
 COMP.    I.M.C.                                   :   COMPANY NAME
 WELL.    South shaft                              :   WELL NAME
 FLD.     Hordon                                   :   FIELD NAME
 LOC.     N/A                                      :   LOCATION
 PROV.    N/A                                      :   PROVINCE
 SRVC.    N/A                                      :   SERVICE COMPANY NAME
 DATE.    05 Jan 04                                :   DATE
 UWI.     N/A                                      :   UNIQUE WELL IDENTIFIER
~PARAMETER INFORMATION
#MNEMO.UNIT         VALUE                 DESCRIPTION OF MNEMONIC
#------------------------------------------------------------------------------
~OTHER INFORMATION SECTION
#------------------------------------------------------------------------------
 TCGS ex range 1365
~CURVE INFORMATION
#MNEMO.UNIT         API CODE              CURVE DESCRIPTION
#------------------------------------------------------------------------------
 DEPTH.M                                 :   0     Depth
 COND.mS/cm                              :   1     Conductivity
 TEMP.DegC                               :   2     Temperature
 C@25.mS/cm                              :   3     Conductivity @25Deg
 DELT.DegC                               :   4     Delta T
 DC@25.mS/cm                             :   5     Delta C @25Deg
 OUT4.CPS                                :   6     Natural Gamma
#------------------------------------------------------------------------------
~A  DEPTH     COND      TEMP      C@25      DELT      DC@25     OUT4      
# ...
   188.10      7.99     13.51     15.17      0.01     -0.02     10.88 
   188.20      7.99     13.51     15.17      0.01     -0.01     10.06 
   188.30      7.99     13.51     15.17     -0.00      0.00      7.29 
   188.40      7.99     13.52     15.17      0.01     -0.01      7.24 
   188.50      7.99     13.51     15.18     -0.00      0.00      5.88 
   188.60      7.99     13.51     15.17     -0.01      0.01      8.94 
   188.70      7.99     13.50     15.19     -0.01      0.02      8.06 
   188.80      7.99     13.50     15.19     -0.01      0.01      8.06 
   188.90      7.99     13.50     15.18     -0.00     -0.01      6.76 
   189.00      7.98     13.51     15.17      0.00     -0.01      4.12 
   189.10      7.99     13.50     15.18     -0.01      0.01      4.59 
   189.20      7.98     13.50     15.18     -0.01      0.01      7.06 
   189.30      7.99     13.51     15.18     -0.01      0.01      9.12 
   189.40      7.99     13.49     15.19     -0.02      0.02      8.24 
   189.50      7.99     13.51     15.18     -0.00     -0.01      7.88 
   189.60      7.99     13.50     15.19     -0.01      0.01      9.18 
   189.70      7.99     13.50     15.19     -0.00     -0.00      7.82 
   189.80      7.99     13.51     15.18      0.00     -0.01      7.94 
   189.90      7.99     13.50     15.18     -0.00      0.01      8.41 
   190.00      7.99     13.50     15.19     -0.01      0.01      7.59 
   190.10      7.99     13.50     15.18     -0.00      0.01      7.71 
   190.20      7.99     13.49     15.20     -0.01      0.02      7.41 
   190.30      7.99     13.50     15.19     -0.01      0.01      4.35 
   190.40      7.99     13.50     15.19      0.00      0.00      4.41 
   190.50      7.99     13.51     15.19     -0.00      0.01      7.59 
   190.60      7.99     13.51     15.19      0.01     -0.01      7.88 
   190.70      7.99     13.50     15.18      0.00      0.00      7.82 
   190.80      7.99     13.51     15.18      0.01     -0.00      6.65 
   190.90      7.99     13.51     15.18      0.01     -0.00     10.06 
   191.00      7.99     13.51     15.18      0.01     -0.01      9.24 
   191.10      7.99     13.51     15.18      0.01     -0.01      7.94 
   191.20      7.99     13.50     15.18      0.01     -0.02      6.35 
   191.30      7.99     13.51     15.18      0.01     -0.01      6.35 
   191.40      7.99     13.51     15.17      0.02     -0.02      9.12 
   191.50      7.99     13.50     15.19     -0.00      0.01      9.59 
   191.60      7.99     13.50     15.19     -0.00      0.01      6.94 
   191.70      7.99     13.51     15.18      0.00     -0.00      7.59 
   191.80      7.99     13.50     15.19     -0.01      0.01      7.24 
   191.90      7.99     13.50     15.19     -0.01      0.01      5.53 
   192.00      7.99     13.50     15.19     -0.00      0.01      5.94 
   192.10      7.99     13.50     15.19     -0.01      0.01      8.24 
   192.20      7.99     13.51     15.18      0.01     -0.00      7.29 
   192.30      7.99     13.50     15.19     -0.00      0.01      8.76 
   192.40      7.99     13.51     15.18     -0.01      0.00      9.71 
   192.50      7.99     13.50     15.19      0.00      0.00      8.76 
   192.60      7.99     13.50     15.19     -0.00      0.00      8.18 
   192.70      7.99     13.50     15.19     -0.01      0.00      9.53 
   192.80      7.99     13.51     15.19      0.01     -0.01     10.94 
   192.90      7.99     13.51     15.18      0.01     -0.01      8.12 
   193.00      7.99     13.51     15.18      0.00     -0.00      7.65 
   193.10      7.99     13.50     15.19     -0.00      0.01      9.24 
   193.20      7.99     13.51     15.19     -0.01      0.00     12.82 
   193.30      7.99     13.51     15.18      0.00     -0.00     13.88 
   193.40      7.99     13.51     15.18      0.00     -0.00     13.82 
   193.50      7.99     13.52     15.17      0.01     -0.02     12.00 
   193.60      7.99     13.52     15.17      0.01     -0.02     17.06 
   193.70      7.99     13.52     15.17      0.02     -0.02     19.24 
   193.80      7.99     13.52     15.16      0.02     -0.02     15.00 
   193.90      7.99     13.53     15.15      0.01     -0.02     15.65 
   194.00      7.99     13.53     15.15      0.02     -0.03     15.65 
   194.10      7.99     13.52     15.16      0.03     -0.04     15.06 
   194.20      7.99     13.53     15.15      0.03     -0.04     20.88 
   194.30      7.99     13.53     15.15      0.02     -0.04     22.65 
   194.40      7.99     13.53     15.15      0.02     -0.03     24.29 
   194.50      7.99     13.52     15.16      0.01     -0.01     19.41 
   194.60      7.99     13.53     15.15      0.01     -0.02     16.76 
   194.70      7.99     13.53     15.15      0.01     -0.02     12.53 
   194.80      7.99     13.53     15.15      0.00     -0.00     15.82 
   194.90      7.99     13.53     15.15      0.00      0.00     20.71 
   195.00      7.99     13.52     15.16     -0.00      0.00     20.71 
   195.10      7.99     13.53     15.15      0.00     -0.01     19.59 
   195.20      7.99     13.52     15.16     -0.01      0.02     19.94 
   195.30      7.99     13.53     15.16     -0.00      0.01     13.53 
   195.40      7.99     13.53     15.15     -0.00      0.00     14.06 
   195.50      7.99     13.53     15.15      0.00     -0.00     15.47 
   195.60      7.99     13.52     15.17     -0.01      0.01     19.24 
   195.70      7.99     13.53     15.16     -0.00      0.01     19.47 
   195.80      7.99     13.52     15.16     -0.01      0.01     15.35 
   195.90      7.99     13.52     15.17     -0.01      0.02     12.71 
   196.00      7.99     13.52     15.16     -0.00      0.01     13.76 
   196.10      7.99     13.52     15.16     -0.01      0.01     15.12 
   196.20      7.99     13.52     15.17      0.00      0.00     17.59 
   196.30      7.99     13.51     15.17     -0.01      0.02     16.12 
   196.40      7.99     13.51     15.18     -0.02      0.02     15.41 
   196.50      7.99     13.53     15.16      0.00     -0.00     14.71 
   196.60      7.99     13.53     15.15      0.01     -0.02     10.94 
   196.70      7.99     13.53     15.15      0.01     -0.00     14.41 
   196.80      7.99     13.53     15.16      0.01     -0.01     15.18 
   196.90      7.99     13.53     15.15      0.01     -0.01     12.47 
   197.00      7.99     13.53     15.16      0.00     -0.01     10.88 
   197.10      7.99     13.53     15.16      0.01     -0.01     13.53 
   197.20      7.99     13.52     15.16      0.00     -0.00     11.71 
   197.30      7.99     13.52     15.17      0.01     -0.01     14.53 
   197.40      7.99     13.52     15.16      0.01     -0.02      9.18 
   197.50      7.99     13.52     15.16     -0.01      0.01      8.82 
   197.60      7.99     13.52     15.16     -0.01      0.01      7.94 
   197.70      7.99     13.52     15.17     -0.01      0.02     11.47 
   197.80      7.99     13.52     15.16     -0.00      0.00      9.88 
   197.90      7.99     13.53     15.15      0.00      0.00     12.53 
   198.00      7.99     13.52     15.16     -0.00      0.01     12.47 
   198.10      7.99     13.52     15.16     -0.00      0.00     11.12 
   198.20      7.99     13.52     15.16     -0.00      0.00     10.94 
   198.30      7.99     13.53     15.15      0.01     -0.01     12.76 
   198.40      7.99     13.52     15.16     -0.00      0.00     12.24 
   198.50      7.99     13.53     15.16      0.00     -0.01     13.29 
   198.60      7.99     13.53     15.16      0.01     -0.01     15.88 
   198.70      7.99     13.53     15.15      0.01     -0.02     13.82 
   198.80      7.99     13.53     15.15      0.01     -0.00     13.12 
   198.90      7.99     13.52     15.16     -0.00      0.01     14.76 
   199.00      7.99     13.53     15.15      0.00     -0.00     11.76 
   199.10      7.99     13.52     15.17     -0.01      0.02      8.88 
   199.20      7.99     13.51     15.18     -0.01      0.02      9.71 
   199.30      8.00     13.51     15.18     -0.02      0.03     10.41 
