#Written by Robertson Geologging WinLogger V1.0/370
~VERSION INFORMATION
#------------------------------------------------------------------------------
 VERS. 2.0 : CWLS LOG ASCII STANDARD - VERSION 2.0
 WRAP. NO  : ONE LINE PER DEPTH STEP
~WELL INFORMATION
#MNEM.UNIT         DATA                                DESCRIPTION OF MNEMONIC
#------------------------------------------------------------------------------
 STRT.M         73.4200                            :   START DEPTH
 STOP.M        406.0200                            :   STOP DEPTH
 STEP.M          0.0100                            :   STEP VALUE
 NULL.        -999.2500                            :   NULL VALUE
 COMP.    WHITE YOUN GREEN                         :   COMPANY NAME
 WELL.    HORDEN SHAFT                             :   WELL NAME
 FLD.     HORDEN                                   :   FIELD NAME
 LOC.     N/A                                      :   LOCATION
 PROV.    N/A                                      :   PROVINCE
 SRVC.    N/A                                      :   SERVICE COMPANY NAME
 DATE.    12 Dec 06                                :   DATE
 UWI.     N/A                                      :   UNIQUE WELL IDENTIFIER
~PARAMETER INFORMATION
#MNEMO.UNIT         VALUE                 DESCRIPTION OF MNEMONIC
#------------------------------------------------------------------------------
~OTHER INFORMATION SECTION
#------------------------------------------------------------------------------
 lLOGGING DOWN
~CURVE INFORMATION
#MNEMO.UNIT         API CODE              CURVE DESCRIPTION
#------------------------------------------------------------------------------
 DEPTH.M                                 :   0     Depth
 TEMP.DegC                               :   1     Temperature
 CN25.mS/cm                              :   2     Conductivity@25DegC
 COND.mS/cm                              :   3     Conductivity
 DELT.DegC                               :   4     Delta T
 DELC.mS/cm                              :   5     Delta C
 NGAM.CPS                                :   6     Natural Gamma
#------------------------------------------------------------------------------
~A  DEPTH     TEMP      CN25      COND      DELT      DELC      NGAM      
    73.42      0.00     15.89      0.00      0.00      0.00      0.00 
    73.43      0.00     15.89      0.00      0.00      0.00      0.00 
    73.44      0.00     15.89      0.00      0.00      0.00      0.00 
    73.45      0.00     15.89      0.00      0.00      0.00      0.00 
    73.46      0.00     15.89      0.00      0.00      0.00      0.00 
    73.47      0.00     15.89      0.00      0.00      0.00      0.00 
    73.48      0.00     15.89      0.00      0.00      0.00      0.00 
    73.49      0.00     15.89      0.00      0.00      0.00      0.00 
    73.50      0.00     15.89      0.00      0.00      0.00      0.00 
    73.51      0.00     15.89      0.00      0.00      0.00      0.00 
    73.52      0.00     15.89      0.00      0.00      0.00      0.00 
    73.53      0.00     15.89      0.00      0.00      0.00      0.00 
    73.54      0.00     15.89      0.00      0.00      0.00      0.00 
    73.55      0.00     15.89      0.00      0.00      0.00      0.00 
    73.56      0.00     15.89      0.00      0.00      0.00      0.00 
    73.57      0.00     15.89      0.00      0.00      0.00      0.00 
    73.58      0.00     15.89      0.00      0.00      0.00      0.00 
    73.59      0.00     15.89      0.00      0.00      0.00      0.00 
    73.60      0.00     15.89      0.00      0.00      0.00      0.00 
    73.61      0.00     15.89      0.00      0.00      0.00      0.00 
    73.62      0.00     15.89      0.00      0.00      0.00      0.00 
    73.63      0.00     15.89      0.00      0.00      0.00      0.00 
    73.64      0.00     15.89      0.00      0.00      0.00      0.00 
    73.65      0.00     15.89      0.00      0.00      0.00      0.00 
    73.66      0.00     15.89      0.00      0.00      0.00      0.00 
    73.67      0.00     15.89      0.00      0.00      0.00      0.00 
    73.68      0.00     15.89      0.00      0.00      0.00      0.00 
    73.69      0.00     15.89      0.00      0.00      0.00      0.00 
    73.70      0.00     15.89      0.00      0.00      0.00      0.00 
    73.71      0.00     15.89      0.00      0.00      0.00      0.00 
    73.72      0.00     15.89      0.00      0.00      0.00      0.00 
    73.73      0.00     15.89      0.00      0.00      0.00      0.00 
    73.74      0.00     15.89      0.00      0.00      0.00      0.00 
    73.75      0.00     15.89      0.00      0.00      0.00      0.00 
    73.76      0.00     15.89      0.00      0.00      0.00      0.00 
    73.77      0.00     15.89      0.00      0.00      0.00      0.00 
    73.78      0.00     15.89      0.00      0.00      0.00      0.00 
    73.79      0.00     15.89      0.00      0.00      0.00      0.00 
    73.80      0.00     15.89      0.00      0.00      0.00      0.00 
    73.81      0.00     15.89      0.00      0.00      0.00      0.00 
    73.82      0.00     15.89      0.00      0.00      0.00      0.00 
    73.83      0.00     15.89      0.00      0.00      0.00      0.00 
    73.84      0.00     15.89      0.00      0.00      0.00      0.00 
    73.85      0.00     15.89      0.00      0.00      0.00      0.00 
    73.86      0.00     15.89      0.00      0.00      0.00      0.00 
    73.87      0.00     15.89      0.00      0.00      0.00      0.00 
    73.88      0.00     15.89      0.00      0.00      0.00      0.00 
    73.89      0.00     15.89      0.00      0.00      0.00      0.00 
    73.90      0.00     15.89      0.00      0.00      0.00      0.00 
    73.91      0.00     15.89      0.00      0.00      0.00      0.00 
    73.92      0.00     15.89      0.00      0.00      0.00      0.00 
    73.93      0.00     15.89      0.00      0.00      0.00      0.00 
    73.94      0.00     15.89      0.00      0.00      0.00      0.00 
    73.95      0.00     15.89      0.00      0.00      0.00      0.00 
    73.96      0.00     15.89      0.00      0.00      0.00      0.00 
    73.97      0.00     15.89      0.00      0.00      0.00      0.00 
    73.98      0.00     15.89      0.00      0.00      0.00      0.00 
    73.99      0.00     15.89      0.00      0.00      0.00      0.00 
    74.00      0.00     15.89      0.00      0.00      0.00      0.00 
    74.01      0.00     15.89      0.00      0.00      0.00      0.00 
    74.02      0.00     15.89      0.00      0.00      0.00      0.00 
    74.03      0.00     15.89      0.00      0.00      0.00      0.00 
    74.04      0.00     15.89      0.00      0.00      0.00      0.00 
    74.05      0.00     15.89      0.00      0.00      0.00      0.00 
    74.06      0.00     15.89      0.00      0.00      0.00      0.00 
    74.07      0.00     15.89      0.00      0.00      0.00      0.00 
    74.08      0.00     15.89      0.00      0.00      0.00      0.00 
    74.09      0.00     15.89      0.00      0.00      0.00      0.00 
    74.10      0.00     15.89      0.00      0.00      0.00      0.00 
    74.11      0.00     15.89      0.00      0.00      0.00      0.00 
    74.12      0.00     15.89      0.00      0.00      0.00      0.00 
    74.13      0.00     15.89      0.00      0.00      0.00      0.00 
    74.14      0.00     15.89      0.00      0.00      0.00      0.00 
    74.15      0.00     15.89      0.00      0.00      0.00      0.00 
    74.16      0.00     15.89      0.00      0.00      0.00      0.00 
    74.17      0.00     15.89      0.00      0.00      0.00      0.00 
    74.18      0.00     15.89      0.00      0.00      0.00      0.00 
    74.19      0.00     15.89      0.00      0.00      0.00      0.00 
    74.20      0.00     15.89      0.00      0.00      0.00      0.00 
    74.21      0.00     15.89      0.00      0.00      0.00      0.00 
    74.22      0.00     15.89      0.00      0.00      0.00      0.00 
    74.23      0.00     15.89      0.00      0.00      0.00      0.00 
    74.24      0.00     15.89      0.00      0.00      0.00      0.00 
    74.25      0.00     15.89      0.00      0.00      0.00      0.00 
    74.26      0.00     15.89      0.00      0.00      0.00      0.00 
    74.27      0.00     15.89      0.00      0.00      0.00      0.00 
    74.28      0.00     15.89      0.00      0.00      0.00      0.00 
    74.29      0.00     15.89      0.00      0.00      0.00      0.00 
    74.30      0.00     15.89      0.00      0.00      0.00      0.00 
    74.31      0.00     15.89      0.00      0.00      0.00      0.00 
    74.32      0.00     15.89      0.00      0.00      0.00      0.00 
    74.33      0.00     15.89      0.00      0.00      0.00      0.00 
    74.34      0.00     15.89      0.00      0.00      0.00      0.00 
    74.35      0.00     15.89      0.00      0.00      0.00      0.00 
    74.36      0.00     15.89      0.00      0.00      0.00      0.00 
    74.37      0.00     15.89      0.00      0.00      0.00      0.00 
    74.38      0.00     15.89      0.00      0.00      0.00      0.00 
    74.39      0.00     15.89      0.00      0.00      0.00      0.00 
    74.40      0.00     15.89      0.00      0.00      0.00      0.00 
    74.41      0.00     15.89      0.00      0.00      0.00      0.00 
    74.42      0.00     15.89      0.00      0.00      0.00      0.00 
    74.43      0.00     15.89      0.00      0.00      0.00      0.00 
    74.44      0.00     15.89      0.00      0.00      0.00      0.00 
    74.45      0.00     15.89      0.00      0.00      0.00      0.00 
    74.46      0.00     15.89      0.00      0.00      0.00      0.00 
    74.47      0.00     15.89      0.00      0.00      0.00      0.00 
    74.48      0.00     15.89      0.00      0.00      0.00      0.00 
    74.49      0.00     15.89      0.00      0.00      0.00      0.00 
    74.50      0.00     15.89      0.00      0.00      0.00      0.00 
    74.51      0.00     15.89      0.00      0.00      0.00      0.00 
    74.52      0.00     15.89      0.00      0.00      0.00      0.00 
    74.53      0.00     15.89      0.00      0.00      0.00      0.00 
    74.54      0.00     15.89      0.00      0.00      0.00      0.00 
