#Written by Robertson Geologging WinLogger V1.0/370
~VERSION INFORMATION
#------------------------------------------------------------------------------
 VERS. 2.0 : CWLS LOG ASCII STANDARD - VERSION 2.0
 WRAP. NO  : ONE LINE PER DEPTH STEP
~WELL INFORMATION
#MNEM.UNIT         DATA                                DESCRIPTION OF MNEMONIC
#------------------------------------------------------------------------------
 STRT.M         73.4200                            :   START DEPTH
 STOP.M        406.0200                            :   STOP DEPTH
 STEP.M          0.0100                            :   STEP VALUE
 NULL.        -999.2500                            :   NULL VALUE
 COMP.    WHITE YOUN GREEN                         :   COMPANY NAME
 WELL.    HORDEN SHAFT                             :   WELL NAME
 FLD.     HORDEN                                   :   FIELD NAME
 LOC.     N/A                                      :   LOCATION
 PROV.    N/A                                      :   PROVINCE
 SRVC.    N/A                                      :   SERVICE COMPANY NAME
 DATE.    12 Dec 06                                :   DATE
 UWI.     N/A                                      :   UNIQUE WELL IDENTIFIER
~PARAMETER INFORMATION
#MNEMO.UNIT         VALUE                 DESCRIPTION OF MNEMONIC
#------------------------------------------------------------------------------
~OTHER INFORMATION SECTION
#------------------------------------------------------------------------------
 lLOGGING DOWN
~CURVE INFORMATION
#MNEMO.UNIT         API CODE              CURVE DESCRIPTION
#------------------------------------------------------------------------------
 DEPTH.M                                 :   0     Depth
 TEMP.DegC                               :   1     Temperature
 CN25.mS/cm                              :   2     Conductivity@25DegC
 COND.mS/cm                              :   3     Conductivity
 DELT.DegC                               :   4     Delta T
 DELC.mS/cm                              :   5     Delta C
 NGAM.CPS                                :   6     Natural Gamma
#------------------------------------------------------------------------------
~A  DEPTH     TEMP      CN25      COND      DELT      DELC      NGAM      
# ...
   205.63     16.27     48.42     38.41      0.01     -0.03      4.53 
   205.64     16.27     48.42     38.41      0.01     -0.02      4.94 
   205.65     16.27     48.42     38.41      0.01     -0.02      4.53 
   205.66     16.26     48.43     38.41      0.00     -0.02      4.53 
   205.67     16.26     48.44     38.42      0.00     -0.01      5.35 
   205.68     16.26     48.44     38.41      0.00     -0.01      5.35 
   205.69     16.26     48.44     38.41      0.00     -0.00      6.18 
   205.70     16.26     48.44     38.41      0.00     -0.00      6.18 
   205.71     16.26     48.43     38.41     -0.00      0.00      6.24 
   205.72     16.26     48.44     38.41     -0.00      0.01      7.06 
   205.73     16.26     48.43     38.41     -0.00      0.01      7.06 
   205.74     16.26     48.43     38.41     -0.01      0.01      7.47 
   205.75     16.26     48.43     38.41     -0.01      0.01      7.06 
   205.76     16.26     48.43     38.41     -0.00      0.01      7.06 
   205.77     16.26     48.42     38.41     -0.01      0.01      7.06 
   205.78     16.27     48.42     38.41     -0.01      0.02      7.00 
   205.79     16.27     48.43     38.41     -0.01      0.02      7.88 
   205.80     16.27     48.43     38.41     -0.01      0.03      7.94 
   205.81     16.27     48.42     38.41     -0.01      0.03      7.12 
   205.82     16.27     48.42     38.41     -0.01      0.02      7.53 
   205.83     16.27     48.42     38.41     -0.01      0.02      8.35 
   205.84     16.27     48.41     38.41     -0.00      0.01      7.94 
   205.85     16.27     48.41     38.41      0.00      0.00      7.94 
   205.86     16.27     48.41     38.41      0.01     -0.01      7.12 
   205.87     16.28     48.40     38.41      0.01     -0.01      7.18 
   205.88     16.28     48.39     38.41      0.01     -0.01      7.12 
   205.89     16.28     48.39     38.42      0.01     -0.03      8.35 
   205.90     16.29     48.38     38.41      0.02     -0.04      7.94 
   205.91     16.29     48.37     38.41      0.02     -0.05      8.35 
   205.92     16.29     48.37     38.41      0.02     -0.05      8.76 
   205.93     16.29     48.36     38.41      0.02     -0.05      8.76 
   205.94     16.29     48.36     38.41      0.02     -0.05     10.00 
   205.95     16.29     48.37     38.41      0.01     -0.03     10.00 
   205.96     16.29     48.38     38.41      0.01     -0.03      9.18 
   205.97     16.29     48.37     38.41      0.01     -0.02      8.71 
   205.98     16.28     48.38     38.41      0.00     -0.01      9.12 
   205.99     16.28     48.38     38.41      0.00     -0.01      8.71 
   206.00     16.28     48.39     38.41     -0.00     -0.00      8.71 
   206.01     16.28     48.40     38.42     -0.00      0.01      8.29 
   206.02     16.28     48.40     38.41     -0.00      0.01      7.88 
   206.03     16.28     48.40     38.41     -0.00      0.01      7.88 
   206.04     16.28     48.40     38.42     -0.00      0.02      7.41 
   206.05     16.28     48.40     38.41     -0.00      0.01      7.82 
   206.06     16.28     48.40     38.41     -0.00      0.00      5.76 
   206.07     16.28     48.40     38.41      0.00      0.00      5.76 
   206.08     16.28     48.40     38.42      0.00     -0.00      5.35 
   206.09     16.28     48.39     38.41      0.01     -0.01      5.35 
   206.10     16.28     48.39     38.41      0.01     -0.02      5.76 
   206.11     16.28     48.40     38.41      0.00     -0.01      4.53 
   206.12     16.28     48.40     38.41      0.00     -0.01      4.12 
   206.13     16.28     48.40     38.42      0.00     -0.00      4.12 
   206.14     16.28     48.40     38.41      0.00     -0.00      4.53 
   206.15     16.28     48.39     38.41      0.00     -0.01      4.12 
   206.16     16.28     48.40     38.42      0.01     -0.01      4.53 
   206.17     16.28     48.39     38.42      0.01     -0.01      4.12 
   206.18     16.28     48.40     38.42      0.01     -0.01      4.94 
   206.19     16.28     48.40     38.41      0.00     -0.01      5.35 
   206.20     16.27     48.41     38.42      0.00      0.00      5.35 
   206.21     16.27     48.42     38.42      0.00      0.00      5.82 
   206.22     16.27     48.42     38.42      0.00      0.00      5.00 
   206.23     16.27     48.41     38.41      0.00     -0.01      5.82 
   206.24     16.27     48.41     38.41      0.01     -0.02      6.65 
   206.25     16.27     48.42     38.42      0.01     -0.02      6.24 
   206.26     16.27     48.42     38.42      0.01     -0.02      6.65 
   206.27     16.27     48.42     38.41      0.01     -0.03      7.06 
   206.28     16.27     48.42     38.41      0.01     -0.02      7.47 
   206.29     16.27     48.41     38.41      0.01     -0.01      8.29 
   206.30     16.27     48.41     38.41      0.01     -0.02      7.88 
   206.31     16.27     48.41     38.41      0.01     -0.02      8.29 
   206.32     16.28     48.40     38.41      0.01     -0.02      8.71 
   206.33     16.28     48.40     38.41      0.01     -0.02      8.71 
   206.34     16.28     48.40     38.41      0.01     -0.00      8.29 
   206.35     16.27     48.41     38.41      0.00      0.00      7.47 
   206.36     16.27     48.41     38.41     -0.00      0.01      7.06 
   206.37     16.27     48.41     38.41     -0.00      0.01      7.06 
   206.38     16.27     48.41     38.41      0.00      0.01      6.59 
   206.39     16.27     48.41     38.41      0.00      0.00      7.82 
   206.40     16.27     48.41     38.41      0.00     -0.00      7.41 
   206.41     16.27     48.42     38.41      0.00     -0.00      7.00 
   206.42     16.27     48.42     38.41      0.00     -0.00      7.41 
   206.43     16.27     48.41     38.41      0.00     -0.00      6.59 
   206.44     16.27     48.41     38.41      0.00     -0.00      7.00 
   206.45     16.28     48.40     38.41      0.01     -0.01      7.00 
   206.46     16.28     48.39     38.41      0.01     -0.02      6.59 
   206.47     16.28     48.39     38.41      0.01     -0.02      6.59 
   206.48     16.28     48.39     38.41      0.01     -0.01      5.76 
   206.49     16.28     48.39     38.41      0.01     -0.01      6.18 
   206.50     16.29     48.38     38.41      0.01     -0.01      6.18 
   206.51     16.29     48.37     38.41      0.01     -0.02      6.18 
   206.52     16.29     48.38     38.41      0.01     -0.01      6.18 
   206.53     16.29     48.37     38.41      0.01     -0.01      6.59 
   206.54     16.29     48.37     38.41      0.01     -0.02      6.59 
   206.55     16.29     48.37     38.41      0.01     -0.02      6.59 
   206.56     16.29     48.37     38.41      0.01     -0.02      5.35 
   206.57     16.29     48.37     38.42      0.01     -0.02      5.35 
   206.58     16.29     48.37     38.42      0.01     -0.03      5.35 
   206.59     16.29     48.37     38.42      0.01     -0.03      5.35 
   206.60     16.29     48.37     38.42      0.02     -0.03      5.76 
   206.61     16.29     48.38     38.42      0.02     -0.04      4.94 
   206.62     16.29     48.38     38.42      0.02     -0.04      5.35 
   206.63     16.29     48.38     38.42      0.02     -0.04      5.35 
   206.64     16.29     48.38     38.42      0.02     -0.05      5.35 
   206.65     16.29     48.38     38.41      0.02     -0.05      5.35 
   206.66     16.28     48.39     38.42      0.02     -0.05      4.53 
   206.67     16.28     48.40     38.42      0.02     -0.04      4.53 
   206.68     16.28     48.41     38.42      0.02     -0.03      5.76 
   206.69     16.27     48.41     38.42      0.01     -0.03      6.18 
   206.70     16.27     48.41     38.41      0.01     -0.02      6.59 
   206.71     16.27     48.42     38.42      0.01     -0.02      6.59 
   206.72     16.27     48.42     38.42      0.01     -0.02      6.59 
   206.73     16.27     48.42     38.42      0.01     -0.01      6.59 
   206.74     16.27     48.42     38.42      0.00     -0.01      6.18 
   206.75     16.27     48.42     38.41      0.00     -0.01      6.18 
