#Written by Robertson Geologging WinLogger V1.0/370
~VERSION INFORMATION
#------------------------------------------------------------------------------
 VERS. 2.0 : CWLS LOG ASCII STANDARD - VERSION 2.0
 WRAP. NO  : ONE LINE PER DEPTH STEP
~WELL INFORMATION
#MNEM.UNIT         DATA                                DESCRIPTION OF MNEMONIC
#------------------------------------------------------------------------------
 STRT.M         73.4200                            :   START DEPTH
 STOP.M        406.0200                            :   STOP DEPTH
 STEP.M          0.0100                            :   STEP VALUE
 NULL.        -999.2500                            :   NULL VALUE
 COMP.    WHITE YOUN GREEN                         :   COMPANY NAME
 WELL.    HORDEN SHAFT                             :   WELL NAME
 FLD.     HORDEN                                   :   FIELD NAME
 LOC.     N/A                                      :   LOCATION
 PROV.    N/A                                      :   PROVINCE
 SRVC.    N/A                                      :   SERVICE COMPANY NAME
 DATE.    12 Dec 06                                :   DATE
 UWI.     N/A                                      :   UNIQUE WELL IDENTIFIER
~PARAMETER INFORMATION
#MNEMO.UNIT         VALUE                 DESCRIPTION OF MNEMONIC
#------------------------------------------------------------------------------
~OTHER INFORMATION SECTION
#------------------------------------------------------------------------------
 lLOGGING DOWN
~CURVE INFORMATION
#MNEMO.UNIT         API CODE              CURVE DESCRIPTION
#------------------------------------------------------------------------------
 DEPTH.M                                 :   0     Depth
 TEMP.DegC                               :   1     Temperature
 CN25.mS/cm                              :   2     Conductivity@25DegC
 COND.mS/cm                              :   3     Conductivity
 DELT.DegC                               :   4     Delta T
 DELC.mS/cm                              :   5     Delta C
 NGAM.CPS                                :   6     Natural Gamma
#------------------------------------------------------------------------------
~A  DEPTH     TEMP      CN25      COND      DELT      DELC      NGAM      
# ...
   316.37     18.01     78.92     67.97      0.02     -0.05      6.41 
   316.38     18.01     78.93     67.97      0.01     -0.04      6.00 
   316.39     18.00     78.94     67.97      0.01     -0.02      6.41 
   316.40     18.00     78.94     67.97      0.01     -0.02      6.53 
   316.41     18.00     78.94     67.97      0.01     -0.01      6.53 
   316.42     18.00     78.94     67.97      0.00     -0.01      6.94 
   316.43     18.00     78.94     67.97      0.00     -0.00      7.76 
   316.44     18.00     78.95     67.97     -0.00      0.01      7.35 
   316.45     18.00     78.96     67.97     -0.00      0.01      7.76 
   316.46     17.99     78.96     67.97     -0.00      0.01      9.00 
   316.47     17.99     78.97     67.97     -0.00      0.01      9.06 
   316.48     17.99     78.96     67.97     -0.00      0.01      9.06 
   316.49     18.00     78.97     67.97     -0.00      0.01      8.65 
   316.50     18.00     78.95     67.97     -0.00      0.00      8.29 
   316.51     18.00     78.95     67.97      0.00     -0.00      8.71 
   316.52     18.00     78.95     67.97      0.00     -0.01      7.88 
   316.53     18.00     78.95     67.97      0.00     -0.01      7.88 
   316.54     18.00     78.95     67.97      0.00     -0.01      7.88 
   316.55     18.00     78.95     67.97      0.01     -0.02      9.12 
   316.56     18.00     78.94     67.96      0.01     -0.04      9.53 
   316.57     18.01     78.93     67.96      0.01     -0.04      9.12 
   316.58     18.01     78.92     67.97      0.02     -0.05      9.12 
   316.59     18.01     78.92     67.97      0.02     -0.05      8.29 
   316.60     18.01     78.92     67.97      0.02     -0.05      7.47 
   316.61     18.01     78.92     67.97      0.01     -0.04      7.82 
   316.62     18.01     78.93     67.97      0.01     -0.03      8.24 
   316.63     18.00     78.93     67.96      0.01     -0.03      7.82 
   316.64     18.00     78.94     67.97      0.01     -0.03      7.35 
   316.65     18.00     78.94     67.97      0.01     -0.03      7.35 
   316.66     18.00     78.95     67.97      0.01     -0.02      7.76 
   316.67     17.99     78.97     67.97      0.00     -0.01      8.12 
   316.68     17.99     78.99     67.97      0.00      0.00      8.53 
   316.69     17.98     78.99     67.97     -0.00      0.00      9.35 
   316.70     17.98     79.00     67.97     -0.00      0.01      8.53 
   316.71     17.98     79.00     67.97     -0.00     -0.00      8.12 
   316.72     17.98     79.00     67.97     -0.00     -0.00      7.29 
   316.73     17.98     79.00     67.97     -0.00      0.00      7.53 
   316.74     17.98     79.00     67.97     -0.00      0.01      7.12 
   316.75     17.98     79.00     67.97     -0.00      0.01      7.12 
   316.76     17.98     79.00     67.97     -0.01      0.02      7.94 
   316.77     17.99     78.99     67.97     -0.01      0.03      7.94 
   316.78     17.99     78.98     67.97     -0.01      0.03      8.00 
   316.79     17.99     78.98     67.97     -0.01      0.04      8.00 
   316.80     17.99     78.98     67.97     -0.02      0.05      7.59 
   316.81     17.99     78.99     67.97     -0.02      0.05      8.29 
   316.82     17.99     78.99     67.97     -0.02      0.05      9.12 
   316.83     17.99     78.98     67.97     -0.01      0.04      9.12 
   316.84     17.99     78.98     67.97     -0.01      0.03      9.59 
   316.85     17.99     78.97     67.97     -0.01      0.02      9.18 
   316.86     17.99     78.96     67.97     -0.01      0.02      8.76 
   316.87     17.99     78.96     67.97     -0.01      0.02      9.47 
   316.88     18.00     78.96     67.97     -0.01      0.02      9.88 
   316.89     18.00     78.96     67.97     -0.01      0.02      9.88 
   316.90     18.00     78.95     67.97     -0.00      0.01      9.24 
   316.91     18.00     78.94     67.97     -0.00      0.01      9.65 
   316.92     18.00     78.94     67.97     -0.00      0.01      9.24 
   316.93     18.00     78.93     67.97     -0.00      0.01      9.12 
   316.94     18.00     78.93     67.97     -0.01      0.02      9.12 
   316.95     18.00     78.93     67.97     -0.01      0.02      9.12 
   316.96     18.00     78.93     67.96     -0.01      0.02      8.71 
   316.97     18.00     78.93     67.96     -0.00      0.01      7.88 
   316.98     18.01     78.92     67.96      0.00     -0.00      7.59 
   316.99     18.01     78.92     67.96      0.00     -0.01      6.76 
   317.00     18.01     78.92     67.96      0.00     -0.01      6.76 
   317.01     18.01     78.93     67.97      0.00     -0.01      5.94 
   317.02     18.00     78.94     67.97      0.00     -0.01      5.94 
   317.03     18.00     78.94     67.97      0.00     -0.00      5.94 
   317.04     18.00     78.94     67.97      0.00     -0.00      6.06 
   317.05     18.00     78.95     67.97      0.00     -0.00      5.65 
   317.06     18.00     78.94     67.97      0.00     -0.01      5.65 
   317.07     18.00     78.94     67.97      0.00     -0.01      5.24 
   317.08     18.00     78.94     67.97      0.00     -0.00      4.82 
   317.09     18.00     78.94     67.97      0.00     -0.00      4.82 
   317.10     18.00     78.95     67.97      0.00     -0.00      5.06 
   317.11     18.00     78.95     67.97      0.00      0.00      5.47 
   317.12     18.00     78.95     67.97      0.00     -0.00      5.06 
   317.13     18.00     78.95     67.97      0.00     -0.01      5.06 
   317.14     18.00     78.94     67.97      0.01     -0.02      5.47 
   317.15     18.00     78.94     67.97      0.00     -0.02      5.47 
   317.16     18.00     78.94     67.97      0.00     -0.02      5.06 
   317.17     18.00     78.95     67.97      0.00     -0.01      4.65 
   317.18     18.00     78.95     67.97      0.00     -0.01      5.35 
   317.19     17.99     78.96     67.97      0.00     -0.02      5.76 
   317.20     17.99     78.97     67.97      0.00     -0.01      7.00 
   317.21     17.99     78.98     67.97      0.00     -0.01      7.41 
   317.22     17.99     78.98     67.97      0.00     -0.01      7.41 
   317.23     17.99     78.98     67.96      0.00     -0.00      7.82 
   317.24     17.99     78.99     67.97     -0.00      0.01      8.24 
   317.25     17.99     79.00     67.97     -0.01      0.03      9.47 
   317.26     17.98     79.00     67.97     -0.01      0.04      9.47 
   317.27     17.98     79.00     67.97     -0.01      0.05      8.94 
   317.28     17.98     79.00     67.97     -0.01      0.05      8.88 
   317.29     17.98     79.00     67.97     -0.02      0.06      9.29 
   317.30     17.99     78.99     67.97     -0.02      0.06     10.12 
   317.31     17.99     78.99     67.97     -0.02      0.06      9.71 
   317.32     17.99     78.99     67.97     -0.02      0.07      9.71 
   317.33     17.99     78.99     67.98     -0.02      0.08      9.71 
   317.34     17.99     78.99     67.98     -0.02      0.08     10.12 
   317.35     17.99     78.98     67.97     -0.02      0.08      9.76 
   317.36     17.99     78.98     67.98     -0.02      0.06      8.94 
   317.37     17.99     78.98     67.98     -0.01      0.05      7.29 
   317.38     17.99     78.98     67.98     -0.01      0.04      6.88 
   317.39     17.99     78.98     67.98     -0.01      0.04      6.88 
   317.40     17.99     78.99     67.98     -0.01      0.04      6.47 
   317.41     17.99     78.99     67.98     -0.01      0.05      7.53 
   317.42     17.99     78.99     67.98     -0.01      0.05      6.29 
   317.43     17.99     78.99     67.98     -0.01      0.04      7.53 
   317.44     17.99     78.99     67.98     -0.01      0.03      7.53 
   317.45     17.99     78.99     67.98     -0.00      0.03      7.59 
   317.46     17.99     78.99     67.98     -0.00      0.03      7.59 
   317.47     17.99     78.99     67.98     -0.00      0.03      7.06 
   317.48     17.99     79.00     67.98     -0.01      0.03      7.06 
   317.49     17.99     79.00     67.98     -0.01      0.05      6.65 
