#Written by Robertson Geologging WinLogger V1.0/312
~VERSION INFORMATION
#------------------------------------------------------------------------------
 VERS. 2.0 : CWLS LOG ASCII STANDARD - VERSION 2.0
 WRAP. NO  : ONE LINE PER DEPTH STEP
~WELL INFORMATION
#MNEM.UNIT         DATA                                DESCRIPTION OF MNEMONIC
#------------------------------------------------------------------------------
 STRT.M         75.1000                            :   START DEPTH
 STOP.M        380.0000                            :   STOP DEPTH
 STEP.M          0.1000                            :   STEP VALUE
 NULL.        -999.2500                            :   NULL VALUE
 COMP.    I.M.C.                                   :   COMPANY NAME
 WELL.    South shaft                              :   WELL NAME
 FLD.     Hordon                                   :   FIELD NAME
 LOC.     N/A                                      :   LOCATION
 PROV.    N/A                                      :   PROVINCE
 SRVC.    N/A                                      :   SERVICE COMPANY NAME
 DATE.    05 Jan 04                                :   DATE
 UWI.     N/A                                      :   UNIQUE WELL IDENTIFIER
~PARAMETER INFORMATION
#MNEMO.UNIT         VALUE                 DESCRIPTION OF MNEMONIC
#------------------------------------------------------------------------------
~OTHER INFORMATION SECTION
#------------------------------------------------------------------------------
 TCGS ex range 1365
~CURVE INFORMATION
#MNEMO.UNIT         API CODE              CURVE DESCRIPTION
#------------------------------------------------------------------------------
 DEPTH.M                                 :   0     Depth
 COND.mS/cm                              :   1     Conductivity
 TEMP.DegC                               :   2     Temperature
 C@25.mS/cm                              :   3     Conductivity @25Deg
 DELT.DegC                               :   4     Delta T
 DC@25.mS/cm                             :   5     Delta C @25Deg
 OUT4.CPS                                :   6     Natural Gamma
#------------------------------------------------------------------------------
~A  DEPTH     COND      TEMP      C@25      DELT      DC@25     OUT4      
# ...
   335.00     12.92     15.61     18.50     -0.01      0.02      5.59 
   335.10     12.93     15.62     18.50      0.01      0.01      7.88 
   335.20     12.92     15.62     18.50      0.00      0.01      6.18 
   335.30     12.92     15.61     18.51     -0.01      0.02      7.65 
   335.40     12.92     15.61     18.51     -0.00      0.01      6.06 
   335.50     12.92     15.61     18.51     -0.00      0.01      4.29 
   335.60     12.93     15.62     18.50      0.00      0.00      5.59 
   335.70     12.92     15.62     18.50     -0.01      0.01      5.24 
   335.80     12.93     15.62     18.50      0.00      0.00      3.65 
   335.90     12.93     15.61     18.51      0.00     -0.00      6.00 
   336.00     12.93     15.61     18.51     -0.00      0.01      7.12 
   336.10     12.93     15.62     18.50     -0.00      0.01      5.71 
   336.20     12.93     15.61     18.50     -0.00      0.01      6.71 
   336.30     12.93     15.62     18.50      0.00     -0.01      5.18 
   336.40     12.93     15.61     18.51      0.00      0.00      7.82 
   336.50     12.93     15.61     18.51     -0.00      0.00      7.12 
   336.60     12.93     15.61     18.51     -0.00      0.00      5.24 
   336.70     12.93     15.61     18.51     -0.00      0.00      9.59 
   336.80     12.92     15.61     18.50     -0.00      0.00      8.88 
   336.90     12.93     15.62     18.51      0.01     -0.01      8.12 
   337.00     12.93     15.62     18.50      0.01     -0.01      6.82 
   337.10     12.93     15.62     18.50      0.01     -0.01      6.88 
   337.20     12.93     15.61     18.51     -0.00      0.00      5.59 
   337.30     12.93     15.61     18.51     -0.00      0.00      5.18 
   337.40     12.93     15.62     18.49      0.01     -0.02      6.00 
   337.50     12.93     15.62     18.50      0.01     -0.01      9.59 
   337.60     12.93     15.62     18.51      0.00     -0.00      7.18 
   337.70     12.93     15.61     18.51     -0.00      0.00      6.00 
   337.80     12.93     15.61     18.51      0.00     -0.00      6.47 
   337.90     12.93     15.61     18.51     -0.01      0.01      8.00 
   338.00     12.93     15.61     18.51     -0.01      0.01      6.00 
   338.10     12.93     15.62     18.50     -0.00      0.01      6.65 
   338.20     12.93     15.62     18.49      0.01     -0.01      7.94 
   338.30     12.93     15.61     18.51     -0.01      0.01      6.94 
   338.40     12.93     15.61     18.51     -0.01      0.01      5.94 
   338.50     12.93     15.61     18.51     -0.00      0.01      5.12 
   338.60     12.93     15.61     18.50     -0.00      0.00      5.47 
   338.70     12.93     15.62     18.50      0.00     -0.01      3.88 
   338.80     12.93     15.62     18.50      0.00     -0.01      5.18 
   338.90     12.93     15.61     18.51      0.00     -0.01      7.18 
   339.00     12.93     15.61     18.51     -0.01      0.01      6.88 
   339.10     12.93     15.61     18.51     -0.00      0.01      5.24 
   339.20     12.93     15.62     18.50     -0.00      0.00      3.94 
   339.30     12.93     15.61     18.51      0.00      0.00      4.71 
   339.40     12.93     15.62     18.50      0.00     -0.00      6.12 
   339.50     12.93     15.61     18.51      0.00     -0.00      8.18 
   339.60     12.93     15.61     18.51     -0.00     -0.00      9.06 
   339.70     12.93     15.62     18.50     -0.00     -0.00      7.06 
   339.80     12.93     15.61     18.51     -0.00      0.00      8.76 
   339.90     12.92     15.62     18.50      0.00     -0.01      7.88 
   340.00     12.93     15.62     18.50      0.01     -0.01      7.12 
   340.10     12.93     15.62     18.50      0.00     -0.00      5.88 
   340.20     12.93     15.61     18.51     -0.01      0.01      5.12 
   340.30     12.93     15.61     18.52     -0.00      0.01      5.76 
   340.40     12.93     15.61     18.52     -0.01      0.01      6.00 
   340.50     12.93     15.61     18.51     -0.00      0.00      7.12 
   340.60     12.93     15.61     18.51     -0.00      0.00      4.35 
   340.70     12.93     15.61     18.51     -0.00      0.01      6.29 
   340.80     12.93     15.61     18.52     -0.01      0.01     10.94 
   340.90     12.93     15.61     18.51      0.00      0.00      7.53 
   341.00     12.93     15.61     18.51     -0.01      0.01      4.06 
   341.10     12.92     15.61     18.51     -0.01      0.01      6.00 
   341.20     12.93     15.61     18.51     -0.00      0.00      5.65 
   341.30     12.93     15.61     18.52     -0.00      0.00      5.53 
   341.40     12.92     15.62     18.50      0.00     -0.01      6.35 
   341.50     12.93     15.61     18.51     -0.00      0.00      5.47 
   341.60     12.93     15.61     18.52     -0.00      0.01      6.12 
   341.70     12.93     15.61     18.51     -0.00      0.00      5.53 
   341.80     12.93     15.61     18.51      0.01     -0.01      5.35 
   341.90     12.93     15.61     18.51     -0.01      0.01      6.88 
   342.00     12.93     15.61     18.52     -0.00      0.01      5.53 
   342.10     12.93     15.61     18.51      0.00     -0.00      5.06 
   342.20     12.93     15.61     18.51      0.00     -0.00      5.94 
   342.30     12.92     15.61     18.51      0.00     -0.01      4.65 
   342.40     12.93     15.61     18.51     -0.01      0.02      3.88 
   342.50     12.93     15.62     18.51      0.00     -0.00      3.88 
   342.60     12.93     15.62     18.50      0.01     -0.01      3.59 
   342.70     12.93     15.61     18.51      0.00     -0.00      5.47 
   342.80     12.93     15.61     18.51     -0.00      0.00      6.71 
   342.90     12.93     15.61     18.51      0.00     -0.00      6.00 
   343.00     12.92     15.61     18.52     -0.00     -0.00      7.88 
   343.10     12.92     15.61     18.51     -0.00      0.00     10.00 
   343.20     12.93     15.60     18.52     -0.01      0.01      7.12 
   343.30     12.93     15.61     18.52     -0.00      0.01      6.47 
   343.40     12.93     15.61     18.51      0.01     -0.01      4.76 
   343.50     12.92     15.61     18.51     -0.00      0.00      3.53 
   343.60     12.92     15.61     18.51     -0.00      0.00      3.94 
   343.70     12.93     15.61     18.51     -0.00      0.00      6.18 
   343.80     12.93     15.61     18.51     -0.01      0.01      6.94 
   343.90     12.93     15.60     18.52     -0.00      0.01      2.71 
   344.00     12.93     15.61     18.52      0.00      0.00      7.29 
   344.10     12.93     15.61     18.51      0.00     -0.01      8.24 
   344.20     12.93     15.62     18.51      0.01     -0.02      5.24 
   344.30     12.92     15.61     18.51      0.00     -0.01      5.00 
   344.40     12.92     15.61     18.51     -0.00      0.00      5.71 
   344.50     12.92     15.62     18.50      0.00     -0.01      6.53 
   344.60     12.93     15.61     18.50      0.00     -0.00      4.29 
   344.70     12.93     15.61     18.51      0.00     -0.00      4.41 
   344.80     12.93     15.61     18.51      0.01     -0.01      3.18 
   344.90     12.93     15.61     18.52     -0.00      0.00      4.35 
   345.00     12.93     15.61     18.51      0.00     -0.01      7.76 
   345.10     12.93     15.61     18.51     -0.00      0.00      9.47 
   345.20     12.93     15.62     18.50      0.00     -0.00      8.76 
   345.30     12.93     15.60     18.52     -0.01      0.01      6.82 
   345.40     12.92     15.61     18.52     -0.00      0.00      5.24 
   345.50     12.92     15.62     18.50      0.00     -0.01      6.65 
   345.60     12.93     15.61     18.51      0.00      0.00      8.53 
   345.70     12.93     15.61     18.51      0.00     -0.00      7.12 
   345.80     12.93     15.62     18.50      0.01     -0.01      6.71 
   345.90     12.92     15.61     18.51      0.01     -0.01      4.82 
   346.00     12.92     15.61     18.51     -0.01      0.01      9.47 
   346.10     12.93     15.60     18.52     -0.01      0.02      7.35 
   346.20     12.93     15.61     18.51     -0.00      0.00      5.88 
