#Written by Robertson Geologging WinLogger V1.0/370
~VERSION INFORMATION
#------------------------------------------------------------------------------
 VERS. 2.0 : CWLS LOG ASCII STANDARD - VERSION 2.0
 WRAP. NO  : ONE LINE PER DEPTH STEP
~WELL INFORMATION
#MNEM.UNIT         DATA                                DESCRIPTION OF MNEMONIC
#------------------------------------------------------------------------------
 STRT.M         73.4200                            :   START DEPTH
 STOP.M        406.0200                            :   STOP DEPTH
 STEP.M          0.0100                            :   STEP VALUE
 NULL.        -999.2500                            :   NULL VALUE
 COMP.    WHITE YOUN GREEN                         :   COMPANY NAME
 WELL.    HORDEN SHAFT                             :   WELL NAME
 FLD.     HORDEN                                   :   FIELD NAME
 LOC.     N/A                                      :   LOCATION
 PROV.    N/A                                      :   PROVINCE
 SRVC.    N/A                                      :   SERVICE COMPANY NAME
 DATE.    12 Dec 06                                :   DATE
 UWI.     N/A                                      :   UNIQUE WELL IDENTIFIER
~PARAMETER INFORMATION
#MNEMO.UNIT         VALUE                 DESCRIPTION OF MNEMONIC
#------------------------------------------------------------------------------
~OTHER INFORMATION SECTION
#------------------------------------------------------------------------------
 lLOGGING DOWN
~CURVE INFORMATION
#MNEMO.UNIT         API CODE              CURVE DESCRIPTION
#------------------------------------------------------------------------------
 DEPTH.M                                 :   0     Depth
 TEMP.DegC                               :   1     Temperature
 CN25.mS/cm                              :   2     Conductivity@25DegC
 COND.mS/cm                              :   3     Conductivity
 DELT.DegC                               :   4     Delta T
 DELC.mS/cm                              :   5     Delta C
 NGAM.CPS                                :   6     Natural Gamma
#------------------------------------------------------------------------------
~A  DEPTH     TEMP      CN25      COND      DELT      DELC      NGAM      
# ...
   293.77     17.99     78.95     67.94     -0.01      0.03      7.71 
   293.78     17.99     78.95     67.94     -0.01      0.03      7.71 
   293.79     17.99     78.93     67.93     -0.01      0.02      7.71 
   293.80     18.00     78.92     67.93     -0.01      0.01      8.12 
   293.81     18.00     78.92     67.93     -0.00      0.01      8.53 
   293.82     18.00     78.92     67.94     -0.01      0.02      8.53 
   293.83     18.00     78.92     67.94     -0.00      0.02      8.12 
   293.84     18.00     78.92     67.94     -0.00      0.01      8.12 
   293.85     18.00     78.91     67.94      0.00     -0.00      7.41 
   293.86     18.01     78.89     67.94      0.01     -0.02      7.00 
   293.87     18.01     78.88     67.94      0.01     -0.04      8.65 
   293.88     18.01     78.87     67.94      0.02     -0.05      7.41 
   293.89     18.01     78.87     67.94      0.02     -0.05      7.41 
   293.90     18.01     78.87     67.93      0.01     -0.04      7.00 
   293.91     18.01     78.87     67.93      0.01     -0.04      7.41 
   293.92     18.01     78.87     67.93      0.02     -0.05      6.59 
   293.93     18.01     78.87     67.93      0.02     -0.06      5.76 
   293.94     18.01     78.87     67.93      0.02     -0.06      5.76 
   293.95     18.01     78.87     67.93      0.02     -0.06      5.76 
   293.96     18.01     78.88     67.93      0.01     -0.05      6.18 
   293.97     18.01     78.89     67.93      0.01     -0.03      7.00 
   293.98     18.00     78.89     67.93      0.01     -0.03      7.00 
   293.99     18.00     78.90     67.93      0.01     -0.02      7.82 
   294.00     18.00     78.90     67.93      0.01     -0.03      8.18 
   294.01     18.00     78.90     67.94      0.01     -0.03      8.18 
   294.02     18.00     78.90     67.94      0.01     -0.04      8.59 
   294.03     18.01     78.90     67.94      0.01     -0.03      8.59 
   294.04     18.01     78.89     67.94      0.01     -0.04      7.35 
   294.05     18.01     78.89     67.94      0.01     -0.04      8.18 
   294.06     18.01     78.89     67.94      0.01     -0.04      8.47 
   294.07     18.01     78.90     67.94      0.02     -0.05      8.88 
   294.08     18.00     78.89     67.93      0.02     -0.05      8.47 
   294.09     18.00     78.90     67.93      0.01     -0.04      8.88 
   294.10     18.00     78.90     67.93      0.01     -0.04      8.88 
   294.11     18.00     78.91     67.94      0.01     -0.02      9.29 
   294.12     18.00     78.92     67.94      0.01     -0.02      9.71 
   294.13     18.00     78.92     67.94      0.00     -0.01     10.53 
   294.14     17.99     78.93     67.94      0.00     -0.01      9.29 
   294.15     17.99     78.94     67.94      0.00     -0.01      8.94 
   294.16     17.99     78.94     67.94      0.00     -0.00      7.71 
   294.17     17.99     78.94     67.94      0.00     -0.00      7.35 
   294.18     17.99     78.94     67.94     -0.00      0.00      7.35 
   294.19     17.99     78.94     67.94     -0.00      0.00      6.94 
   294.20     17.99     78.94     67.94     -0.00      0.01      6.94 
   294.21     17.99     78.95     67.94     -0.00      0.01      6.53 
   294.22     17.99     78.94     67.93      0.00     -0.00      6.53 
   294.23     17.99     78.94     67.93      0.00      0.00      5.82 
   294.24     17.99     78.94     67.93      0.00     -0.01      5.41 
   294.25     17.99     78.93     67.93      0.01     -0.02      5.41 
   294.26     17.99     78.93     67.93      0.00     -0.01      5.00 
   294.27     17.99     78.93     67.93      0.00     -0.00      5.41 
   294.28     17.99     78.94     67.93     -0.00      0.01      5.00 
   294.29     17.99     78.94     67.93     -0.01      0.02      4.18 
   294.30     17.99     78.94     67.93     -0.01      0.02      2.94 
   294.31     17.99     78.94     67.93     -0.01      0.03      3.35 
   294.32     17.99     78.93     67.93     -0.01      0.03      3.71 
   294.33     17.99     78.92     67.93     -0.01      0.03      3.71 
   294.34     18.00     78.92     67.94     -0.01      0.02      4.12 
   294.35     18.00     78.91     67.94     -0.01      0.02      4.53 
   294.36     18.00     78.91     67.94     -0.01      0.02      4.53 
   294.37     18.00     78.91     67.94     -0.00      0.01      4.53 
   294.38     18.00     78.91     67.94     -0.00      0.01      4.53 
   294.39     18.00     78.90     67.94      0.00     -0.01      3.71 
   294.40     18.01     78.89     67.94      0.01     -0.03      4.12 
   294.41     18.01     78.88     67.94      0.02     -0.05      4.12 
   294.42     18.01     78.88     67.94      0.02     -0.06      3.71 
   294.43     18.01     78.89     67.94      0.02     -0.05      4.53 
   294.44     18.01     78.90     67.94      0.01     -0.04      4.12 
   294.45     18.00     78.90     67.93      0.01     -0.03      4.82 
   294.46     18.00     78.91     67.94      0.01     -0.02      5.24 
   294.47     18.00     78.91     67.94      0.01     -0.02      6.06 
   294.48     18.00     78.91     67.94      0.01     -0.03      6.06 
   294.49     18.00     78.92     67.94      0.01     -0.03      5.24 
   294.50     18.00     78.92     67.94      0.01     -0.02      6.06 
   294.51     17.99     78.93     67.94      0.00      0.00      6.71 
   294.52     17.99     78.94     67.94     -0.01      0.02      5.88 
   294.53     17.99     78.95     67.94     -0.01      0.04      6.71 
   294.54     17.99     78.95     67.94     -0.01      0.04      7.12 
   294.55     17.99     78.95     67.94     -0.01      0.03      7.94 
   294.56     17.99     78.95     67.94     -0.01      0.04      7.94 
   294.57     17.99     78.95     67.93     -0.01      0.04      7.94 
   294.58     17.99     78.95     67.93     -0.02      0.05      8.35 
   294.59     17.99     78.94     67.93     -0.02      0.06      8.35 
   294.60     17.99     78.93     67.93     -0.02      0.06      7.53 
   294.61     17.99     78.93     67.93     -0.02      0.06      7.53 
   294.62     18.00     78.92     67.93     -0.02      0.05      8.06 
   294.63     18.00     78.92     67.93     -0.01      0.04      8.06 
   294.64     18.00     78.91     67.93     -0.01      0.03      7.24 
   294.65     18.00     78.90     67.93     -0.01      0.02      7.24 
   294.66     18.00     78.90     67.94     -0.00      0.01      8.88 
   294.67     18.00     78.91     67.94      0.00     -0.00      8.88 
   294.68     18.00     78.91     67.94      0.00     -0.01      8.18 
   294.69     18.00     78.91     67.94      0.00     -0.01      8.18 
   294.70     18.00     78.92     67.94      0.00     -0.01      7.76 
   294.71     18.00     78.91     67.94      0.01     -0.02      7.35 
   294.72     18.00     78.91     67.94      0.01     -0.03      7.76 
   294.73     18.00     78.90     67.94      0.01     -0.04      9.00 
   294.74     18.00     78.90     67.94      0.01     -0.04      8.59 
   294.75     18.00     78.91     67.94      0.02     -0.04      9.41 
   294.76     18.00     78.92     67.94      0.01     -0.04      9.82 
   294.77     18.00     78.91     67.94      0.01     -0.03     10.24 
   294.78     18.00     78.91     67.94      0.01     -0.02     11.06 
   294.79     18.00     78.92     67.94      0.00     -0.00     11.06 
   294.80     18.00     78.92     67.94      0.00     -0.00     10.24 
   294.81     18.00     78.92     67.94      0.00     -0.00     11.06 
   294.82     18.00     78.93     67.94     -0.00      0.00     11.00 
   294.83     17.99     78.93     67.94     -0.00      0.01     10.59 
   294.84     17.99     78.93     67.94     -0.01      0.02      9.76 
   294.85     17.99     78.93     67.94     -0.01      0.04      9.82 
   294.86     18.00     78.92     67.94     -0.01      0.04      9.82 
   294.87     18.00     78.92     67.94     -0.02      0.05      9.41 
   294.88     18.00     78.91     67.93     -0.02      0.04      9.82 
   294.89     18.00     78.91     67.93     -0.01      0.04      9.00 
