#Written by Robertson Geologging WinLogger V1.0/312
~VERSION INFORMATION
#------------------------------------------------------------------------------
 VERS. 2.0 : CWLS LOG ASCII STANDARD - VERSION 2.0
 WRAP. NO  : ONE LINE PER DEPTH STEP
~WELL INFORMATION
#MNEM.UNIT         DATA                                DESCRIPTION OF MNEMONIC
#------------------------------------------------------------------------------
 STRT.M         75.1000                            :   START DEPTH
 STOP.M        380.0000                            :   STOP DEPTH
 STEP.M          0.1000                            :   STEP VALUE
 NULL.        -999.2500                            :   NULL VALUE
 COMP.    I.M.C.                                   :   COMPANY NAME
 WELL.    South shaft                              :   WELL NAME
 FLD.     Hordon                                   :   FIELD NAME
 LOC.     N/A                                      :   LOCATION
 PROV.    N/A                                      :   PROVINCE
 SRVC.    N/A                                      :   SERVICE COMPANY NAME
 DATE.    05 Jan 04                                :   DATE
 UWI.     N/A                                      :   UNIQUE WELL IDENTIFIER
~PARAMETER INFORMATION
#MNEMO.UNIT         VALUE                 DESCRIPTION OF MNEMONIC
#------------------------------------------------------------------------------
~OTHER INFORMATION SECTION
#------------------------------------------------------------------------------
 TCGS ex range 1365
~CURVE INFORMATION
#MNEMO.UNIT         API CODE              CURVE DESCRIPTION
#------------------------------------------------------------------------------
 DEPTH.M                                 :   0     Depth
 COND.mS/cm                              :   1     Conductivity
 TEMP.DegC                               :   2     Temperature
 C@25.mS/cm                              :   3     Conductivity @25Deg
 DELT.DegC                               :   4     Delta T
 DC@25.mS/cm                             :   5     Delta C @25Deg
 OUT4.CPS                                :   6     Natural Gamma
#------------------------------------------------------------------------------
~A  DEPTH     COND      TEMP      C@25      DELT      DC@25     OUT4      
# ...
   154.20      7.98     13.50     15.18      0.01     -0.01      3.06 
   154.30      7.98     13.50     15.18      0.01     -0.00      3.00 
   154.40      7.98     13.49     15.19     -0.01      0.01      2.47 
   154.50      7.98     13.49     15.19     -0.01      0.01      1.29 
   154.60      7.98     13.50     15.18     -0.00      0.01      0.88 
   154.70      7.98     13.49     15.19     -0.00      0.01      0.41 
   154.80      7.98     13.49     15.19     -0.00      0.00      0.94 
   154.90      7.98     13.49     15.19     -0.01      0.01      2.18 
   155.00      7.98     13.50     15.18      0.00     -0.00      2.59 
   155.10      7.98     13.50     15.18     -0.00     -0.00      2.59 
   155.20      7.98     13.49     15.19     -0.01      0.01      2.53 
   155.30      7.98     13.49     15.19     -0.01      0.01      1.24 
   155.40      7.98     13.50     15.18      0.01     -0.01      0.41 
   155.50      7.98     13.50     15.17      0.01     -0.01      0.47 
   155.60      7.98     13.49     15.19     -0.00      0.01      1.82 
   155.70      7.98     13.49     15.19      0.00     -0.00      0.88 
   155.80      7.98     13.49     15.19      0.01     -0.00      1.29 
   155.90      7.98     13.49     15.19      0.00     -0.00      1.29 
   156.00      7.98     13.49     15.19     -0.01      0.01      1.35 
   156.10      7.98     13.50     15.18      0.00     -0.01      2.59 
   156.20      7.98     13.50     15.17      0.01     -0.02      2.18 
   156.30      7.98     13.50     15.18      0.01     -0.01      2.59 
   156.40      7.98     13.50     15.17     -0.00      0.00      1.65 
   156.50      7.98     13.49     15.19     -0.00      0.01      0.94 
   156.60      7.98     13.50     15.18      0.01     -0.00      0.94 
   156.70      7.98     13.49     15.18      0.00     -0.00      1.41 
   156.80      7.98     13.50     15.18      0.00      0.00      2.24 
   156.90      7.98     13.50     15.18      0.00      0.00      0.41 
   157.00      7.98     13.50     15.17      0.01     -0.02      1.82 
   157.10      7.98     13.50     15.18     -0.01      0.01      3.59 
   157.20      7.98     13.49     15.19     -0.01      0.02      3.59 
   157.30      7.98     13.50     15.17      0.00     -0.00      1.76 
   157.40      7.98     13.49     15.18     -0.00      0.01      1.29 
   157.50      7.98     13.49     15.19      0.00      0.00      2.06 
   157.60      7.98     13.49     15.19     -0.01      0.01      3.82 
   157.70      7.98     13.50     15.18      0.00     -0.00      2.24 
   157.80      7.98     13.49     15.19     -0.00     -0.00      1.76 
   157.90      7.98     13.50     15.18      0.00     -0.00      1.76 
   158.00      7.98     13.49     15.19     -0.01      0.01      2.18 
   158.10      7.98     13.49     15.19     -0.01      0.01      2.18 
   158.20      7.98     13.49     15.19      0.00     -0.00      1.35 
   158.30      7.98     13.50     15.17     -0.00     -0.00      3.41 
   158.40      7.98     13.50     15.18      0.00     -0.00      2.53 
   158.50      7.98     13.50     15.18      0.00     -0.01      1.24 
   158.60      7.98     13.50     15.18      0.01     -0.01      1.71 
   158.70      7.98     13.51     15.16      0.01     -0.01      0.00 
   158.80      7.98     13.50     15.18      0.01     -0.00      2.65 
   158.90      7.98     13.50     15.17      0.00     -0.01      3.12 
   159.00      7.98     13.50     15.18      0.00     -0.00      1.35 
   159.10      7.98     13.49     15.19      0.00     -0.01      1.76 
   159.20      7.98     13.49     15.18      0.00     -0.00      1.35 
   159.30      7.98     13.50     15.17      0.00     -0.00      0.88 
   159.40      7.98     13.50     15.18      0.00     -0.00      0.82 
   159.50      7.98     13.50     15.18     -0.00     -0.00      1.71 
   159.60      7.98     13.49     15.18     -0.01      0.01      0.88 
   159.70      7.98     13.50     15.18     -0.01      0.02      1.35 
   159.80      7.98     13.49     15.19     -0.01      0.01      2.59 
   159.90      7.98     13.50     15.18     -0.01      0.01      0.82 
   160.00      7.98     13.50     15.18     -0.00     -0.00      2.65 
   160.10      7.98     13.49     15.18      0.01     -0.00      3.06 
   160.20      7.98     13.49     15.19     -0.01      0.02      3.41 
   160.30      7.98     13.50     15.18     -0.00     -0.00      1.24 
   160.40      7.98     13.50     15.18     -0.00      0.00      2.12 
   160.50      7.98     13.50     15.18     -0.00     -0.00      2.94 
   160.60      7.98     13.50     15.17      0.01     -0.01      1.29 
   160.70      7.98     13.49     15.19     -0.01      0.01      0.00 
   160.80      7.98     13.49     15.20     -0.01      0.00      0.00 
   160.90      7.98     13.50     15.18      0.00      0.00      1.71 
   161.00      7.98     13.49     15.19     -0.00      0.01      2.12 
   161.10      7.98     13.50     15.18      0.00     -0.00      0.82 
   161.20      7.98     13.50     15.19      0.01     -0.01      1.29 
   161.30      7.98     13.50     15.18      0.00      0.00      2.65 
   161.40      7.98     13.50     15.18     -0.00      0.00      4.71 
   161.50      7.98     13.50     15.18      0.00     -0.00      4.24 
   161.60      7.98     13.50     15.18     -0.00      0.00      2.12 
   161.70      7.98     13.50     15.18      0.01     -0.01      2.59 
   161.80      7.98     13.50     15.18      0.01     -0.02      1.82 
   161.90      7.98     13.49     15.19     -0.01      0.01      1.41 
   162.00      7.98     13.49     15.19     -0.00     -0.00      0.47 
   162.10      7.98     13.50     15.18      0.00     -0.01      0.82 
   162.20      7.98     13.50     15.18      0.00     -0.00      2.12 
   162.30      7.98     13.49     15.19     -0.01      0.01      1.29 
   162.40      7.98     13.50     15.18      0.00     -0.00      1.71 
   162.50      7.99     13.50     15.18     -0.00      0.01      2.12 
   162.60      7.98     13.50     15.19      0.00      0.00      2.06 
   162.70      7.98     13.49     15.19     -0.01      0.01      3.29 
   162.80      7.98     13.49     15.19     -0.01      0.01      3.82 
   162.90      7.98     13.50     15.18      0.01     -0.01      2.53 
   163.00      7.98     13.50     15.18      0.01     -0.01      1.76 
   163.10      7.98     13.50     15.18     -0.00      0.00      1.76 
   163.20      7.98     13.50     15.18      0.00      0.00      2.12 
   163.30      7.98     13.50     15.18      0.01     -0.00      2.06 
   163.40      7.98     13.50     15.18      0.00     -0.00      1.65 
   163.50      7.98     13.50     15.19     -0.00      0.00      0.41 
   163.60      7.98     13.49     15.19     -0.01      0.01      0.47 
   163.70      7.98     13.50     15.18      0.00     -0.01      1.76 
   163.80      7.98     13.49     15.19     -0.00      0.00      3.35 
   163.90      7.98     13.49     15.19     -0.01      0.01      2.94 
   164.00      7.98     13.48     15.20     -0.02      0.03      1.35 
   164.10      7.98     13.49     15.19     -0.01      0.01      1.82 
   164.20      7.98     13.49     15.19     -0.01      0.01      2.24 
   164.30      7.98     13.50     15.18     -0.00      0.00      3.06 
   164.40      7.98     13.50     15.18      0.00     -0.00      4.24 
   164.50      7.98     13.49     15.18      0.00      0.00      1.71 
   164.60      7.98     13.49     15.20     -0.01      0.01      1.29 
   164.70      7.98     13.49     15.18     -0.00     -0.00      1.82 
   164.80      7.98     13.50     15.17      0.01     -0.01      1.82 
   164.90      7.98     13.49     15.19      0.00     -0.01      1.29 
   165.00      7.98     13.49     15.19      0.01     -0.01      0.47 
   165.10      7.98     13.48     15.20     -0.01      0.01      3.41 
   165.20      7.98     13.48     15.20     -0.00      0.00      2.47 
   165.30      7.98     13.48     15.21     -0.02      0.03      1.24 
   165.40      7.98     13.49     15.20     -0.01      0.02      1.24 
