#Written by Robertson Geologging WinLogger V1.0/312
~VERSION INFORMATION
#------------------------------------------------------------------------------
 VERS. 2.0 : CWLS LOG ASCII STANDARD - VERSION 2.0
 WRAP. NO  : ONE LINE PER DEPTH STEP
~WELL INFORMATION
#MNEM.UNIT         DATA                                DESCRIPTION OF MNEMONIC
#------------------------------------------------------------------------------
 STRT.M         75.1000                            :   START DEPTH
 STOP.M        380.0000                            :   STOP DEPTH
 STEP.M          0.1000                            :   STEP VALUE
 NULL.        -999.2500                            :   NULL VALUE
 COMP.    I.M.C.                                   :   COMPANY NAME
 WELL.    South shaft                              :   WELL NAME
 FLD.     Hordon                                   :   FIELD NAME
 LOC.     N/A                                      :   LOCATION
 PROV.    N/A                                      :   PROVINCE
 SRVC.    N/A                                      :   SERVICE COMPANY NAME
 DATE.    05 Jan 04                                :   DATE
 UWI.     N/A                                      :   UNIQUE WELL IDENTIFIER
~PARAMETER INFORMATION
#MNEMO.UNIT         VALUE                 DESCRIPTION OF MNEMONIC
#------------------------------------------------------------------------------
~OTHER INFORMATION SECTION
#------------------------------------------------------------------------------
 TCGS ex range 1365
~CURVE INFORMATION
#MNEMO.UNIT         API CODE              CURVE DESCRIPTION
#------------------------------------------------------------------------------
 DEPTH.M                                 :   0     Depth
 COND.mS/cm                              :   1     Conductivity
 TEMP.DegC                               :   2     Temperature
 C@25.mS/cm                              :   3     Conductivity @25Deg
 DELT.DegC                               :   4     Delta T
 DC@25.mS/cm                             :   5     Delta C @25Deg
 OUT4.CPS                                :   6     Natural Gamma
#------------------------------------------------------------------------------
~A  DEPTH     COND      TEMP      C@25      DELT      DC@25     OUT4      
# ...
   312.40     11.67     16.44     15.77     -0.01      0.01      3.65 
   312.50     11.68     16.44     15.78     -0.01      0.01      4.35 
   312.60     11.68     16.44     15.77      0.00     -0.00      6.06 
   312.70     11.68     16.44     15.77     -0.00      0.00      4.76 
   312.80     11.68     16.45     15.77      0.00     -0.01      6.00 
   312.90     11.68     16.45     15.77     -0.00      0.01      6.82 
   313.00     11.68     16.44     15.78     -0.01      0.01      7.29 
   313.10     11.68     16.44     15.77      0.00      0.00      8.12 
   313.20     11.68     16.45     15.76      0.01     -0.01      7.82 
   313.30     11.67     16.45     15.76      0.01     -0.02      7.29 
   313.40     11.67     16.44     15.76      0.00     -0.01      4.71 
   313.50     11.67     16.44     15.77      0.01     -0.01      4.41 
   313.60     11.67     16.44     15.78     -0.00      0.01      3.82 
   313.70     11.67     16.44     15.77     -0.00      0.00      4.06 
   313.80     11.68     16.44     15.77     -0.01      0.01      4.94 
   313.90     11.67     16.44     15.78     -0.01      0.00      4.29 
   314.00     11.67     16.44     15.78     -0.00      0.00      8.82 
   314.10     11.67     16.43     15.78     -0.01      0.02      7.59 
   314.20     11.67     16.44     15.77     -0.01      0.01      3.88 
   314.30     11.68     16.44     15.77     -0.01      0.02      7.41 
   314.40     11.68     16.44     15.77     -0.00      0.00      6.76 
   314.50     11.67     16.44     15.77      0.00     -0.00      6.00 
   314.60     11.67     16.44     15.78     -0.00      0.00      5.18 
   314.70     11.67     16.43     15.78     -0.01      0.01      6.06 
   314.80     11.68     16.44     15.77      0.00      0.00      5.65 
   314.90     11.68     16.44     15.78     -0.00      0.01      7.47 
   315.00     11.67     16.44     15.77      0.01     -0.01      6.35 
   315.10     11.67     16.44     15.76      0.01     -0.02      6.41 
   315.20     11.68     16.44     15.78     -0.01      0.01      3.94 
   315.30     11.68     16.45     15.77      0.00     -0.01      5.24 
   315.40     11.68     16.45     15.76      0.00     -0.00      6.06 
   315.50     11.68     16.44     15.76      0.00      0.00      5.65 
   315.60     11.68     16.44     15.77      0.01     -0.01      8.00 
   315.70     11.67     16.45     15.76      0.01     -0.02      5.12 
   315.80     11.68     16.45     15.76      0.00     -0.01      2.35 
   315.90     11.67     16.44     15.77      0.00     -0.01      4.29 
   316.00     11.67     16.44     15.77     -0.00      0.00      5.41 
   316.10     11.67     16.45     15.76      0.00     -0.00      5.88 
   316.20     11.67     16.44     15.77      0.00     -0.01      2.35 
   316.30     11.67     16.44     15.77     -0.00      0.00      3.71 
   316.40     11.67     16.44     15.77     -0.01      0.00      5.06 
   316.50     11.67     16.45     15.76      0.00     -0.01      4.47 
   316.60     11.67     16.44     15.77     -0.01      0.01      3.24 
   316.70     11.67     16.44     15.77     -0.00      0.01      5.94 
   316.80     11.67     16.44     15.76     -0.00     -0.00      6.41 
   316.90     11.67     16.44     15.77      0.00     -0.00      6.06 
   317.00     11.67     16.44     15.76      0.00     -0.00      8.12 
   317.10     11.67     16.44     15.78     -0.00      0.01      6.41 
   317.20     11.67     16.44     15.78     -0.01      0.01      4.18 
   317.30     11.67     16.45     15.76      0.01     -0.01      7.82 
   317.40     11.67     16.44     15.78     -0.01      0.01     10.29 
   317.50     11.67     16.44     15.77     -0.01      0.01      5.06 
   317.60     11.67     16.44     15.78     -0.00      0.01      4.35 
   317.70     11.67     16.44     15.77     -0.00      0.00      3.59 
   317.80     11.67     16.44     15.77     -0.00      0.01      5.59 
   317.90     11.67     16.44     15.77      0.00      0.00      8.53 
   318.00     11.67     16.44     15.77      0.00      0.00      8.41 
   318.10     11.67     16.44     15.77      0.00      0.00      4.82 
   318.20     11.67     16.44     15.77      0.01     -0.01      5.76 
   318.30     11.67     16.44     15.77     -0.01      0.01      3.65 
   318.40     11.67     16.44     15.77      0.00     -0.00      3.94 
   318.50     11.67     16.44     15.77      0.01     -0.02      5.53 
   318.60     11.67     16.44     15.76      0.00     -0.01      5.06 
   318.70     11.67     16.43     15.78     -0.01      0.01      5.82 
   318.80     11.67     16.43     15.78     -0.01      0.01      7.29 
   318.90     11.67     16.44     15.77     -0.00      0.00      8.59 
   319.00     11.68     16.44     15.76      0.00      0.00      7.18 
   319.10     11.67     16.44     15.77     -0.00     -0.00      7.88 
   319.20     11.68     16.44     15.77     -0.00      0.00      5.53 
   319.30     11.67     16.44     15.77      0.00     -0.01      5.24 
   319.40     11.67     16.45     15.76      0.01     -0.01      6.82 
   319.50     11.67     16.45     15.76      0.00     -0.00      6.29 
   319.60     11.67     16.44     15.77     -0.00      0.00      3.94 
   319.70     11.68     16.44     15.77      0.01     -0.01      7.53 
   319.80     11.67     16.44     15.77      0.01     -0.01      6.71 
   319.90     11.67     16.44     15.77     -0.00      0.00      5.53 
   320.00     11.67     16.45     15.76      0.01     -0.01      7.18 
   320.10     11.67     16.44     15.77      0.00     -0.00      6.29 
   320.20     11.67     16.45     15.76      0.00     -0.01      6.29 
   320.30     11.67     16.44     15.77      0.00     -0.00      6.88 
   320.40     11.67     16.45     15.77     -0.00     -0.00      4.88 
   320.50     11.67     16.44     15.77     -0.01      0.01      3.65 
   320.60     11.68     16.45     15.76      0.01     -0.01      4.06 
   320.70     11.68     16.44     15.77     -0.00      0.01      6.06 
   320.80     11.67     16.44     15.77      0.00     -0.00      7.12 
   320.90     11.67     16.45     15.76      0.01     -0.02      9.53 
   321.00     11.68     16.44     15.77     -0.00      0.01      6.12 
   321.10     11.68     16.44     15.77     -0.00      0.00      3.82 
   321.20     11.67     16.44     15.78     -0.01      0.02      3.94 
   321.30     11.67     16.44     15.77     -0.00      0.00      7.53 
   321.40     11.68     16.44     15.76     -0.00      0.00      7.24 
   321.50     11.68     16.44     15.77     -0.00      0.00      4.41 
   321.60     11.68     16.45     15.76      0.00     -0.01      7.29 
   321.70     11.68     16.44     15.77      0.00      0.00      8.18 
   321.80     11.68     16.44     15.77     -0.00      0.00      5.29 
   321.90     11.67     16.44     15.77     -0.01      0.01      5.24 
   322.00     11.68     16.44     15.77     -0.00      0.00      7.59 
   322.10     11.67     16.44     15.77     -0.00      0.00      6.18 
   322.20     11.68     16.45     15.77      0.01     -0.01      4.59 
   322.30     11.68     16.44     15.77      0.00     -0.00      4.71 
   322.40     11.68     16.44     15.77     -0.00      0.00      4.76 
   322.50     11.68     16.44     15.77      0.00     -0.00      8.76 
   322.60     11.67     16.44     15.77     -0.01      0.01      7.71 
   322.70     11.68     16.44     15.77      0.00     -0.00      6.82 
   322.80     11.68     16.44     15.77     -0.00      0.00      8.71 
   322.90     11.68     16.44     15.78     -0.01      0.01      5.29 
   323.00     11.68     16.45     15.77      0.01     -0.01      4.47 
   323.10     11.68     16.43     15.79     -0.01      0.02      5.24 
   323.20     11.67     16.44     15.77     -0.01      0.01      3.76 
   323.30     11.68     16.44     15.77      0.00     -0.00      4.65 
   323.40     11.68     16.44     15.77      0.00      0.00      6.06 
   323.50     11.68     16.44     15.77     -0.00      0.01      6.06 
   323.60     11.67     16.44     15.77     -0.00      0.00      4.82 
