#Written by Robertson Geologging WinLogger V1.0/312
~VERSION INFORMATION
#------------------------------------------------------------------------------
 VERS. 2.0 : CWLS LOG ASCII STANDARD - VERSION 2.0
 WRAP. NO  : ONE LINE PER DEPTH STEP
~WELL INFORMATION
#MNEM.UNIT         DATA                                DESCRIPTION OF MNEMONIC
#------------------------------------------------------------------------------
 STRT.M         75.1000                            :   START DEPTH
 STOP.M        380.0000                            :   STOP DEPTH
 STEP.M          0.1000                            :   STEP VALUE
 NULL.        -999.2500                            :   NULL VALUE
 COMP.    I.M.C.                                   :   COMPANY NAME
 WELL.    South shaft                              :   WELL NAME
 FLD.     Hordon                                   :   FIELD NAME
 LOC.     N/A                                      :   LOCATION
 PROV.    N/A                                      :   PROVINCE
 SRVC.    N/A                                      :   SERVICE COMPANY NAME
 DATE.    05 Jan 04                                :   DATE
 UWI.     N/A                                      :   UNIQUE WELL IDENTIFIER
~PARAMETER INFORMATION
#MNEMO.UNIT         VALUE                 DESCRIPTION OF MNEMONIC
#------------------------------------------------------------------------------
~OTHER INFORMATION SECTION
#------------------------------------------------------------------------------
 TCGS ex range 1365
~CURVE INFORMATION
#MNEMO.UNIT         API CODE              CURVE DESCRIPTION
#------------------------------------------------------------------------------
 DEPTH.M                                 :   0     Depth
 COND.mS/cm                              :   1     Conductivity
 TEMP.DegC                               :   2     Temperature
 C@25.mS/cm                              :   3     Conductivity @25Deg
 DELT.DegC                               :   4     Delta T
 DC@25.mS/cm                             :   5     Delta C @25Deg
 OUT4.CPS                                :   6     Natural Gamma
#------------------------------------------------------------------------------
~A  DEPTH     COND      TEMP      C@25      DELT      DC@25     OUT4      
# ...
   368.90     71.21     17.44     84.45      0.06      1.68     20.53 
   369.00     71.30     17.45     84.52      0.08      1.50     19.41 
   369.10     71.35     17.47     84.54      0.09      1.28     17.71 
   369.20     71.39     17.50     84.50      0.11      1.03     22.35 
   369.30     71.43     17.50     84.53      0.09      0.91     21.29 
   369.40     71.47     17.51     84.54      0.10      0.75     24.82 
   369.50     71.49     17.53     84.52      0.12      0.53     24.65 
   369.60     71.50     17.54     84.48      0.11      0.41     18.41 
   369.70     71.51     17.52     84.55      0.08      0.39     15.35 
   369.80     71.53     17.54     84.51      0.10      0.20     17.53 
   369.90     71.53     17.54     84.51      0.10      0.05     16.29 
   370.00     71.54     17.55     84.50      0.09     -0.02     15.29 
   370.10     71.54     17.53     84.56      0.06      0.03     12.88 
   370.20     71.55     17.54     84.55      0.04      0.06     11.18 
   370.30     71.56     17.54     84.55      0.05      0.01      8.35 
   370.40     71.56     17.55     84.55      0.03      0.02      7.94 
   370.50     71.56     17.54     84.54      0.02      0.03      6.82 
   370.60     71.66     17.55     84.64      0.01      0.16      5.35 
   370.70     71.75     17.57     84.69      0.04      0.15      6.59 
   370.80     71.79     17.58     84.69      0.05      0.17      7.29 
   370.90     71.81     17.58     84.72      0.03      0.22      7.53 
   371.00     71.82     17.59     84.70      0.05      0.18      5.71 
   371.10     71.82     17.61     84.64      0.08      0.08      4.88 
   371.20     71.83     17.61     84.64      0.08      0.09      3.76 
   371.30     71.84     17.61     84.65      0.07      0.11      5.71 
   371.40     71.84     17.61     84.67      0.06      0.13      6.24 
   371.50     71.85     17.62     84.64      0.08      0.09      6.00 
   371.60     71.85     17.61     84.66      0.07     -0.00      4.76 
   371.70     71.85     17.60     84.68      0.03     -0.00      4.24 
   371.80     71.84     17.60     84.70      0.02      0.01      4.82 
   371.90     71.85     17.62     84.65      0.04     -0.07      5.71 
   372.00     71.84     17.62     84.64      0.02     -0.04      5.88 
   372.10     71.84     17.62     84.63      0.01     -0.01      5.82 
   372.20     71.84     17.62     84.64      0.00     -0.00      6.71 
   372.30     71.83     17.61     84.65      0.00     -0.01      8.00 
   372.40     71.84     17.62     84.64      0.01     -0.04      6.47 
   372.50     71.84     17.62     84.63      0.00     -0.02      8.59 
   372.60     71.83     17.61     84.65      0.00     -0.02      5.53 
   372.70     71.83     17.61     84.66      0.00     -0.03      6.71 
   372.80     71.83     17.62     84.63      0.01     -0.07      6.94 
   372.90     71.82     17.62     84.61      0.00     -0.04      5.65 
   373.00     71.83     17.62     84.63     -0.00      0.00      5.47 
   373.10     71.84     17.62     84.62     -0.00      0.00      7.06 
   373.20     71.85     17.62     84.64      0.01     -0.01     10.00 
   373.30     71.85     17.62     84.64      0.01     -0.02      6.24 
   373.40     71.85     17.62     84.64      0.00      0.01      4.24 
   373.50     71.85     17.63     84.62      0.01     -0.02      4.82 
   373.60     71.85     17.63     84.63      0.01     -0.01      4.18 
   373.70     71.85     17.64     84.60      0.03     -0.07      7.94 
   373.80     71.85     17.63     84.60      0.01     -0.02      8.47 
   373.90     71.84     17.63     84.60      0.01     -0.02      8.29 
   374.00     71.84     17.63     84.61      0.01     -0.02      7.76 
   374.10     71.83     17.63     84.60      0.01     -0.04      7.82 
   374.20     71.84     17.64     84.56      0.02     -0.07      9.00 
   374.30     71.83     17.64     84.56      0.02     -0.07      6.47 
   374.40     71.82     17.63     84.59      0.00     -0.04      6.12 
   374.50     71.82     17.64     84.54      0.02     -0.10      4.65 
   374.60     71.81     17.64     84.53      0.01     -0.09      7.00 
   374.70     71.81     17.64     84.54      0.00     -0.05      7.06 
   374.80     71.81     17.63     84.57     -0.01     -0.02      6.29 
   374.90     71.81     17.63     84.56     -0.00     -0.03      4.00 
   375.00     71.80     17.63     84.56      0.00     -0.06      5.29 
   375.10     71.81     17.63     84.57     -0.00     -0.03      6.76 
   375.20     71.80     17.64     84.53     -0.00     -0.03      5.35 
   375.30     71.80     17.63     84.55     -0.01     -0.00      6.12 
   375.40     71.80     17.64     84.54      0.01     -0.06      7.18 
   375.50     71.80     17.63     84.54     -0.01      0.02      7.12 
   375.60     71.80     17.63     84.55     -0.01      0.02      4.71 
   375.70     71.80     17.63     84.54     -0.01      0.00      6.24 
   375.80     71.80     17.63     84.55      0.00     -0.02      6.47 
   375.90     71.87     17.64     84.59      0.01      0.03      6.47 
   376.00     71.93     17.65     84.65      0.02      0.08      7.65 
   376.10     71.95     17.69     84.57      0.05      0.01      6.00 
   376.20     71.98     17.69     84.59      0.04      0.08      7.00 
   376.30     72.00     17.69     84.60      0.06      0.04      8.18 
   376.40     72.01     17.69     84.62      0.05      0.09      5.71 
   376.50     72.07     17.70     84.63      0.07      0.10      3.76 
   376.60     72.27     17.72     84.80      0.09      0.28      3.41 
   376.70     72.60     17.74     85.10      0.11      0.60      6.35 
   376.80     73.05     17.75     85.58      0.12      1.07      6.88 
   376.90     73.49     17.78     86.03      0.13      1.46      6.65 
   377.00     73.68     17.78     86.27      0.12      1.65      6.12 
   377.10     74.05     17.79     86.64      0.10      2.12      3.88 
   377.20     74.50     17.81     87.09      0.12      2.54      5.06 
   377.30     74.94     17.82     87.61      0.12      3.05      5.88 
   377.40     75.26     17.84     87.91      0.15      3.33      5.00 
   377.50     75.54     17.86     88.18      0.15      3.55      8.06 
   377.60     75.86     17.88     88.49      0.15      3.66      6.18 
   377.70     76.15     17.89     88.78      0.15      3.63      6.59 
   377.80     76.45     17.91     89.07      0.15      3.44      8.71 
   377.90     76.77     17.91     89.42      0.14      3.35      7.12 
   378.00     77.03     17.94     89.66      0.16      3.38      5.18 
   378.10     77.24     17.97     89.82      0.18      3.09      5.65 
   378.20     77.42     18.00     89.92      0.20      2.72      8.53 
   378.30     77.58     18.05     89.95      0.23      2.27      7.00 
   378.40     77.73     18.11     89.94      0.27      1.97      6.12 
   378.50     77.83     18.18     89.86      0.32      1.59      5.00 
   378.60     77.87     18.22     89.73      0.34      1.19      5.76 
   378.70     77.89     18.25     89.67      0.37      0.81      8.06 
   378.80     77.93     18.25     89.69      0.34      0.58      7.76 
   378.90     77.98     18.26     89.75      0.34      0.25      7.18 
   379.00     78.00     18.27     89.72      0.33      0.03      7.35 
   379.10     78.01     18.27     89.72      0.30     -0.12      7.94 
   379.20     78.01     18.25     89.81      0.24     -0.10      8.29 
   379.30     78.02     18.25     89.83      0.19     -0.13      6.00 
   379.40     78.02     18.23     89.89      0.11     -0.04      6.00 
   379.50     78.02     18.21     89.94      0.03      0.12      6.71 
   379.60     78.02     18.19     90.00     -0.04      0.29      5.88 
   379.70     78.03     18.15     90.16     -0.11      0.51      6.53 
   379.80     78.02     18.13     90.21     -0.12      0.49      5.41 
   379.90     78.02     18.10     90.30     -0.16      0.58      5.18 
   380.00     78.02     18.07     90.39     -0.20      0.68      5.59 
