#Written by Robertson Geologging WinLogger V1.0/312
~VERSION INFORMATION
#------------------------------------------------------------------------------
 VERS. 2.0 : CWLS LOG ASCII STANDARD - VERSION 2.0
 WRAP. NO  : ONE LINE PER DEPTH STEP
~WELL INFORMATION
#MNEM.UNIT         DATA                                DESCRIPTION OF MNEMONIC
#------------------------------------------------------------------------------
 STRT.M         75.1000                            :   START DEPTH
 STOP.M        380.0000                            :   STOP DEPTH
 STEP.M          0.1000                            :   STEP VALUE
 NULL.        -999.2500                            :   NULL VALUE
 COMP.    I.M.C.                                   :   COMPANY NAME
 WELL.    South shaft                              :   WELL NAME
 FLD.     Hordon                                   :   FIELD NAME
 LOC.     N/A                                      :   LOCATION
 PROV.    N/A                                      :   PROVINCE
 SRVC.    N/A                                      :   SERVICE COMPANY NAME
 DATE.    05 Jan 04                                :   DATE
 UWI.     N/A                                      :   UNIQUE WELL IDENTIFIER
~PARAMETER INFORMATION
#MNEMO.UNIT         VALUE                 DESCRIPTION OF MNEMONIC
#------------------------------------------------------------------------------
~OTHER INFORMATION SECTION
#------------------------------------------------------------------------------
 TCGS ex range 1365
~CURVE INFORMATION
#MNEMO.UNIT         API CODE              CURVE DESCRIPTION
#------------------------------------------------------------------------------
 DEPTH.M                                 :   0     Depth
 COND.mS/cm                              :   1     Conductivity
 TEMP.DegC                               :   2     Temperature
 C@25.mS/cm                              :   3     Conductivity @25Deg
 DELT.DegC                               :   4     Delta T
 DC@25.mS/cm                             :   5     Delta C @25Deg
 OUT4.CPS                                :   6     Natural Gamma
#------------------------------------------------------------------------------
~A  DEPTH     COND      TEMP      C@25      DELT      DC@25     OUT4      
# ...
   109.00      7.96     13.48     15.17      0.01     -0.01      0.41 
   109.10      7.96     13.49     15.17      0.00     -0.00      2.18 
   109.20      7.96     13.48     15.18     -0.00      0.01      3.12 
   109.30      7.96     13.48     15.18      0.00      0.00      0.88 
   109.40      7.96     13.48     15.18      0.00      0.00      0.00 
   109.50      7.96     13.49     15.17      0.02     -0.02      0.88 
   109.60      7.96     13.49     15.17      0.00     -0.00      1.29 
   109.70      7.96     13.49     15.17      0.01     -0.01      0.88 
   109.80      7.96     13.49     15.16      0.00     -0.01      1.35 
   109.90      7.96     13.48     15.18      0.00     -0.00      1.29 
   110.00      7.96     13.48     15.18     -0.01      0.01      1.76 
   110.10      7.96     13.48     15.18     -0.01      0.01      1.35 
   110.20      7.96     13.47     15.19     -0.01      0.01      1.71 
   110.30      7.96     13.48     15.18      0.00     -0.01      0.82 
   110.40      7.96     13.49     15.17      0.01     -0.01      0.41 
   110.50      7.96     13.48     15.18     -0.01      0.02      1.24 
   110.60      7.96     13.48     15.18     -0.01      0.02      0.82 
   110.70      7.96     13.48     15.18     -0.01      0.01      0.00 
   110.80      7.96     13.48     15.17     -0.00      0.01      0.88 
   110.90      7.96     13.48     15.18      0.00     -0.01      1.35 
   111.00      7.96     13.48     15.18      0.00     -0.00      0.88 
   111.10      7.96     13.49     15.17      0.01     -0.01      1.82 
   111.20      7.96     13.48     15.18      0.01     -0.01      2.71 
   111.30      7.96     13.48     15.17      0.00     -0.00      2.24 
   111.40      7.96     13.48     15.18     -0.01      0.01      1.41 
   111.50      7.96     13.49     15.17      0.01     -0.02      1.35 
   111.60      7.96     13.48     15.18      0.01     -0.00      1.29 
   111.70      7.96     13.48     15.18     -0.00      0.00      1.35 
   111.80      7.96     13.48     15.18     -0.00      0.00      1.35 
   111.90      7.96     13.50     15.16      0.01     -0.02      2.24 
   112.00      7.96     13.48     15.17      0.00     -0.01      1.35 
   112.10      7.96     13.48     15.17     -0.00      0.00      0.88 
   112.20      7.96     13.48     15.19     -0.01      0.01      2.24 
   112.30      7.96     13.47     15.19     -0.01      0.02      1.29 
   112.40      7.97     13.47     15.20     -0.01      0.02      1.35 
   112.50      7.96     13.48     15.18     -0.01      0.02      0.82 
   112.60      7.96     13.48     15.17      0.00     -0.00      2.12 
   112.70      7.96     13.48     15.18      0.00     -0.00      2.24 
   112.80      7.96     13.48     15.18     -0.00      0.01      2.65 
   112.90      7.96     13.48     15.17     -0.01      0.02      0.94 
   113.00      7.96     13.49     15.17      0.00     -0.00      1.88 
   113.10      7.96     13.49     15.16      0.01     -0.01      2.71 
   113.20      7.96     13.49     15.17      0.01     -0.02      0.88 
   113.30      7.96     13.49     15.17      0.02     -0.02      2.12 
   113.40      7.96     13.49     15.17      0.02     -0.03      2.18 
   113.50      7.96     13.49     15.17      0.01     -0.01      0.41 
   113.60      7.96     13.49     15.17      0.00     -0.00      1.35 
   113.70      7.96     13.49     15.17      0.01     -0.01      1.82 
   113.80      7.97     13.49     15.17      0.01     -0.01      1.76 
   113.90      7.96     13.49     15.16      0.01     -0.01      1.29 
   114.00      7.96     13.49     15.17      0.01     -0.01      0.41 
   114.10      7.96     13.50     15.16      0.01     -0.01      0.88 
   114.20      7.96     13.49     15.17     -0.00      0.01      1.29 
   114.30      7.96     13.49     15.16      0.00     -0.01      1.71 
   114.40      7.96     13.48     15.17     -0.01      0.01      0.88 
   114.50      7.96     13.49     15.17     -0.00      0.00      1.82 
   114.60      7.96     13.48     15.18     -0.01      0.01      1.41 
   114.70      7.97     13.48     15.19     -0.01      0.02      0.94 
   114.80      7.97     13.49     15.18     -0.00      0.01      1.41 
   114.90      7.97     13.49     15.17      0.00      0.00      1.41 
   115.00      7.97     13.49     15.16     -0.00      0.00      1.35 
   115.10      7.97     13.48     15.18     -0.01      0.02      0.88 
   115.20      7.96     13.48     15.17     -0.01      0.01      0.82 
   115.30      7.96     13.49     15.17     -0.00      0.01      0.41 
   115.40      7.96     13.49     15.17      0.01     -0.01      0.47 
   115.50      7.96     13.48     15.18     -0.00      0.01      2.35 
   115.60      7.96     13.49     15.17      0.01     -0.02      2.82 
   115.70      7.97     13.48     15.18      0.00     -0.00      1.82 
   115.80      7.96     13.48     15.18     -0.00      0.00      2.71 
   115.90      7.96     13.49     15.17     -0.01      0.01      2.76 
   116.00      7.96     13.49     15.17      0.00     -0.00      2.71 
   116.10      7.96     13.49     15.17      0.00     -0.00      2.18 
   116.20      7.97     13.48     15.18      0.00     -0.00      1.71 
   116.30      7.97     13.48     15.18     -0.01      0.01      1.65 
   116.40      7.97     13.49     15.17     -0.00      0.00      0.82 
   116.50      7.97     13.48     15.18      0.00     -0.00      0.00 
   116.60      7.96     13.49     15.18     -0.00     -0.00      0.41 
   116.70      7.96     13.49     15.17      0.01     -0.01      0.41 
   116.80      7.97     13.49     15.17      0.01     -0.00      1.24 
   116.90      7.96     13.49     15.17     -0.00      0.00      1.29 
   117.00      7.96     13.49     15.17     -0.00      0.00      1.35 
   117.10      7.97     13.48     15.18     -0.00      0.01      1.71 
   117.20      7.96     13.49     15.17      0.00     -0.00      0.82 
   117.30      7.96     13.49     15.17      0.00     -0.01      1.24 
   117.40      7.97     13.49     15.17     -0.00     -0.00      1.76 
   117.50      7.97     13.48     15.18      0.00      0.00      1.29 
   117.60      7.97     13.48     15.19     -0.01      0.01      0.82 
   117.70      7.96     13.49     15.17     -0.00     -0.00      0.88 
   117.80      7.97     13.47     15.19     -0.02      0.02      1.71 
   117.90      7.97     13.48     15.19     -0.01      0.01      0.41 
   118.00      7.97     13.48     15.18     -0.01      0.01      0.82 
   118.10      7.97     13.48     15.19     -0.01      0.01      1.71 
   118.20      7.97     13.47     15.19     -0.01      0.02      0.41 
   118.30      7.97     13.49     15.17     -0.00      0.00      1.29 
   118.40      7.97     13.48     15.18     -0.00      0.00      2.53 
   118.50      7.96     13.48     15.18      0.00     -0.00      2.47 
   118.60      7.97     13.48     15.18      0.01     -0.00      2.53 
   118.70      7.97     13.48     15.19     -0.01      0.01      1.88 
   118.80      7.97     13.48     15.19      0.00     -0.01      1.41 
   118.90      7.97     13.48     15.18     -0.00      0.00      1.24 
   119.00      7.96     13.47     15.19     -0.01      0.01      2.06 
   119.10      7.97     13.48     15.18      0.01     -0.01      2.47 
   119.20      7.97     13.48     15.18      0.01     -0.01      3.76 
   119.30      7.97     13.48     15.18     -0.01      0.01      2.18 
   119.40      7.97     13.48     15.18     -0.00      0.00      0.88 
   119.50      7.97     13.49     15.17      0.00     -0.00      1.29 
   119.60      7.97     13.49     15.17      0.01     -0.00      2.59 
   119.70      7.97     13.49     15.17      0.01     -0.02      0.88 
   119.80      7.97     13.49     15.17      0.01     -0.02      0.47 
   119.90      7.97     13.49     15.18      0.01     -0.00      0.47 
   120.00      7.96     13.49     15.17      0.01     -0.02      0.00 
   120.10      7.97     13.49     15.17      0.00     -0.00      0.94 
   120.20      7.97     13.49     15.18      0.00     -0.00      0.88 
