#Written by Robertson Geologging WinLogger V1.0/370
~VERSION INFORMATION
#------------------------------------------------------------------------------
 VERS. 2.0 : CWLS LOG ASCII STANDARD - VERSION 2.0
 WRAP. NO  : ONE LINE PER DEPTH STEP
~WELL INFORMATION
#MNEM.UNIT         DATA                                DESCRIPTION OF MNEMONIC
#------------------------------------------------------------------------------
 STRT.M         73.4200                            :   START DEPTH
 STOP.M        406.0200                            :   STOP DEPTH
 STEP.M          0.0100                            :   STEP VALUE
 NULL.        -999.2500                            :   NULL VALUE
 COMP.    WHITE YOUN GREEN                         :   COMPANY NAME
 WELL.    HORDEN SHAFT                             :   WELL NAME
 FLD.     HORDEN                                   :   FIELD NAME
 LOC.     N/A                                      :   LOCATION
 PROV.    N/A                                      :   PROVINCE
 SRVC.    N/A                                      :   SERVICE COMPANY NAME
 DATE.    12 Dec 06                                :   DATE
 UWI.     N/A                                      :   UNIQUE WELL IDENTIFIER
~PARAMETER INFORMATION
#MNEMO.UNIT         VALUE                 DESCRIPTION OF MNEMONIC
#------------------------------------------------------------------------------
~OTHER INFORMATION SECTION
#------------------------------------------------------------------------------
 lLOGGING DOWN
~CURVE INFORMATION
#MNEMO.UNIT         API CODE              CURVE DESCRIPTION
#------------------------------------------------------------------------------
 DEPTH.M                                 :   0     Depth
 TEMP.DegC                               :   1     Temperature
 CN25.mS/cm                              :   2     Conductivity@25DegC
 COND.mS/cm                              :   3     Conductivity
 DELT.DegC                               :   4     Delta T
 DELC.mS/cm                              :   5     Delta C
 NGAM.CPS                                :   6     Natural Gamma
#------------------------------------------------------------------------------
~A  DEPTH     TEMP      CN25      COND      DELT      DELC      NGAM      
# ...
   381.91     18.40     84.05     73.43      0.01     -8.89    110.94 
   381.92     18.40     84.03     73.41      0.00     -8.85    108.41 
   381.93     18.40     84.00     73.39      0.00     -8.82    111.82 
   381.94     18.40     83.97     73.36      0.00     -8.77    107.82 
   381.95     18.40     83.94     73.33     -0.00     -8.67    105.29 
   381.96     18.40     83.92     73.31     -0.00     -8.58    105.71 
   381.97     18.39     83.88     73.27     -0.01     -8.50    108.76 
   381.98     18.39     83.84     73.24     -0.01     -8.42    103.71 
   381.99     18.39     83.80     73.20     -0.01     -8.33    108.76 
   382.00     18.39     83.75     73.16     -0.01     -8.15    107.71 
   382.01     18.39     83.71     73.13     -0.01     -7.97    108.18 
   382.02     18.40     83.66     73.08     -0.00     -7.83    109.00 
   382.03     18.40     83.60     73.03      0.00     -7.72    105.59 
   382.04     18.40     83.54     72.99     -0.00     -7.57    103.88 
   382.05     18.40     83.49     72.94      0.00     -7.45    101.76 
   382.06     18.40     83.44     72.90     -0.00     -7.35    100.12 
   382.07     18.40     83.40     72.86     -0.00     -7.27     97.59 
   382.08     18.40     83.36     72.82     -0.00     -7.17    100.12 
   382.09     18.39     83.32     72.78     -0.01     -7.10    102.94 
   382.10     18.39     83.28     72.74     -0.01     -7.05    102.06 
   382.11     18.39     83.24     72.70     -0.01     -7.08    102.88 
   382.12     18.39     83.20     72.66     -0.01     -7.13    103.76 
   382.13     18.39     83.16     72.63     -0.01     -7.16    104.59 
   382.14     18.39     83.12     72.60     -0.01     -7.15    105.41 
   382.15     18.39     83.09     72.57     -0.01     -7.09    108.35 
   382.16     18.39     83.06     72.54     -0.01     -7.01    107.53 
   382.17     18.39     83.03     72.52     -0.01     -6.91    107.06 
   382.18     18.39     83.02     72.50     -0.01     -6.77    106.71 
   382.19     18.39     83.00     72.49     -0.01     -6.61    103.76 
   382.20     18.39     83.00     72.48     -0.01     -6.44    105.47 
   382.21     18.38     83.00     72.47     -0.01     -6.23    106.76 
   382.22     18.38     83.00     72.47     -0.01     -6.01    108.88 
   382.23     18.38     83.00     72.46     -0.01     -5.79    110.12 
   382.24     18.38     83.00     72.46     -0.01     -5.54    106.76 
   382.25     18.37     83.01     72.46     -0.01     -5.33    106.24 
   382.26     18.37     83.01     72.45     -0.01     -5.17    107.18 
   382.27     18.37     83.02     72.45     -0.02     -4.98    106.35 
   382.28     18.37     83.02     72.45     -0.01     -4.81    109.53 
   382.29     18.37     83.02     72.45     -0.01     -4.66    110.35 
   382.30     18.37     83.02     72.45     -0.02     -4.54    110.76 
   382.31     18.36     83.03     72.45     -0.02     -4.42    109.53 
   382.32     18.36     83.03     72.45     -0.02     -4.31    109.76 
   382.33     18.36     83.05     72.45     -0.02     -4.18    107.65 
   382.34     18.36     83.04     72.45     -0.02     -4.07    107.65 
   382.35     18.36     83.04     72.44     -0.02     -3.99    105.82 
   382.36     18.35     83.04     72.43     -0.03     -3.88    107.53 
   382.37     18.35     83.05     72.42     -0.03     -3.78    105.00 
   382.38     18.34     83.03     72.40     -0.04     -3.72    108.35 
   382.39     18.34     83.02     72.38     -0.04     -3.68    107.94 
   382.40     18.34     83.01     72.36     -0.04     -3.66    104.59 
   382.41     18.34     82.98     72.34     -0.04     -3.61    107.47 
   382.42     18.34     82.95     72.32     -0.04     -3.55    105.47 
   382.43     18.34     82.92     72.30     -0.04     -3.52    105.47 
   382.44     18.34     82.89     72.27     -0.04     -3.50    105.00 
   382.45     18.34     82.87     72.26     -0.04     -3.47    105.18 
   382.46     18.34     82.85     72.25     -0.04     -3.44    104.76 
   382.47     18.34     82.84     72.24     -0.04     -3.41    104.47 
   382.48     18.35     82.82     72.22     -0.04     -3.39    100.24 
   382.49     18.35     82.80     72.22     -0.04     -3.38     99.59 
   382.50     18.35     82.79     72.22     -0.03     -3.35     97.88 
   382.51     18.35     82.78     72.21     -0.04     -3.31    100.18 
   382.52     18.35     82.78     72.21     -0.04     -3.28    102.29 
   382.53     18.35     82.78     72.20     -0.04     -3.26    102.29 
   382.54     18.35     82.78     72.20     -0.04     -3.23    101.47 
   382.55     18.35     82.78     72.19     -0.05     -3.20     99.24 
   382.56     18.35     82.77     72.19     -0.05     -3.17     97.53 
   382.57     18.35     82.76     72.18     -0.05     -3.12    100.06 
   382.58     18.35     82.75     72.17     -0.05     -3.08     99.71 
   382.59     18.35     82.73     72.16     -0.06     -3.04     99.53 
   382.60     18.35     82.73     72.14     -0.06     -2.99     97.41 
   382.61     18.34     82.72     72.13     -0.07     -2.94     97.88 
   382.62     18.34     82.70     72.11     -0.07     -2.89     97.47 
   382.63     18.34     82.69     72.09     -0.07     -2.83     98.12 
   382.64     18.34     82.66     72.08     -0.06     -2.77     99.29 
   382.65     18.35     82.63     72.07     -0.06     -2.73    104.35 
   382.66     18.35     82.60     72.05     -0.06     -2.70    104.59 
   382.67     18.35     82.59     72.04     -0.05     -2.66    105.88 
   382.68     18.35     82.58     72.03     -0.05     -2.62    108.65 
   382.69     18.35     82.58     72.03     -0.06     -2.56    104.71 
   382.70     18.35     82.59     72.02     -0.06     -2.49    106.76 
   382.71     18.35     82.59     72.03     -0.06     -2.42    107.59 
   382.72     18.34     82.59     72.02     -0.05     -2.36    109.06 
   382.73     18.34     82.60     72.02     -0.05     -2.31    109.06 
   382.74     18.34     82.60     72.02     -0.05     -2.23    107.94 
   382.75     18.34     82.61     72.02     -0.05     -2.16    107.94 
   382.76     18.34     82.62     72.02     -0.06     -2.08    108.94 
   382.77     18.33     82.64     72.02     -0.06     -1.99    109.76 
   382.78     18.33     82.65     72.02     -0.06     -1.92    106.00 
   382.79     18.33     82.65     72.02     -0.06     -1.85    103.47 
   382.80     18.33     82.64     72.02     -0.06     -1.80    103.88 
   382.81     18.34     82.63     72.02     -0.05     -1.76    102.18 
   382.82     18.34     82.62     72.02     -0.05     -1.72     99.47 
   382.83     18.34     82.61     72.02     -0.05     -1.67     99.24 
   382.84     18.34     82.61     72.02     -0.05     -1.62     99.65 
   382.85     18.34     82.61     72.02     -0.05     -1.59     97.24 
   382.86     18.34     82.60     72.02     -0.05     -1.56    102.06 
   382.87     18.34     82.60     72.02     -0.05     -1.53    100.35 
   382.88     18.35     82.58     72.02     -0.05     -1.52    103.29 
   382.89     18.35     82.58     72.02     -0.05     -1.50    101.94 
   382.90     18.35     82.57     72.02     -0.05     -1.48    103.53 
   382.91     18.35     82.58     72.03     -0.05     -1.46    107.12 
   382.92     18.35     82.58     72.03     -0.05     -1.42    106.24 
   382.93     18.35     82.58     72.02     -0.05     -1.39    108.53 
   382.94     18.35     82.58     72.02     -0.05     -1.36    109.41 
   382.95     18.35     82.58     72.02     -0.05     -1.33    110.24 
   382.96     18.35     82.58     72.02     -0.05     -1.30    114.06 
   382.97     18.35     82.57     72.02     -0.04     -1.27    114.24 
   382.98     18.35     82.57     72.02     -0.04     -1.23    116.76 
   382.99     18.35     82.58     72.02     -0.04     -1.18    123.00 
   383.00     18.35     82.57     72.02     -0.04     -1.14    125.53 
   383.01     18.35     82.57     72.02     -0.04     -1.09    124.71 
   383.02     18.35     82.56     72.02     -0.04     -1.04    124.59 
   383.03     18.36     82.55     72.02     -0.04     -0.99    120.35 
