#Written by Robertson Geologging WinLogger V1.0/370
~VERSION INFORMATION
#------------------------------------------------------------------------------
 VERS. 2.0 : CWLS LOG ASCII STANDARD - VERSION 2.0
 WRAP. NO  : ONE LINE PER DEPTH STEP
~WELL INFORMATION
#MNEM.UNIT         DATA                                DESCRIPTION OF MNEMONIC
#------------------------------------------------------------------------------
 STRT.M         73.4200                            :   START DEPTH
 STOP.M        406.0200                            :   STOP DEPTH
 STEP.M          0.0100                            :   STEP VALUE
 NULL.        -999.2500                            :   NULL VALUE
 COMP.    WHITE YOUN GREEN                         :   COMPANY NAME
 WELL.    HORDEN SHAFT                             :   WELL NAME
 FLD.     HORDEN                                   :   FIELD NAME
 LOC.     N/A                                      :   LOCATION
 PROV.    N/A                                      :   PROVINCE
 SRVC.    N/A                                      :   SERVICE COMPANY NAME
 DATE.    12 Dec 06                                :   DATE
 UWI.     N/A                                      :   UNIQUE WELL IDENTIFIER
~PARAMETER INFORMATION
#MNEMO.UNIT         VALUE                 DESCRIPTION OF MNEMONIC
#------------------------------------------------------------------------------
~OTHER INFORMATION SECTION
#------------------------------------------------------------------------------
 lLOGGING DOWN
~CURVE INFORMATION
#MNEMO.UNIT         API CODE              CURVE DESCRIPTION
#------------------------------------------------------------------------------
 DEPTH.M                                 :   0     Depth
 TEMP.DegC                               :   1     Temperature
 CN25.mS/cm                              :   2     Conductivity@25DegC
 COND.mS/cm                              :   3     Conductivity
 DELT.DegC                               :   4     Delta T
 DELC.mS/cm                              :   5     Delta C
 NGAM.CPS                                :   6     Natural Gamma
#------------------------------------------------------------------------------
~A  DEPTH     TEMP      CN25      COND      DELT      DELC      NGAM      
# ...
   184.16     16.25     48.34     38.32      0.01      0.01      7.65 
   184.17     16.25     48.34     38.32      0.01      0.01      8.47 
   184.18     16.26     48.34     38.32      0.01      0.01      8.47 
   184.19     16.26     48.34     38.32      0.01      0.02      8.47 
   184.20     16.26     48.33     38.32      0.01      0.01      8.47 
   184.21     16.26     48.33     38.32      0.01      0.01      8.06 
   184.22     16.26     48.34     38.33      0.01      0.02      7.65 
   184.23     16.26     48.33     38.32      0.01      0.01      8.47 
   184.24     16.26     48.34     38.32      0.01      0.02      7.65 
   184.25     16.25     48.35     38.33      0.01      0.03      8.47 
   184.26     16.25     48.36     38.33      0.00      0.04      8.47 
   184.27     16.25     48.36     38.33      0.00      0.04      7.41 
   184.28     16.25     48.37     38.33      0.00      0.04      7.00 
   184.29     16.25     48.37     38.33      0.00      0.04      7.41 
   184.30     16.24     48.37     38.33      0.00      0.04      8.65 
   184.31     16.24     48.37     38.33      0.00      0.04      8.24 
   184.32     16.24     48.37     38.33      0.00      0.04      9.47 
   184.33     16.24     48.37     38.33      0.00      0.04      8.71 
   184.34     16.24     48.37     38.33      0.00      0.04      9.53 
   184.35     16.24     48.38     38.33      0.00      0.04      9.53 
   184.36     16.24     48.38     38.33      0.01      0.03      9.53 
   184.37     16.24     48.38     38.33      0.00      0.03      9.12 
   184.38     16.24     48.39     38.33      0.00      0.04      9.53 
   184.39     16.23     48.39     38.33     -0.00      0.05      9.53 
   184.40     16.23     48.39     38.33     -0.00      0.05      8.71 
   184.41     16.23     48.40     38.33     -0.01      0.06      9.12 
   184.42     16.23     48.39     38.33     -0.01      0.06      8.71 
   184.43     16.23     48.39     38.33     -0.01      0.07      8.29 
   184.44     16.23     48.40     38.33     -0.01      0.07      8.29 
   184.45     16.24     48.39     38.33     -0.01      0.06      8.29 
   184.46     16.24     48.39     38.33     -0.00      0.06      7.88 
   184.47     16.24     48.39     38.33     -0.00      0.06      7.47 
   184.48     16.24     48.39     38.33     -0.00      0.05      7.88 
   184.49     16.24     48.38     38.33      0.00      0.05      7.06 
   184.50     16.24     48.38     38.33      0.00      0.04      7.41 
   184.51     16.24     48.38     38.33      0.01      0.03      6.18 
   184.52     16.24     48.38     38.33      0.01      0.02      6.18 
   184.53     16.24     48.38     38.33      0.01      0.02      6.59 
   184.54     16.24     48.38     38.33      0.01      0.02      6.59 
   184.55     16.24     48.38     38.33      0.01      0.02      6.59 
   184.56     16.24     48.38     38.33      0.00      0.03      7.06 
   184.57     16.25     48.38     38.34      0.00      0.03      7.47 
   184.58     16.25     48.37     38.33      0.00      0.03      7.47 
   184.59     16.24     48.38     38.34     -0.00      0.04      7.06 
   184.60     16.24     48.38     38.33     -0.00      0.04      7.06 
   184.61     16.24     48.38     38.34     -0.00      0.04      7.47 
   184.62     16.24     48.38     38.34     -0.00      0.04      8.29 
   184.63     16.24     48.38     38.34     -0.00      0.04      8.82 
   184.64     16.25     48.38     38.34     -0.00      0.04      8.00 
   184.65     16.25     48.38     38.34     -0.00      0.03      7.59 
   184.66     16.25     48.37     38.34      0.00      0.03      7.59 
   184.67     16.25     48.37     38.34      0.00      0.02      7.24 
   184.68     16.25     48.36     38.34      0.01      0.01      6.82 
   184.69     16.25     48.36     38.34      0.01     -0.00      6.82 
   184.70     16.26     48.35     38.34      0.01     -0.01      6.94 
   184.71     16.26     48.35     38.33      0.02     -0.02      6.94 
   184.72     16.26     48.35     38.33      0.02     -0.02      6.53 
   184.73     16.26     48.35     38.33      0.01     -0.02      6.47 
   184.74     16.26     48.35     38.34      0.01     -0.02      6.88 
   184.75     16.26     48.35     38.33      0.01     -0.02      7.29 
   184.76     16.26     48.35     38.34      0.01     -0.02      8.53 
   184.77     16.25     48.36     38.34      0.01     -0.02      9.35 
   184.78     16.25     48.37     38.34      0.01     -0.01      8.53 
   184.79     16.24     48.38     38.34      0.00      0.00      7.71 
   184.80     16.24     48.38     38.34     -0.00      0.02      8.00 
   184.81     16.24     48.39     38.34     -0.01      0.02      8.00 
   184.82     16.24     48.39     38.34     -0.01      0.03      8.82 
   184.83     16.24     48.39     38.34     -0.01      0.03      8.82 
   184.84     16.24     48.40     38.34     -0.01      0.03      8.76 
   184.85     16.24     48.39     38.34     -0.01      0.03     10.82 
   184.86     16.24     48.39     38.34     -0.01      0.04     11.24 
   184.87     16.24     48.39     38.34     -0.01      0.03     10.29 
   184.88     16.24     48.38     38.34     -0.00      0.03     10.29 
   184.89     16.25     48.38     38.34     -0.00      0.02     10.29 
   184.90     16.25     48.38     38.34      0.00      0.02     11.53 
   184.91     16.25     48.37     38.34      0.01      0.01     10.71 
   184.92     16.25     48.37     38.34      0.01      0.00      9.88 
   184.93     16.25     48.37     38.34      0.01     -0.00      9.06 
   184.94     16.25     48.37     38.34      0.01     -0.00      8.65 
   184.95     16.25     48.37     38.34      0.02     -0.01      9.47 
   184.96     16.25     48.37     38.34      0.02     -0.01     10.29 
   184.97     16.25     48.37     38.34      0.02     -0.01      9.06 
   184.98     16.25     48.37     38.34      0.02     -0.02      9.47 
   184.99     16.26     48.36     38.34      0.02     -0.02      9.47 
   185.00     16.26     48.37     38.35      0.02     -0.01      9.47 
   185.01     16.26     48.36     38.34      0.02     -0.02      9.47 
   185.02     16.26     48.36     38.35      0.02     -0.02      7.41 
   185.03     16.26     48.36     38.35      0.02     -0.01      7.00 
   185.04     16.26     48.36     38.35      0.02     -0.01      7.82 
   185.05     16.26     48.36     38.35      0.02     -0.01      7.82 
   185.06     16.26     48.36     38.35      0.02     -0.01      9.76 
   185.07     16.26     48.37     38.35      0.02      0.00      9.35 
   185.08     16.25     48.37     38.35      0.01      0.00      9.76 
   185.09     16.25     48.38     38.35      0.01      0.01     10.18 
   185.10     16.25     48.38     38.35      0.01      0.02     10.59 
   185.11     16.25     48.38     38.35      0.01      0.02     11.82 
   185.12     16.25     48.39     38.35      0.00      0.03     11.41 
   185.13     16.25     48.39     38.35     -0.00      0.04     10.59 
   185.14     16.25     48.39     38.35     -0.00      0.04     11.00 
   185.15     16.24     48.39     38.35     -0.01      0.05     10.59 
   185.16     16.24     48.40     38.35     -0.01      0.06     10.59 
   185.17     16.25     48.39     38.35     -0.01      0.05     11.00 
   185.18     16.25     48.38     38.35     -0.01      0.05     11.00 
   185.19     16.25     48.38     38.35     -0.01      0.05     11.00 
   185.20     16.25     48.38     38.35     -0.01      0.05     11.82 
   185.21     16.26     48.37     38.35     -0.00      0.03     11.41 
   185.22     16.26     48.37     38.35     -0.00      0.04     11.82 
   185.23     16.26     48.37     38.35     -0.00      0.03     10.71 
   185.24     16.26     48.37     38.35      0.00      0.02     10.29 
   185.25     16.26     48.37     38.35      0.01      0.01     10.35 
   185.26     16.26     48.37     38.35      0.01      0.01     11.18 
   185.27     16.25     48.37     38.35      0.01      0.00     12.41 
   185.28     16.25     48.37     38.35      0.01      0.01     11.18 
