#Written by Robertson Geologging WinLogger V1.0/312
~VERSION INFORMATION
#------------------------------------------------------------------------------
 VERS. 2.0 : CWLS LOG ASCII STANDARD - VERSION 2.0
 WRAP. NO  : ONE LINE PER DEPTH STEP
~WELL INFORMATION
#MNEM.UNIT         DATA                                DESCRIPTION OF MNEMONIC
#------------------------------------------------------------------------------
 STRT.M         75.1000                            :   START DEPTH
 STOP.M        380.0000                            :   STOP DEPTH
 STEP.M          0.1000                            :   STEP VALUE
 NULL.        -999.2500                            :   NULL VALUE
 COMP.    I.M.C.                                   :   COMPANY NAME
 WELL.    South shaft                              :   WELL NAME
 FLD.     Hordon                                   :   FIELD NAME
 LOC.     N/A                                      :   LOCATION
 PROV.    N/A                                      :   PROVINCE
 SRVC.    N/A                                      :   SERVICE COMPANY NAME
 DATE.    05 Jan 04                                :   DATE
 UWI.     N/A                                      :   UNIQUE WELL IDENTIFIER
~PARAMETER INFORMATION
#MNEMO.UNIT         VALUE                 DESCRIPTION OF MNEMONIC
#------------------------------------------------------------------------------
~OTHER INFORMATION SECTION
#------------------------------------------------------------------------------
 TCGS ex range 1365
~CURVE INFORMATION
#MNEMO.UNIT         API CODE              CURVE DESCRIPTION
#------------------------------------------------------------------------------
 DEPTH.M                                 :   0     Depth
 COND.mS/cm                              :   1     Conductivity
 TEMP.DegC                               :   2     Temperature
 C@25.mS/cm                              :   3     Conductivity @25Deg
 DELT.DegC                               :   4     Delta T
 DC@25.mS/cm                             :   5     Delta C @25Deg
 OUT4.CPS                                :   6     Natural Gamma
#------------------------------------------------------------------------------
~A  DEPTH     COND      TEMP      C@25      DELT      DC@25     OUT4      
# ...
   255.90      9.83     15.03     15.51     -0.01      0.01      6.00 
   256.00      9.83     15.06     15.48      0.01     -0.01     10.06 
   256.10      9.83     15.05     15.48      0.00     -0.00      9.88 
   256.20      9.84     15.04     15.49      0.01     -0.01      6.94 
   256.30      9.83     15.05     15.48     -0.00      0.00      6.76 
   256.40      9.83     15.04     15.49      0.00     -0.00      7.65 
   256.50      9.84     15.04     15.49     -0.00      0.01      6.59 
   256.60      9.84     15.05     15.48      0.00      0.00      5.41 
   256.70      9.84     15.05     15.48     -0.01      0.02      7.47 
   256.80      9.84     15.04     15.49      0.00     -0.00      4.94 
   256.90      9.84     15.06     15.47      0.03     -0.04      3.29 
   257.00      9.83     15.06     15.46      0.00     -0.01      4.53 
   257.10      9.84     15.04     15.50     -0.01      0.02      4.65 
   257.20      9.84     15.05     15.48      0.01     -0.01      2.47 
   257.30      9.83     15.04     15.49     -0.00      0.00      4.53 
   257.40      9.84     15.04     15.49     -0.00      0.00      5.65 
   257.50      9.84     15.04     15.50      0.00     -0.00      5.65 
   257.60      9.84     15.04     15.49     -0.01      0.01      8.59 
   257.70      9.84     15.05     15.49      0.00      0.00      8.65 
   257.80      9.83     15.06     15.46      0.03     -0.04      7.47 
   257.90      9.84     15.05     15.49     -0.01      0.02      6.24 
   258.00      9.84     15.05     15.48     -0.01      0.02      6.18 
   258.10      9.84     15.06     15.48      0.02     -0.02      6.18 
   258.20      9.84     15.06     15.47      0.00      0.00      5.76 
   258.30      9.84     15.04     15.49      0.00      0.00      5.00 
   258.40      9.84     15.05     15.48      0.02     -0.02      4.12 
   258.50      9.84     15.05     15.49      0.01     -0.01      4.41 
   258.60      9.84     15.05     15.49      0.01     -0.02      6.94 
   258.70      9.84     15.06     15.47      0.01     -0.01      7.76 
   258.80      9.84     15.05     15.48     -0.01      0.02      5.76 
   258.90      9.84     15.05     15.48      0.00     -0.00      7.82 
   259.00      9.84     15.04     15.50     -0.01      0.01      8.29 
   259.10      9.84     15.05     15.49     -0.01      0.02      8.71 
   259.20      9.84     15.04     15.49     -0.01      0.01      8.65 
   259.30      9.84     15.05     15.48      0.01     -0.01      6.94 
   259.40      9.84     15.06     15.47      0.00      0.00      6.18 
   259.50      9.84     15.06     15.46      0.02     -0.02      6.29 
   259.60      9.84     15.05     15.48     -0.00      0.00      5.00 
   259.70      9.84     15.05     15.49     -0.01      0.01      5.71 
   259.80      9.84     15.04     15.50     -0.00      0.01      5.35 
   259.90      9.84     15.05     15.49     -0.00      0.01      6.18 
   260.00      9.85     15.04     15.51      0.00      0.00      5.35 
   260.10      9.85     15.06     15.47      0.01     -0.01      7.41 
   260.20      9.85     15.06     15.48      0.01     -0.01      4.94 
   260.30      9.85     15.04     15.50     -0.01      0.02      6.18 
   260.40      9.85     15.06     15.48      0.00      0.00      4.53 
   260.50      9.85     15.06     15.47     -0.00      0.01      3.65 
   260.60      9.85     15.04     15.51     -0.01      0.02      3.65 
   260.70      9.85     15.05     15.50      0.00      0.00      5.00 
   260.80      9.84     15.06     15.48      0.02     -0.02      4.53 
   260.90      9.84     15.04     15.51     -0.01      0.02      3.71 
   261.00      9.85     15.05     15.49      0.00     -0.01      3.29 
   261.10      9.85     15.05     15.49     -0.02      0.03      4.41 
   261.20      9.85     15.05     15.49     -0.01      0.01      4.00 
   261.30      9.85     15.03     15.52     -0.01      0.02      2.47 
   261.40      9.85     15.03     15.52     -0.03      0.05      4.94 
   261.50      9.85     15.03     15.52     -0.02      0.04      4.94 
   261.60      9.86     15.03     15.53     -0.00      0.02      2.88 
   261.70      9.87     15.04     15.53     -0.01      0.05      2.47 
   261.80      9.88     15.05     15.53     -0.01      0.06      1.24 
   261.90      9.89     15.06     15.53      0.02      0.03      1.29 
   262.00      9.91     15.06     15.56      0.02      0.06      1.76 
   262.10      9.93     15.08     15.54      0.04      0.05      0.82 
   262.20      9.94     15.10     15.53      0.06      0.03      0.41 
   262.30      9.94     15.12     15.51      0.08     -0.00      0.00 
   262.40      9.95     15.11     15.53      0.08      0.02      0.41 
   262.50      9.96     15.11     15.55      0.07      0.03      2.06 
   262.60      9.96     15.12     15.54      0.09      0.00      1.18 
   262.70      9.97     15.14     15.52      0.10     -0.01      3.71 
   262.80      9.97     15.15     15.52      0.10     -0.02      2.47 
   262.90      9.99     15.15     15.52      0.09     -0.01      1.65 
   263.00     10.01     15.15     15.55      0.09     -0.00      1.24 
   263.10     10.03     15.16     15.56      0.07      0.02      1.24 
   263.20     10.05     15.20     15.54      0.09      0.02      1.65 
   263.30     10.09     15.21     15.56      0.10      0.05      2.06 
   263.40     10.13     15.23     15.59      0.13      0.05      1.65 
   263.50     10.19     15.26     15.64      0.15      0.09      0.82 
   263.60     10.25     15.30     15.66      0.17      0.12      1.24 
   263.70     10.29     15.34     15.65      0.20      0.12      1.65 
   263.80     10.34     15.38     15.66      0.23      0.14      1.24 
   263.90     10.38     15.43     15.64      0.28      0.11      1.24 
   264.00     10.43     15.45     15.66      0.30      0.11      0.82 
   264.10     10.46     15.50     15.64      0.33      0.07      0.82 
   264.20     10.50     15.52     15.65      0.32      0.11      1.24 
   264.30     10.53     15.54     15.67      0.32      0.10      1.24 
   264.40     10.56     15.57     15.67      0.33      0.06      0.41 
   264.50     10.58     15.60     15.65      0.34      0.00      1.18 
   264.60     10.61     15.60     15.68      0.30      0.02      1.59 
   264.70     10.64     15.63     15.67      0.29      0.02      0.82 
   264.80     10.65     15.65     15.67      0.27      0.01      1.24 
   264.90     10.67     15.66     15.67      0.23      0.03      2.00 
   265.00     10.69     15.68     15.66      0.23     -0.01      1.65 
   265.10     10.72     15.72     15.64      0.21      0.01      0.82 
   265.20     10.73     15.75     15.61      0.23     -0.04      1.65 
   265.30     10.72     15.78     15.57      0.23     -0.10      3.29 
   265.40     10.74     15.77     15.60      0.20     -0.07      1.65 
   265.50     10.78     15.76     15.64      0.17     -0.00      0.41 
   265.60     10.89     15.79     15.74      0.19      0.07      0.41 
   265.70     11.01     15.87     15.79      0.23      0.12      1.65 
   265.80     11.07     15.95     15.75      0.31      0.08      2.06 
   265.90     11.12     16.03     15.69      0.37      0.02      2.06 
   266.00     11.16     16.07     15.67      0.39      0.02      1.24 
   266.10     11.20     16.10     15.69      0.38      0.06      2.47 
   266.20     11.24     16.11     15.72      0.36      0.12      2.06 
   266.30     11.26     16.16     15.68      0.38      0.11      2.47 
   266.40     11.28     16.16     15.70      0.39      0.10      2.88 
   266.50     11.30     16.19     15.69      0.42      0.03      3.29 
   266.60     11.32     16.21     15.68      0.41     -0.08      2.47 
   266.70     11.34     16.25     15.64      0.38     -0.15      1.24 
   266.80     11.36     16.28     15.62      0.31     -0.11      2.06 
   266.90     11.38     16.26     15.66      0.23     -0.01      1.65 
   267.00     11.40     16.29     15.66      0.21     -0.01      1.24 
   267.10     11.41     16.30     15.66      0.21     -0.05      2.47 
