#Written by Robertson Geologging WinLogger V1.0/312
~VERSION INFORMATION
#------------------------------------------------------------------------------
 VERS. 2.0 : CWLS LOG ASCII STANDARD - VERSION 2.0
 WRAP. NO  : ONE LINE PER DEPTH STEP
~WELL INFORMATION
#MNEM.UNIT         DATA                                DESCRIPTION OF MNEMONIC
#------------------------------------------------------------------------------
 STRT.M         75.1000                            :   START DEPTH
 STOP.M        380.0000                            :   STOP DEPTH
 STEP.M          0.1000                            :   STEP VALUE
 NULL.        -999.2500                            :   NULL VALUE
 COMP.    I.M.C.                                   :   COMPANY NAME
 WELL.    South shaft                              :   WELL NAME
 FLD.     Hordon                                   :   FIELD NAME
 LOC.     N/A                                      :   LOCATION
 PROV.    N/A                                      :   PROVINCE
 SRVC.    N/A                                      :   SERVICE COMPANY NAME
 DATE.    05 Jan 04                                :   DATE
 UWI.     N/A                                      :   UNIQUE WELL IDENTIFIER
~PARAMETER INFORMATION
#MNEMO.UNIT         VALUE                 DESCRIPTION OF MNEMONIC
#------------------------------------------------------------------------------
~OTHER INFORMATION SECTION
#------------------------------------------------------------------------------
 TCGS ex range 1365
~CURVE INFORMATION
#MNEMO.UNIT         API CODE              CURVE DESCRIPTION
#------------------------------------------------------------------------------
 DEPTH.M                                 :   0     Depth
 COND.mS/cm                              :   1     Conductivity
 TEMP.DegC                               :   2     Temperature
 C@25.mS/cm                              :   3     Conductivity @25Deg
 DELT.DegC                               :   4     Delta T
 DC@25.mS/cm                             :   5     Delta C @25Deg
 OUT4.CPS                                :   6     Natural Gamma
#------------------------------------------------------------------------------
~A  DEPTH     COND      TEMP      C@25      DELT      DC@25     OUT4      
# ...
   267.20     11.42     16.32     15.65      0.20     -0.07      2.47 
   267.30     11.43     16.32     15.65      0.16     -0.03      2.00 
   267.40     11.44     16.32     15.66      0.16     -0.04      1.18 
   267.50     11.45     16.32     15.68      0.13     -0.01      0.82 
   267.60     11.46     16.33     15.66      0.12     -0.01      4.53 
   267.70     11.46     16.33     15.67      0.07      0.04      5.76 
   267.80     11.47     16.33     15.68      0.06      0.05      5.76 
   267.90     11.48     16.33     15.70      0.07      0.03      7.41 
   268.00     11.48     16.34     15.68      0.05      0.02      7.41 
   268.10     11.49     16.33     15.70      0.03      0.05      8.18 
   268.20     11.49     16.34     15.70      0.02      0.05      6.53 
   268.30     11.50     16.34     15.70      0.02      0.05      7.82 
   268.40     11.50     16.35     15.69      0.03      0.03      6.59 
   268.50     11.51     16.35     15.70      0.03      0.03      6.12 
   268.60     11.51     16.35     15.70      0.02      0.03      6.12 
   268.70     11.51     16.36     15.70      0.03      0.02      4.94 
   268.80     11.51     16.35     15.70      0.02      0.02      5.41 
   268.90     11.51     16.34     15.72      0.01      0.03      4.94 
   269.00     11.52     16.35     15.71      0.01      0.03      4.94 
   269.10     11.52     16.36     15.70      0.03     -0.00      7.41 
   269.20     11.52     16.35     15.72      0.01      0.02      8.71 
   269.30     11.52     16.36     15.71      0.02      0.00      6.65 
   269.40     11.52     16.37     15.69      0.02     -0.01      4.35 
   269.50     11.52     16.35     15.72      0.00      0.02      4.53 
   269.60     11.52     16.36     15.70      0.01      0.01      8.06 
   269.70     11.52     16.36     15.71      0.00      0.01      5.76 
   269.80     11.53     16.36     15.72      0.01      0.01      4.94 
   269.90     11.53     16.36     15.72      0.01     -0.00      4.12 
   270.00     11.53     16.37     15.70      0.01     -0.00      6.18 
   270.10     11.53     16.37     15.71      0.01      0.00      7.35 
   270.20     11.53     16.36     15.72      0.01      0.00      6.53 
   270.30     11.53     16.37     15.71      0.00      0.01      6.06 
   270.40     11.53     16.37     15.70      0.00      0.01      7.41 
   270.50     11.53     16.36     15.72      0.01      0.00      6.71 
   270.60     11.53     16.37     15.71      0.01      0.00      7.00 
   270.70     11.54     16.37     15.71      0.01      0.00      4.53 
   270.80     11.53     16.37     15.71      0.01     -0.01      5.76 
   270.90     11.54     16.36     15.73     -0.00      0.01      7.00 
   271.00     11.54     16.35     15.73     -0.01      0.03      7.41 
   271.10     11.54     16.37     15.70      0.01      0.00      7.82 
   271.20     11.54     16.35     15.74     -0.01      0.02      6.24 
   271.30     11.54     16.35     15.74     -0.02      0.03      4.47 
   271.40     11.54     16.37     15.71      0.00     -0.00      4.53 
   271.50     11.54     16.37     15.71      0.01     -0.01      2.88 
   271.60     11.54     16.35     15.74     -0.02      0.03      2.06 
   271.70     11.54     16.36     15.73     -0.01      0.02      3.29 
   271.80     11.54     16.36     15.73     -0.01      0.01      4.53 
   271.90     11.54     16.37     15.72      0.01     -0.01      4.94 
   272.00     11.54     16.36     15.73      0.00      0.00      5.71 
   272.10     11.54     16.37     15.71     -0.00      0.01      7.76 
   272.20     11.54     16.37     15.72      0.02     -0.02      5.71 
   272.30     11.54     16.37     15.72      0.02     -0.02      3.24 
   272.40     11.54     16.38     15.71      0.00      0.00      5.76 
   272.50     11.54     16.37     15.71      0.00      0.00      6.59 
   272.60     11.54     16.37     15.72      0.02     -0.02      9.47 
   272.70     11.55     16.37     15.73      0.01     -0.01      8.65 
   272.80     11.55     16.36     15.74     -0.01      0.02      7.00 
   272.90     11.55     16.36     15.73      0.00      0.01      4.94 
   273.00     11.55     16.37     15.72      0.01     -0.01      4.94 
   273.10     11.55     16.37     15.72      0.01     -0.00      4.88 
   273.20     11.54     16.37     15.71      0.00     -0.00      4.88 
   273.30     11.55     16.36     15.73     -0.00      0.00      2.88 
   273.40     11.55     16.37     15.72     -0.01      0.02      5.29 
   273.50     11.55     16.36     15.73     -0.01      0.02      6.59 
   273.60     11.55     16.36     15.74     -0.01      0.02      4.94 
   273.70     11.55     16.36     15.73     -0.00      0.01      4.53 
   273.80     11.55     16.37     15.73      0.01     -0.01      4.53 
   273.90     11.55     16.36     15.73     -0.00      0.01      7.41 
   274.00     11.55     16.35     15.74     -0.02      0.03      6.24 
   274.10     11.55     16.35     15.74     -0.02      0.03      4.65 
   274.20     11.55     16.36     15.75     -0.01      0.02      4.65 
   274.30     11.55     16.37     15.73     -0.00      0.00      5.29 
   274.40     11.55     16.37     15.72      0.01     -0.01      4.82 
   274.50     11.55     16.36     15.73      0.00      0.00      4.88 
   274.60     11.55     16.36     15.73     -0.00      0.00      4.94 
   274.70     11.55     16.36     15.74      0.00      0.00      7.41 
   274.80     11.55     16.37     15.73     -0.00      0.00      7.00 
   274.90     11.55     16.37     15.73      0.00      0.00      5.35 
   275.00     11.55     16.36     15.73      0.01     -0.01      5.35 
   275.10     11.55     16.37     15.73      0.02     -0.02      8.65 
   275.20     11.55     16.37     15.72      0.01     -0.01      7.41 
   275.30     11.56     16.36     15.75     -0.01      0.02      4.59 
   275.40     11.55     16.38     15.72      0.00      0.00      6.53 
   275.50     11.56     16.36     15.75     -0.01      0.02     10.00 
   275.60     11.56     16.37     15.74      0.01      0.00      9.18 
   275.70     11.56     16.37     15.74      0.01      0.01      6.06 
   275.80     11.57     16.38     15.74      0.01      0.00      4.53 
   275.90     11.57     16.37     15.74      0.01      0.01      5.35 
   276.00     11.57     16.37     15.75      0.01      0.01      5.76 
   276.10     11.58     16.39     15.73      0.01      0.01      7.00 
   276.20     11.59     16.39     15.74      0.02      0.01      3.71 
   276.30     11.60     16.38     15.77      0.02      0.02      4.94 
   276.40     11.60     16.39     15.76      0.01      0.04      5.35 
   276.50     11.60     16.39     15.76      0.04     -0.00      4.94 
   276.60     11.61     16.41     15.73      0.04     -0.00      5.35 
   276.70     11.61     16.41     15.73      0.04     -0.01      9.35 
   276.80     11.61     16.40     15.75      0.02      0.02      7.71 
   276.90     11.61     16.41     15.74      0.04     -0.01      5.35 
   277.00     11.62     16.41     15.75      0.03      0.01      4.94 
   277.10     11.63     16.42     15.75      0.03      0.02      7.00 
   277.20     11.63     16.43     15.73      0.04     -0.01      5.35 
   277.30     11.63     16.41     15.76      0.04     -0.01      5.35 
   277.40     11.63     16.42     15.74      0.03     -0.01      4.53 
   277.50     11.64     16.41     15.77      0.02      0.01      5.29 
   277.60     11.64     16.42     15.76      0.01      0.02      6.53 
   277.70     11.64     16.43     15.75      0.02      0.01      8.65 
   277.80     11.65     16.43     15.75      0.03      0.00      7.00 
   277.90     11.64     16.43     15.76      0.01      0.02      8.24 
   278.00     11.65     16.43     15.76      0.02      0.01      7.82 
   278.10     11.65     16.44     15.75      0.02      0.00      7.00 
   278.20     11.65     16.45     15.73      0.03     -0.01      6.53 
   278.30     11.66     16.45     15.74      0.03     -0.02      5.71 
   278.40     11.66     16.44     15.75      0.02     -0.00      7.00 
