#Written by Robertson Geologging WinLogger V1.0/370
~VERSION INFORMATION
#------------------------------------------------------------------------------
 VERS. 2.0 : CWLS LOG ASCII STANDARD - VERSION 2.0
 WRAP. NO  : ONE LINE PER DEPTH STEP
~WELL INFORMATION
#MNEM.UNIT         DATA                                DESCRIPTION OF MNEMONIC
#------------------------------------------------------------------------------
 STRT.M         73.4200                            :   START DEPTH
 STOP.M        406.0200                            :   STOP DEPTH
 STEP.M          0.0100                            :   STEP VALUE
 NULL.        -999.2500                            :   NULL VALUE
 COMP.    WHITE YOUN GREEN                         :   COMPANY NAME
 WELL.    HORDEN SHAFT                             :   WELL NAME
 FLD.     HORDEN                                   :   FIELD NAME
 LOC.     N/A                                      :   LOCATION
 PROV.    N/A                                      :   PROVINCE
 SRVC.    N/A                                      :   SERVICE COMPANY NAME
 DATE.    12 Dec 06                                :   DATE
 UWI.     N/A                                      :   UNIQUE WELL IDENTIFIER
~PARAMETER INFORMATION
#MNEMO.UNIT         VALUE                 DESCRIPTION OF MNEMONIC
#------------------------------------------------------------------------------
~OTHER INFORMATION SECTION
#------------------------------------------------------------------------------
 lLOGGING DOWN
~CURVE INFORMATION
#MNEMO.UNIT         API CODE              CURVE DESCRIPTION
#------------------------------------------------------------------------------
 DEPTH.M                                 :   0     Depth
 TEMP.DegC                               :   1     Temperature
 CN25.mS/cm                              :   2     Conductivity@25DegC
 COND.mS/cm                              :   3     Conductivity
 DELT.DegC                               :   4     Delta T
 DELC.mS/cm                              :   5     Delta C
 NGAM.CPS                                :   6     Natural Gamma
#------------------------------------------------------------------------------
~A  DEPTH     TEMP      CN25      COND      DELT      DELC      NGAM      
# ...
   404.51     18.49     82.19     72.07      0.01     -0.04    111.71 
   404.52     18.49     82.19     72.07      0.01     -0.05    111.41 
   404.53     18.49     82.19     72.07      0.02     -0.06    114.82 
   404.54     18.49     82.18     72.07      0.02     -0.07    112.06 
   404.55     18.49     82.19     72.07      0.02     -0.05    113.06 
   404.56     18.49     82.20     72.07      0.01     -0.05    112.24 
   404.57     18.49     82.21     72.07      0.01     -0.04    108.82 
   404.58     18.49     82.21     72.06      0.01     -0.04    110.24 
   404.59     18.49     82.21     72.06      0.01     -0.05    109.29 
   404.60     18.49     82.20     72.06      0.02     -0.06    110.53 
   404.61     18.49     82.21     72.07      0.01     -0.04    111.47 
   404.62     18.48     82.22     72.07      0.01     -0.02    112.35 
   404.63     18.48     82.23     72.07      0.00     -0.00    111.59 
   404.64     18.48     82.24     72.07     -0.01      0.02    110.24 
   404.65     18.47     82.25     72.07     -0.01      0.03    111.35 
   404.66     18.47     82.25     72.07     -0.01      0.02    105.24 
   404.67     18.47     82.25     72.06     -0.01      0.03    105.35 
   404.68     18.47     82.26     72.06     -0.01      0.04    110.53 
   404.69     18.47     82.27     72.07     -0.02      0.07    111.59 
   404.70     18.46     82.28     72.07     -0.03      0.10    111.12 
   404.71     18.46     82.28     72.07     -0.03      0.11    112.59 
   404.72     18.46     82.28     72.07     -0.04      0.11    109.35 
   404.73     18.46     82.27     72.07     -0.03      0.10    111.00 
   404.74     18.47     82.27     72.07     -0.03      0.09    111.06 
   404.75     18.47     82.27     72.07     -0.03      0.08    110.06 
   404.76     18.47     82.26     72.07     -0.03      0.08    108.24 
   404.77     18.47     82.26     72.07     -0.02      0.08    104.47 
   404.78     18.47     82.25     72.07     -0.02      0.07    109.41 
   404.79     18.47     82.25     72.07     -0.02      0.07    108.53 
   404.80     18.48     82.23     72.06     -0.02      0.05    108.94 
   404.81     18.48     82.23     72.06     -0.01      0.03    110.06 
   404.82     18.48     82.23     72.06     -0.01      0.02    112.53 
   404.83     18.48     82.22     72.07     -0.01      0.01    111.76 
   404.84     18.48     82.22     72.07     -0.01      0.01    114.29 
   404.85     18.48     82.22     72.07     -0.00      0.01    113.18 
   404.86     18.48     82.21     72.07     -0.01      0.01    111.24 
   404.87     18.49     82.21     72.06     -0.01      0.01    108.76 
   404.88     18.49     82.20     72.06     -0.00      0.00    106.71 
   404.89     18.49     82.20     72.06     -0.00     -0.00    106.35 
   404.90     18.49     82.21     72.07     -0.00      0.00    106.35 
   404.91     18.49     82.21     72.07      0.00      0.00    106.35 
   404.92     18.48     82.22     72.07     -0.00      0.01    105.53 
   404.93     18.48     82.22     72.07     -0.00      0.02    108.47 
   404.94     18.48     82.23     72.07     -0.01      0.03    112.24 
   404.95     18.47     82.24     72.07     -0.02      0.05    110.53 
   404.96     18.47     82.25     72.07     -0.02      0.06    114.94 
   404.97     18.47     82.27     72.07     -0.02      0.06    114.47 
   404.98     18.47     82.27     72.07     -0.02      0.06    114.82 
   404.99     18.47     82.27     72.07     -0.01      0.05    111.06 
   405.00     18.47     82.27     72.07     -0.01      0.04    111.82 
   405.01     18.47     82.26     72.07     -0.01      0.03    107.59 
   405.02     18.46     82.27     72.07     -0.02      0.05    108.35 
   405.03     18.46     82.27     72.07     -0.02      0.06    108.82 
   405.04     18.46     82.28     72.07     -0.02      0.06    109.24 
   405.05     18.46     82.28     72.07     -0.02      0.06    110.94 
   405.06     18.46     82.27     72.07     -0.02      0.05    115.00 
   405.07     18.46     82.28     72.07     -0.02      0.05    116.24 
   405.08     18.47     82.27     72.07     -0.01      0.05    119.18 
   405.09     18.47     82.27     72.07     -0.01      0.04    121.24 
   405.10     18.47     82.26     72.07     -0.01      0.04    118.65 
   405.11     18.47     82.26     72.07     -0.01      0.03    116.71 
   405.12     18.47     82.26     72.07     -0.01      0.04    112.94 
   405.13     18.47     82.26     72.07     -0.01      0.03    108.53 
   405.14     18.47     82.26     72.07     -0.01      0.03    110.24 
   405.15     18.47     82.25     72.07     -0.00      0.01    108.41 
   405.16     18.47     82.24     72.06     -0.00     -0.00    109.71 
   405.17     18.47     82.25     72.06      0.00     -0.01    114.47 
   405.18     18.48     82.24     72.06      0.01     -0.02    116.59 
   405.19     18.47     82.24     72.06      0.00     -0.02    115.47 
   405.20     18.47     82.25     72.07      0.01     -0.02    118.41 
   405.21     18.47     82.25     72.07      0.01     -0.02    116.29 
   405.22     18.47     82.24     72.07      0.01     -0.02    115.53 
   405.23     18.48     82.24     72.07      0.01     -0.03    113.41 
   405.24     18.48     82.23     72.07      0.01     -0.04    111.65 
   405.25     18.48     82.22     72.07      0.01     -0.04    111.18 
   405.26     18.48     82.22     72.07      0.01     -0.03    110.18 
   405.27     18.48     82.22     72.07      0.01     -0.03    112.18 
   405.28     18.48     82.22     72.07      0.01     -0.03    114.00 
   405.29     18.49     82.21     72.07      0.01     -0.04    115.65 
   405.30     18.49     82.20     72.07      0.02     -0.05    115.71 
   405.31     18.49     82.19     72.07      0.02     -0.06    117.76 
   405.32     18.49     82.20     72.07      0.01     -0.04    117.82 
   405.33     18.49     82.21     72.07      0.01     -0.03    117.06 
   405.34     18.48     82.21     72.07      0.01     -0.02    113.82 
   405.35     18.48     82.22     72.07      0.01     -0.03    112.59 
   405.36     18.49     82.21     72.07      0.01     -0.03    110.76 
   405.37     18.49     82.21     72.07      0.01     -0.04    107.06 
   405.38     18.48     82.21     72.06      0.01     -0.04    107.06 
   405.39     18.48     82.22     72.06      0.01     -0.03    109.65 
   405.40     18.48     82.23     72.06      0.00     -0.01    107.94 
   405.41     18.47     82.24     72.06     -0.00      0.00    106.35 
   405.42     18.47     82.24     72.06     -0.00      0.01    107.24 
   405.43     18.47     82.24     72.06     -0.01      0.01    105.29 
   405.44     18.47     82.24     72.06     -0.01      0.02    104.47 
   405.45     18.47     82.25     72.06     -0.01      0.04    104.47 
   405.46     18.47     82.26     72.06     -0.02      0.06    106.18 
   405.47     18.46     82.27     72.06     -0.03      0.07    107.41 
   405.48     18.46     82.28     72.06     -0.03      0.09    105.59 
   405.49     18.46     82.29     72.07     -0.03      0.09    106.00 
   405.50     18.46     82.29     72.07     -0.03      0.09    105.29 
   405.51     18.46     82.29     72.07     -0.03      0.09    106.12 
   405.52     18.46     82.29     72.07     -0.03      0.10    104.82 
   405.53     18.46     82.29     72.07     -0.03      0.11    104.06 
   405.54     18.46     82.29     72.07     -0.03      0.10    103.12 
   405.55     18.46     82.29     72.06     -0.03      0.08    107.76 
   405.56     18.46     82.27     72.06     -0.02      0.06    106.76 
   405.57     18.47     82.26     72.06     -0.02      0.05    108.00 
   405.58     18.47     82.25     72.06     -0.01      0.04    107.41 
   405.59     18.48     82.23     72.07     -0.01      0.03    103.59 
   405.60     18.48     82.22     72.06     -0.01      0.01    104.06 
   405.61     18.48     82.22     72.06     -0.00     -0.00    104.47 
   405.62     18.48     82.22     72.07      0.00     -0.00    105.94 
   405.63     18.48     82.22     72.06      0.00     -0.02    104.24 
