#Written by Robertson Geologging WinLogger V1.0/312
~VERSION INFORMATION
#------------------------------------------------------------------------------
 VERS. 2.0 : CWLS LOG ASCII STANDARD - VERSION 2.0
 WRAP. NO  : ONE LINE PER DEPTH STEP
~WELL INFORMATION
#MNEM.UNIT         DATA                                DESCRIPTION OF MNEMONIC
#------------------------------------------------------------------------------
 STRT.M         75.1000                            :   START DEPTH
 STOP.M        380.0000                            :   STOP DEPTH
 STEP.M          0.1000                            :   STEP VALUE
 NULL.        -999.2500                            :   NULL VALUE
 COMP.    I.M.C.                                   :   COMPANY NAME
 WELL.    South shaft                              :   WELL NAME
 FLD.     Hordon                                   :   FIELD NAME
 LOC.     N/A                                      :   LOCATION
 PROV.    N/A                                      :   PROVINCE
 SRVC.    N/A                                      :   SERVICE COMPANY NAME
 DATE.    05 Jan 04                                :   DATE
 UWI.     N/A                                      :   UNIQUE WELL IDENTIFIER
~PARAMETER INFORMATION
#MNEMO.UNIT         VALUE                 DESCRIPTION OF MNEMONIC
#------------------------------------------------------------------------------
~OTHER INFORMATION SECTION
#------------------------------------------------------------------------------
 TCGS ex range 1365
~CURVE INFORMATION
#MNEMO.UNIT         API CODE              CURVE DESCRIPTION
#------------------------------------------------------------------------------
 DEPTH.M                                 :   0     Depth
 COND.mS/cm                              :   1     Conductivity
 TEMP.DegC                               :   2     Temperature
 C@25.mS/cm                              :   3     Conductivity @25Deg
 DELT.DegC                               :   4     Delta T
 DC@25.mS/cm                             :   5     Delta C @25Deg
 OUT4.CPS                                :   6     Natural Gamma
#------------------------------------------------------------------------------
~A  DEPTH     COND      TEMP      C@25      DELT      DC@25     OUT4      
# ...
   176.80      7.99     13.41     15.32      0.01     -0.01     10.29 
   176.90      7.99     13.40     15.31     -0.00      0.00      7.06 
   177.00      8.00     13.41     15.31      0.00      0.01      8.35 
   177.10      7.99     13.41     15.31      0.01     -0.02      7.12 
   177.20      7.99     13.41     15.30      0.01     -0.02     10.18 
   177.30      8.00     13.40     15.33     -0.01      0.01      8.41 
   177.40      7.99     13.42     15.30     -0.01      0.01     11.06 
   177.50      7.99     13.42     15.29      0.01     -0.02     11.47 
   177.60      7.99     13.42     15.29      0.01     -0.02     16.18 
   177.70      7.99     13.45     15.26      0.04     -0.06     16.41 
   177.80      7.99     13.46     15.23      0.06     -0.08     19.94 
   177.90      7.99     13.47     15.23      0.07     -0.10     22.29 
   178.00      7.99     13.46     15.24      0.05     -0.07     18.53 
   178.10      7.99     13.47     15.23      0.06     -0.08     16.47 
   178.20      7.99     13.48     15.21      0.07     -0.10     16.82 
   178.30      7.99     13.48     15.22      0.08     -0.11     19.71 
   178.40      7.99     13.47     15.22      0.05     -0.07     18.12 
   178.50      7.99     13.48     15.21      0.06     -0.08     13.00 
   178.60      7.99     13.46     15.23      0.04     -0.05     10.76 
   178.70      7.99     13.47     15.24      0.02     -0.02     10.76 
   178.80      7.99     13.47     15.23      0.00     -0.01     10.24 
   178.90      7.99     13.46     15.24     -0.01      0.02     12.71 
   179.00      7.99     13.47     15.23      0.01     -0.01     13.18 
   179.10      7.99     13.46     15.24     -0.01      0.02     11.41 
   179.20      7.99     13.47     15.22     -0.01      0.01     11.82 
   179.30      7.99     13.46     15.24     -0.02      0.02      7.12 
   179.40      7.99     13.47     15.23     -0.00      0.01      7.82 
   179.50      7.99     13.47     15.23     -0.01      0.01      8.35 
   179.60      7.99     13.47     15.23      0.00     -0.00      7.53 
   179.70      7.99     13.46     15.24     -0.01      0.01      6.76 
   179.80      7.99     13.46     15.24     -0.00      0.01     10.88 
   179.90      7.99     13.45     15.25     -0.00      0.00     10.18 
   180.00      7.99     13.45     15.25     -0.02      0.02      5.53 
   180.10      7.99     13.45     15.26     -0.01      0.01      6.76 
   180.20      7.99     13.46     15.24     -0.02      0.02      8.06 
   180.30      7.99     13.44     15.26     -0.02      0.03      7.12 
   180.40      7.99     13.45     15.26     -0.02      0.03      8.35 
   180.50      7.99     13.44     15.27     -0.03      0.04      7.59 
   180.60      7.99     13.44     15.27     -0.02      0.03      6.71 
   180.70      7.99     13.44     15.27     -0.01      0.02      9.35 
   180.80      7.99     13.44     15.27     -0.02      0.03     11.06 
   180.90      7.99     13.44     15.27     -0.02      0.03      9.59 
   181.00      7.99     13.43     15.28     -0.02      0.02      9.76 
   181.10      7.99     13.43     15.28     -0.02      0.03      9.12 
   181.20      8.00     13.42     15.29     -0.03      0.04     11.59 
   181.30      7.99     13.42     15.29     -0.02      0.03     13.94 
   181.40      7.99     13.42     15.29     -0.02      0.03     13.24 
   181.50      7.99     13.43     15.28     -0.01      0.02     15.53 
   181.60      7.99     13.43     15.28     -0.01      0.02     18.12 
   181.70      7.99     13.42     15.29     -0.02      0.03     14.88 
   181.80      8.00     13.43     15.28     -0.01      0.02     13.24 
   181.90      8.00     13.44     15.28      0.00     -0.00     15.06 
   182.00      7.99     13.44     15.28      0.00     -0.01     14.24 
   182.10      7.99     13.45     15.26      0.02     -0.02     14.47 
   182.20      7.99     13.45     15.26      0.02     -0.03     14.41 
   182.30      7.99     13.45     15.25      0.03     -0.03     14.41 
   182.40      7.99     13.47     15.24      0.04     -0.06     14.24 
   182.50      7.99     13.46     15.24      0.03     -0.03     13.41 
   182.60      7.99     13.46     15.24      0.03     -0.03     11.59 
   182.70      7.99     13.45     15.26      0.02     -0.04      7.06 
   182.80      7.99     13.47     15.24      0.03     -0.05      7.41 
   182.90      7.99     13.48     15.22      0.04     -0.06      7.59 
   183.00      7.99     13.46     15.24      0.02     -0.04      5.41 
   183.10      7.99     13.47     15.23      0.03     -0.04      6.35 
   183.20      7.99     13.47     15.23      0.03     -0.04      7.59 
   183.30      7.99     13.48     15.22      0.02     -0.03      7.53 
   183.40      7.99     13.46     15.24     -0.00      0.01      8.53 
   183.50      7.99     13.46     15.24      0.00     -0.00      6.18 
   183.60      7.99     13.45     15.25     -0.00      0.00      9.24 
   183.70      7.99     13.47     15.23      0.02     -0.02     10.88 
   183.80      7.99     13.46     15.24     -0.01      0.01      8.06 
   183.90      7.99     13.46     15.24     -0.01      0.02      6.00 
   184.00      7.99     13.47     15.23      0.01     -0.02      6.88 
   184.10      7.99     13.46     15.24     -0.01      0.01      9.76 
   184.20      7.99     13.48     15.22      0.00     -0.01      7.82 
   184.30      7.99     13.48     15.22      0.00     -0.00      7.06 
   184.40      7.99     13.47     15.23      0.01     -0.01      6.65 
   184.50      7.99     13.47     15.23      0.01     -0.01      6.71 
   184.60      7.99     13.47     15.23      0.01     -0.02      6.71 
   184.70      7.99     13.47     15.22      0.01     -0.01      9.18 
   184.80      7.99     13.48     15.22      0.01     -0.02      5.88 
   184.90      7.99     13.48     15.21      0.01     -0.02      6.47 
   185.00      7.99     13.48     15.22      0.01     -0.01      7.71 
   185.10      7.99     13.48     15.22      0.01     -0.02      6.41 
   185.20      7.99     13.48     15.22      0.00     -0.00      5.82 
   185.30      7.99     13.48     15.21      0.01     -0.01     10.06 
   185.40      7.99     13.48     15.21      0.01     -0.01     11.29 
   185.50      7.99     13.48     15.22      0.01     -0.01      9.00 
   185.60      7.99     13.49     15.21      0.02     -0.02     13.29 
   185.70      7.99     13.49     15.20      0.01     -0.02     13.29 
   185.80      7.99     13.49     15.20      0.01     -0.02     10.82 
   185.90      7.99     13.49     15.19      0.01     -0.02     11.29 
   186.00      7.99     13.49     15.20      0.01     -0.01      8.06 
   186.10      7.99     13.49     15.20      0.01     -0.01     10.94 
   186.20      7.99     13.49     15.20      0.01     -0.02     12.35 
   186.30      7.99     13.49     15.20      0.01     -0.02      9.35 
   186.40      7.99     13.50     15.19      0.02     -0.03     11.35 
   186.50      7.99     13.50     15.19      0.02     -0.02     13.53 
   186.60      7.99     13.50     15.19      0.01     -0.01     13.59 
   186.70      7.99     13.50     15.19      0.02     -0.02      9.76 
   186.80      7.99     13.49     15.19      0.00     -0.00     10.24 
   186.90      7.99     13.49     15.19      0.00     -0.00      7.94 
   187.00      7.99     13.49     15.19      0.00     -0.01      9.12 
   187.10      7.99     13.50     15.19      0.01     -0.02     13.76 
   187.20      7.99     13.50     15.19      0.01     -0.01     10.00 
   187.30      7.99     13.51     15.17      0.02     -0.02      7.59 
   187.40      7.99     13.51     15.18      0.00     -0.01     11.76 
   187.50      7.99     13.51     15.18      0.01     -0.02     12.59 
   187.60      7.99     13.52     15.17      0.02     -0.03      9.65 
   187.70      7.99     13.51     15.17      0.01     -0.01      7.06 
   187.80      7.99     13.51     15.18      0.01     -0.02      5.47 
   187.90      7.99     13.50     15.18      0.01     -0.01      9.41 
   188.00      7.99     13.50     15.18      0.01     -0.01      7.06 
