#Written by Robertson Geologging WinLogger V1.0/370
~VERSION INFORMATION
#------------------------------------------------------------------------------
 VERS. 2.0 : CWLS LOG ASCII STANDARD - VERSION 2.0
 WRAP. NO  : ONE LINE PER DEPTH STEP
~WELL INFORMATION
#MNEM.UNIT         DATA                                DESCRIPTION OF MNEMONIC
#------------------------------------------------------------------------------
 STRT.M         73.4200                            :   START DEPTH
 STOP.M        406.0200                            :   STOP DEPTH
 STEP.M          0.0100                            :   STEP VALUE
 NULL.        -999.2500                            :   NULL VALUE
 COMP.    WHITE YOUN GREEN                         :   COMPANY NAME
 WELL.    HORDEN SHAFT                             :   WELL NAME
 FLD.     HORDEN                                   :   FIELD NAME
 LOC.     N/A                                      :   LOCATION
 PROV.    N/A                                      :   PROVINCE
 SRVC.    N/A                                      :   SERVICE COMPANY NAME
 DATE.    12 Dec 06                                :   DATE
 UWI.     N/A                                      :   UNIQUE WELL IDENTIFIER
~PARAMETER INFORMATION
#MNEMO.UNIT         VALUE                 DESCRIPTION OF MNEMONIC
#------------------------------------------------------------------------------
~OTHER INFORMATION SECTION
#------------------------------------------------------------------------------
 lLOGGING DOWN
~CURVE INFORMATION
#MNEMO.UNIT         API CODE              CURVE DESCRIPTION
#------------------------------------------------------------------------------
 DEPTH.M                                 :   0     Depth
 TEMP.DegC                               :   1     Temperature
 CN25.mS/cm                              :   2     Conductivity@25DegC
 COND.mS/cm                              :   3     Conductivity
 DELT.DegC                               :   4     Delta T
 DELC.mS/cm                              :   5     Delta C
 NGAM.CPS                                :   6     Natural Gamma
#------------------------------------------------------------------------------
~A  DEPTH     TEMP      CN25      COND      DELT      DELC      NGAM      
# ...
   161.56     16.24     48.28     38.24      0.01     -0.00      1.53 
   161.57     16.24     48.28     38.24      0.02     -0.01      1.18 
   161.58     16.24     48.28     38.24      0.02     -0.01      0.76 
   161.59     16.24     48.28     38.23      0.02     -0.02      0.76 
   161.60     16.23     48.28     38.23      0.02     -0.02      0.76 
   161.61     16.23     48.28     38.23      0.02     -0.01      0.76 
   161.62     16.23     48.28     38.23      0.01     -0.01      0.76 
   161.63     16.23     48.28     38.23      0.01     -0.01      0.76 
   161.64     16.23     48.27     38.22      0.01     -0.01      1.12 
   161.65     16.23     48.28     38.23      0.01     -0.00      0.71 
   161.66     16.23     48.28     38.22      0.01     -0.01      0.35 
   161.67     16.23     48.28     38.23      0.01     -0.01      0.35 
   161.68     16.23     48.28     38.23      0.01     -0.01      0.76 
   161.69     16.23     48.28     38.23      0.01     -0.01      0.76 
   161.70     16.23     48.28     38.23      0.01     -0.01      0.76 
   161.71     16.23     48.28     38.23      0.01     -0.00      0.76 
   161.72     16.23     48.28     38.23      0.01     -0.00      0.76 
   161.73     16.23     48.29     38.23      0.01     -0.00      0.76 
   161.74     16.23     48.29     38.23      0.01     -0.00      0.76 
   161.75     16.23     48.30     38.24      0.01      0.00      0.76 
   161.76     16.22     48.30     38.24      0.01      0.01      0.76 
   161.77     16.22     48.31     38.24      0.01      0.01      0.76 
   161.78     16.22     48.31     38.24      0.00      0.02      0.76 
   161.79     16.22     48.31     38.24      0.00      0.03      1.12 
   161.80     16.22     48.31     38.24      0.00      0.03      1.12 
   161.81     16.22     48.31     38.24      0.00      0.03      0.76 
   161.82     16.22     48.31     38.24      0.00      0.02      0.76 
   161.83     16.23     48.30     38.24      0.00      0.02      0.76 
   161.84     16.23     48.30     38.24      0.00      0.03      0.76 
   161.85     16.23     48.30     38.24      0.00      0.03      0.35 
   161.86     16.23     48.30     38.24      0.00      0.02      0.35 
   161.87     16.23     48.29     38.24      0.01      0.02      0.76 
   161.88     16.23     48.30     38.24      0.01      0.02      0.76 
   161.89     16.23     48.29     38.24      0.01      0.02      1.18 
   161.90     16.23     48.29     38.24      0.01      0.02      1.18 
   161.91     16.23     48.30     38.24      0.01      0.02      1.18 
   161.92     16.23     48.30     38.24      0.01      0.02      1.18 
   161.93     16.23     48.30     38.24      0.00      0.03      1.18 
   161.94     16.23     48.31     38.24      0.01      0.02      1.18 
   161.95     16.22     48.31     38.24      0.01      0.02      1.18 
   161.96     16.23     48.30     38.24      0.01      0.01      0.82 
   161.97     16.23     48.31     38.24      0.01      0.02      0.82 
   161.98     16.23     48.31     38.24      0.01      0.02      0.82 
   161.99     16.22     48.30     38.24      0.00      0.02      0.82 
   162.00     16.22     48.31     38.24      0.00      0.02      0.82 
   162.01     16.22     48.31     38.24     -0.00      0.03      0.82 
   162.02     16.22     48.31     38.24     -0.00      0.03      0.82 
   162.03     16.22     48.30     38.24      0.00      0.02      0.82 
   162.04     16.23     48.30     38.24      0.00      0.02      0.41 
   162.05     16.23     48.30     38.24      0.00      0.02      0.41 
   162.06     16.23     48.30     38.24      0.00      0.02      0.41 
   162.07     16.22     48.30     38.24     -0.00      0.02      0.41 
   162.08     16.22     48.31     38.24     -0.00      0.03      0.41 
   162.09     16.22     48.30     38.24     -0.00      0.03      0.76 
   162.10     16.22     48.31     38.24     -0.00      0.04      0.76 
   162.11     16.22     48.31     38.24     -0.00      0.04      0.76 
   162.12     16.22     48.31     38.24     -0.00      0.03      1.18 
   162.13     16.22     48.31     38.24     -0.00      0.03      1.18 
   162.14     16.22     48.31     38.24     -0.00      0.03      1.18 
   162.15     16.22     48.31     38.24     -0.00      0.02      1.18 
   162.16     16.22     48.31     38.24      0.00      0.02      1.18 
   162.17     16.22     48.31     38.24      0.00      0.01      1.59 
   162.18     16.22     48.31     38.24      0.00      0.01      1.59 
   162.19     16.22     48.31     38.24      0.00      0.01      1.59 
   162.20     16.22     48.31     38.24      0.00      0.01      1.59 
   162.21     16.22     48.30     38.23      0.00      0.00      2.00 
   162.22     16.22     48.30     38.23      0.00      0.00      2.00 
   162.23     16.23     48.30     38.24      0.00      0.00      1.94 
   162.24     16.23     48.30     38.24      0.01      0.00      2.35 
   162.25     16.23     48.29     38.23      0.01     -0.01      2.35 
   162.26     16.23     48.30     38.24      0.00      0.00      2.35 
   162.27     16.22     48.31     38.24      0.00      0.01      2.76 
   162.28     16.22     48.31     38.24     -0.00      0.01      2.76 
   162.29     16.22     48.31     38.24     -0.00      0.02      3.06 
   162.30     16.22     48.31     38.24     -0.00      0.02      3.06 
   162.31     16.22     48.31     38.24     -0.00      0.01      3.06 
   162.32     16.22     48.31     38.24      0.00      0.01      3.41 
   162.33     16.22     48.31     38.24      0.00      0.01      3.41 
   162.34     16.22     48.31     38.24     -0.00      0.01      3.00 
   162.35     16.22     48.31     38.24     -0.00      0.01      3.00 
   162.36     16.22     48.32     38.24     -0.01      0.02      3.00 
   162.37     16.22     48.32     38.24     -0.01      0.03      3.00 
   162.38     16.22     48.32     38.24     -0.01      0.02      2.59 
   162.39     16.22     48.32     38.24     -0.01      0.02      2.94 
   162.40     16.22     48.32     38.24     -0.01      0.02      3.00 
   162.41     16.22     48.32     38.24     -0.01      0.02      2.59 
   162.42     16.22     48.32     38.24     -0.01      0.02      2.59 
   162.43     16.22     48.31     38.24     -0.01      0.02      2.24 
   162.44     16.22     48.32     38.24     -0.01      0.02      1.82 
   162.45     16.22     48.32     38.24     -0.01      0.02      1.82 
   162.46     16.22     48.31     38.24     -0.01      0.02      1.53 
   162.47     16.22     48.31     38.24     -0.01      0.01      1.53 
   162.48     16.23     48.30     38.24     -0.01      0.01      1.53 
   162.49     16.23     48.30     38.24     -0.00      0.00      1.18 
   162.50     16.23     48.30     38.24     -0.01      0.01      1.18 
   162.51     16.23     48.30     38.24     -0.01      0.01      1.59 
   162.52     16.23     48.30     38.24     -0.01      0.01      1.59 
   162.53     16.23     48.29     38.23     -0.01      0.00      1.59 
   162.54     16.23     48.29     38.24     -0.01      0.01      1.59 
   162.55     16.23     48.29     38.23     -0.01      0.01      1.59 
   162.56     16.23     48.28     38.23     -0.01      0.01      1.59 
   162.57     16.23     48.29     38.23     -0.01      0.01      1.59 
   162.58     16.23     48.28     38.23     -0.00      0.01      2.00 
   162.59     16.23     48.28     38.23     -0.00      0.00      2.00 
   162.60     16.23     48.28     38.23     -0.00      0.01      2.00 
   162.61     16.23     48.28     38.23     -0.00      0.00      2.00 
   162.62     16.23     48.29     38.23     -0.00      0.01      2.35 
   162.63     16.22     48.29     38.22     -0.01      0.01      1.94 
   162.64     16.22     48.29     38.23     -0.01      0.01      1.94 
   162.65     16.22     48.29     38.22     -0.00      0.01      1.94 
   162.66     16.22     48.29     38.22     -0.00      0.00      2.29 
   162.67     16.23     48.28     38.22     -0.00      0.00      2.29 
   162.68     16.22     48.29     38.22     -0.00      0.01      1.88 
