#Written by Robertson Geologging WinLogger V1.0/312
~VERSION INFORMATION
#------------------------------------------------------------------------------
 VERS. 2.0 : CWLS LOG ASCII STANDARD - VERSION 2.0
 WRAP. NO  : ONE LINE PER DEPTH STEP
~WELL INFORMATION
#MNEM.UNIT         DATA                                DESCRIPTION OF MNEMONIC
#------------------------------------------------------------------------------
 STRT.M         75.1000                            :   START DEPTH
 STOP.M        380.0000                            :   STOP DEPTH
 STEP.M          0.1000                            :   STEP VALUE
 NULL.        -999.2500                            :   NULL VALUE
 COMP.    I.M.C.                                   :   COMPANY NAME
 WELL.    South shaft                              :   WELL NAME
 FLD.     Hordon                                   :   FIELD NAME
 LOC.     N/A                                      :   LOCATION
 PROV.    N/A                                      :   PROVINCE
 SRVC.    N/A                                      :   SERVICE COMPANY NAME
 DATE.    05 Jan 04                                :   DATE
 UWI.     N/A                                      :   UNIQUE WELL IDENTIFIER
~PARAMETER INFORMATION
#MNEMO.UNIT         VALUE                 DESCRIPTION OF MNEMONIC
#------------------------------------------------------------------------------
~OTHER INFORMATION SECTION
#------------------------------------------------------------------------------
 TCGS ex range 1365
~CURVE INFORMATION
#MNEMO.UNIT         API CODE              CURVE DESCRIPTION
#------------------------------------------------------------------------------
 DEPTH.M                                 :   0     Depth
 COND.mS/cm                              :   1     Conductivity
 TEMP.DegC                               :   2     Temperature
 C@25.mS/cm                              :   3     Conductivity @25Deg
 DELT.DegC                               :   4     Delta T
 DC@25.mS/cm                             :   5     Delta C @25Deg
 OUT4.CPS                                :   6     Natural Gamma
#------------------------------------------------------------------------------
~A  DEPTH     COND      TEMP      C@25      DELT      DC@25     OUT4      
    75.10   -999.25   -999.25    105.24      0.00      0.00   -999.25 
    75.20   -999.25   -999.25    105.24      0.00      0.00   -999.25 
    75.30   -999.25   -999.25    105.24      0.00      0.00   -999.25 
    75.40   -999.25   -999.25    105.24      0.00      0.00   -999.25 
    75.50   -999.25   -999.25    105.24      0.00      0.00   -999.25 
    75.60   -999.25   -999.25    105.24      0.00      0.00   -999.25 
    75.70   -999.25   -999.25    105.24      0.00      0.00   -999.25 
    75.80   -999.25   -999.25    105.24      0.00      0.00   -999.25 
    75.90   -999.25   -999.25    105.24      0.00      0.00   -999.25 
    76.00   -999.25   -999.25    105.24      0.00      0.00   -999.25 
    76.10   -999.25   -999.25    105.24      0.00      0.00   -999.25 
    76.20   -999.25   -999.25    105.24      0.00      0.00   -999.25 
    76.30   -999.25   -999.25    105.24      0.00      0.00  12850.00 
    76.40   -999.25   -999.25    105.24      0.00      0.00   6064.94 
    76.50   -999.25     51.09   -720.96   1050.34   -826.20     31.76 
    76.60     61.33     38.97      2.73   1038.22    -90.86     30.12 
    76.70     11.78     11.57     31.26   1010.82    -82.42     34.94 
    76.80      0.77     12.47      6.87   1011.72    -98.37     32.94 
    76.90      0.77     12.50      6.84   1011.75    -98.40     28.82 
    77.00      0.77     12.50      6.83   1011.75    -98.40     34.65 
    77.10      0.76     12.52      6.81   1011.77    -98.42     30.82 
    77.20      0.77     12.52      6.81   1011.77    -98.42     26.24 
    77.30      0.77     12.54      6.79   1011.79    -98.44     28.82 
    77.40      0.77     12.55      6.79   1011.80    -98.45     37.71 
    77.50      0.77     12.55      6.78    -38.54    727.75     34.29 
    77.60      0.77     12.55      6.79    -22.62    -18.27     30.06 
    77.70      0.77     12.55      6.79      0.54     -7.98     36.29 
    77.80      0.77     12.56      6.78      0.08     -0.08     28.65 
    77.90      0.77     12.57      6.77      0.07     -0.07     25.94 
    78.00      0.77     12.56      6.77      0.06     -0.06     24.94 
    78.10      0.77     12.54      6.79      0.02     -0.03     30.53 
    78.20      0.77     12.53      6.80      0.01     -0.02     34.71 
    78.30      0.77     12.52      6.81     -0.02      0.02     28.00 
    78.40      0.77     12.53      6.80     -0.02      0.01     25.88 
    78.50      0.77     12.53      6.81     -0.02      0.02     28.53 
    78.60      0.77     12.53      6.80     -0.02      0.02     24.00 
    78.70      0.77     12.52      6.82     -0.03      0.04     26.82 
    78.80      0.77     12.53      6.81     -0.03      0.03     27.47 
    78.90      0.77     12.53      6.81     -0.04      0.04     27.41 
    79.00      0.77     12.53      6.81     -0.03      0.03     24.65 
    79.10      0.77     12.56      6.77      0.02     -0.02     30.41 
    79.20      0.77     12.56      6.77      0.03     -0.02     29.71 
    79.30      2.35     12.56      8.04      0.03      2.08     28.00 
    79.40      7.73     12.64     15.72      0.11      9.14     27.47 
    79.50      7.72     12.83     15.70      0.30      8.88     21.65 
    79.60      7.70     12.94     15.54      0.41      8.72     16.53 
    79.70      7.69     13.00     15.44      0.49      8.61     10.65 
    79.80      7.68     13.04     15.37      0.51      8.56      4.88 
    79.90      7.67     13.05     15.34      0.53      8.53      6.29 
    80.00      7.66     13.07     15.31      0.53      8.52      4.53 
    80.10      7.66     13.08     15.29      0.52      8.52      5.24 
    80.20      7.65     13.09     15.27      0.53      8.50      5.24 
    80.30      7.64     13.07     15.28      0.52      5.55      5.41 
    80.40      7.64     13.08     15.27      0.42     -0.65      6.76 
    80.50      7.64     13.08     15.27      0.24     -0.40      6.35 
    80.60      7.64     13.08     15.26      0.13     -0.26      4.88 
    80.70      7.63     13.09     15.25      0.08     -0.17      5.29 
    80.80      7.63     13.10     15.24      0.05     -0.13      6.29 
    80.90      7.63     13.08     15.25      0.03     -0.09      8.06 
    81.00      7.63     13.09     15.24      0.02     -0.07      8.88 
    81.10      7.63     13.09     15.24      0.00     -0.05      7.59 
    81.20      7.63     13.09     15.23      0.00     -0.04      8.00 
    81.30      7.63     13.09     15.24      0.01     -0.04      9.06 
    81.40      7.63     13.09     15.23      0.01     -0.03      6.29 
    81.50      7.62     13.08     15.24      0.01     -0.03      5.71 
    81.60      7.62     13.09     15.23      0.00     -0.02      7.53 
    81.70      7.62     13.08     15.24     -0.01      0.00      7.06 
    81.80      7.62     13.07     15.25     -0.02      0.01      7.65 
    81.90      7.62     13.08     15.24     -0.00     -0.01      6.88 
    82.00      7.62     13.07     15.25     -0.02      0.01      6.06 
    82.10      7.61     13.06     15.26     -0.02      0.02      7.65 
    82.20      7.62     13.07     15.25     -0.02      0.01      7.71 
    82.30      7.62     13.07     15.25     -0.02      0.02      4.76 
    82.40      7.62     13.07     15.26     -0.02      0.02      6.18 
    82.50      7.62     13.07     15.26     -0.02      0.02      6.24 
    82.60      7.62     13.07     15.25     -0.01      0.02      4.53 
    82.70      7.62     13.07     15.25      0.00     -0.00      4.88 
    82.80      7.62     13.07     15.25     -0.00      0.00      5.18 
    82.90      7.62     13.07     15.25     -0.01      0.01      5.00 
    83.00      7.62     13.07     15.25     -0.00     -0.00      4.82 
    83.10      7.62     13.06     15.26     -0.00      0.00      5.76 
    83.20      7.62     13.06     15.27     -0.02      0.02      4.53 
    83.30      7.62     13.06     15.27     -0.01      0.01      5.35 
    83.40      7.62     13.07     15.25      0.01     -0.00      5.53 
    83.50      7.62     13.07     15.25      0.00     -0.01      5.41 
    83.60      7.62     13.07     15.24     -0.00      0.00      5.35 
    83.70      7.62     13.06     15.27     -0.01      0.02      5.00 
    83.80      7.62     13.06     15.26     -0.01      0.01      4.76 
    83.90      7.62     13.05     15.28     -0.02      0.02      3.94 
    84.00      7.62     13.06     15.26     -0.01      0.01      5.71 
    84.10      7.62     13.06     15.27     -0.00      0.01      5.82 
    84.20      7.62     13.07     15.25      0.01     -0.02      7.06 
    84.30      7.62     13.07     15.26      0.01     -0.00      5.65 
    84.40      7.62     13.07     15.26     -0.00      0.01      6.47 
    84.50      7.62     13.07     15.25      0.00      0.00      5.71 
    84.60      7.62     13.08     15.25      0.00      0.00      5.88 
    84.70      7.62     13.08     15.24      0.02     -0.03      4.47 
    84.80      7.62     13.07     15.25      0.01     -0.01      4.00 
    84.90      7.62     13.08     15.25      0.02     -0.03      3.00 
    85.00      7.62     13.07     15.25      0.01     -0.02      2.59 
    85.10      7.61     13.06     15.26     -0.00     -0.01      3.65 
    85.20      7.62     13.05     15.27     -0.02      0.01      6.53 
    85.30      7.62     13.05     15.27     -0.01      0.01      4.47 
    85.40      7.62     13.06     15.27     -0.02      0.02      4.00 
    85.50      7.62     13.06     15.26     -0.01      0.01      4.00 
    85.60      7.62     13.06     15.26     -0.02      0.01      4.41 
    85.70      7.62     13.06     15.26     -0.02      0.02      4.35 
    85.80      7.62     13.05     15.27     -0.02      0.02      2.65 
    85.90      7.62     13.06     15.27     -0.01      0.01      1.76 
    86.00      7.62     13.06     15.26     -0.01      0.01      2.76 
    86.10      7.62     13.06     15.26      0.00      0.00      3.18 
    86.20      7.62     13.06     15.26      0.01     -0.00      2.24 
    86.30      7.62     13.04     15.28     -0.01      0.01      3.41 
