#Written by Robertson Geologging WinLogger V1.0/312
~VERSION INFORMATION
#------------------------------------------------------------------------------
 VERS. 2.0 : CWLS LOG ASCII STANDARD - VERSION 2.0
 WRAP. NO  : ONE LINE PER DEPTH STEP
~WELL INFORMATION
#MNEM.UNIT         DATA                                DESCRIPTION OF MNEMONIC
#------------------------------------------------------------------------------
 STRT.M         75.1000                            :   START DEPTH
 STOP.M        380.0000                            :   STOP DEPTH
 STEP.M          0.1000                            :   STEP VALUE
 NULL.        -999.2500                            :   NULL VALUE
 COMP.    I.M.C.                                   :   COMPANY NAME
 WELL.    South shaft                              :   WELL NAME
 FLD.     Hordon                                   :   FIELD NAME
 LOC.     N/A                                      :   LOCATION
 PROV.    N/A                                      :   PROVINCE
 SRVC.    N/A                                      :   SERVICE COMPANY NAME
 DATE.    05 Jan 04                                :   DATE
 UWI.     N/A                                      :   UNIQUE WELL IDENTIFIER
~PARAMETER INFORMATION
#MNEMO.UNIT         VALUE                 DESCRIPTION OF MNEMONIC
#------------------------------------------------------------------------------
~OTHER INFORMATION SECTION
#------------------------------------------------------------------------------
 TCGS ex range 1365
~CURVE INFORMATION
#MNEMO.UNIT         API CODE              CURVE DESCRIPTION
#------------------------------------------------------------------------------
 DEPTH.M                                 :   0     Depth
 COND.mS/cm                              :   1     Conductivity
 TEMP.DegC                               :   2     Temperature
 C@25.mS/cm                              :   3     Conductivity @25Deg
 DELT.DegC                               :   4     Delta T
 DC@25.mS/cm                             :   5     Delta C @25Deg
 OUT4.CPS                                :   6     Natural Gamma
#------------------------------------------------------------------------------
~A  DEPTH     COND      TEMP      C@25      DELT      DC@25     OUT4      
# ...
   210.70      7.99     13.56     15.11      0.01     -0.01      8.35 
   210.80      7.99     13.55     15.13     -0.00      0.00      5.47 
   210.90      7.99     13.56     15.12     -0.00      0.01      8.06 
   211.00      7.99     13.57     15.11      0.01     -0.01      6.29 
   211.10      7.99     13.56     15.12     -0.00      0.00      8.24 
   211.20      7.99     13.56     15.11      0.00     -0.00      7.71 
   211.30      7.99     13.56     15.11      0.00      0.00      7.94 
   211.40      7.99     13.57     15.10      0.00     -0.01      7.65 
   211.50      7.99     13.56     15.12      0.01     -0.01      5.59 
   211.60      7.99     13.56     15.11     -0.00      0.00      6.00 
   211.70      7.99     13.56     15.12     -0.00      0.00      7.29 
   211.80      7.99     13.55     15.12      0.00      0.00      8.47 
   211.90      7.99     13.56     15.11      0.00     -0.00     10.29 
   212.00      7.99     13.55     15.13     -0.02      0.03      8.41 
   212.10      7.99     13.56     15.12     -0.00      0.00      9.18 
   212.20      7.99     13.56     15.12     -0.00      0.00      9.24 
   212.30      7.99     13.56     15.12     -0.01      0.01      7.12 
   212.40      7.99     13.56     15.12     -0.00      0.01      7.47 
   212.50      7.99     13.57     15.11      0.01     -0.01      7.82 
   212.60      7.99     13.56     15.11     -0.00     -0.00      4.59 
   212.70      7.99     13.56     15.12     -0.00      0.00      6.41 
   212.80      7.99     13.56     15.11      0.00     -0.00      4.65 
   212.90      7.99     13.56     15.12     -0.00      0.00      7.35 
   213.00      7.99     13.56     15.11      0.01     -0.02      6.41 
   213.10      8.00     13.57     15.11      0.01     -0.01      7.59 
   213.20      7.99     13.57     15.11      0.01     -0.01      5.82 
   213.30      7.99     13.56     15.12      0.00     -0.01      5.47 
   213.40      7.99     13.56     15.12      0.00     -0.00      6.76 
   213.50      7.99     13.55     15.12     -0.01      0.02      5.12 
   213.60      8.00     13.56     15.11      0.00     -0.00      6.53 
   213.70      7.99     13.55     15.13     -0.01      0.01      7.53 
   213.80      7.99     13.55     15.13     -0.01      0.02      9.24 
   213.90      7.99     13.56     15.12      0.00     -0.00      4.65 
   214.00      7.99     13.57     15.11      0.00     -0.01      3.88 
   214.10      7.99     13.56     15.11     -0.00     -0.00      7.53 
   214.20      7.99     13.56     15.12     -0.01      0.01      9.65 
   214.30      7.99     13.56     15.12     -0.00      0.00     10.82 
   214.40      7.99     13.55     15.12     -0.01      0.00     11.53 
   214.50      7.99     13.56     15.12      0.00     -0.00     10.29 
   214.60      7.99     13.56     15.11      0.00      0.00      5.76 
   214.70      7.99     13.55     15.13      0.01     -0.01      6.00 
   214.80      7.99     13.56     15.13      0.01     -0.01     10.82 
   214.90      8.00     13.57     15.11      0.01     -0.00     10.41 
   215.00      8.00     13.56     15.12     -0.01      0.02      6.53 
   215.10      7.99     13.55     15.13     -0.01      0.01      7.71 
   215.20      7.99     13.56     15.12     -0.00      0.00      8.53 
   215.30      7.99     13.55     15.13     -0.01      0.01      7.41 
   215.40      7.99     13.55     15.13     -0.00      0.00      9.94 
   215.50      8.00     13.55     15.12     -0.00      0.01      7.94 
   215.60      8.00     13.56     15.12     -0.00      0.01      5.00 
   215.70      7.99     13.56     15.11      0.01     -0.01      6.29 
   215.80      8.00     13.56     15.12      0.00     -0.00      8.59 
   215.90      7.99     13.56     15.11     -0.00      0.01      7.12 
   216.00      7.99     13.56     15.12      0.00     -0.00      6.65 
   216.10      8.00     13.56     15.12      0.00     -0.00     12.47 
   216.20      7.99     13.56     15.12      0.00     -0.01     10.06 
   216.30      8.00     13.57     15.11      0.02     -0.03      9.71 
   216.40      7.99     13.56     15.12      0.00     -0.01     11.12 
   216.50      7.99     13.56     15.12      0.01     -0.01     11.94 
   216.60      7.99     13.56     15.11      0.00     -0.01      7.35 
   216.70      7.99     13.57     15.11      0.00     -0.01      9.41 
   216.80      7.99     13.57     15.10      0.01     -0.01      7.94 
   216.90      7.99     13.56     15.11      0.00     -0.01      4.65 
   217.00      7.99     13.57     15.10      0.01     -0.02      6.94 
   217.10      7.99     13.57     15.10      0.01     -0.02      8.65 
   217.20      7.99     13.57     15.10      0.01     -0.01     10.12 
   217.30      7.99     13.57     15.10      0.01     -0.01     11.18 
   217.40      7.99     13.57     15.10      0.01     -0.01     10.76 
   217.50      7.99     13.57     15.11      0.01     -0.01      9.35 
   217.60      7.99     13.57     15.11      0.00     -0.00      6.41 
   217.70      7.99     13.57     15.10      0.01     -0.01      6.76 
   217.80      7.99     13.57     15.10      0.01     -0.00      7.82 
   217.90      7.99     13.57     15.10      0.00     -0.01      6.24 
   218.00      7.99     13.57     15.10     -0.00      0.00      8.47 
   218.10      7.99     13.58     15.10      0.00     -0.01      7.18 
   218.20      7.99     13.58     15.09      0.01     -0.02      5.82 
   218.30      7.99     13.58     15.09      0.01     -0.01      7.24 
   218.40      7.99     13.58     15.09      0.01     -0.02      6.82 
   218.50      7.99     13.58     15.09      0.02     -0.02      7.35 
   218.60      7.99     13.58     15.09      0.01     -0.01      7.71 
   218.70      7.99     13.57     15.11     -0.01      0.01      5.88 
   218.80      7.99     13.58     15.10      0.00     -0.01      8.76 
   218.90      7.99     13.58     15.09      0.02     -0.02     10.65 
   219.00      7.99     13.56     15.11     -0.01      0.01      8.94 
   219.10      7.99     13.57     15.11     -0.01      0.02      7.35 
   219.20      8.00     13.57     15.10     -0.01      0.01      7.71 
   219.30      8.00     13.58     15.09     -0.00      0.00      4.76 
   219.40      7.99     13.58     15.10     -0.00      0.01      8.29 
   219.50      7.99     13.58     15.09      0.00     -0.01      9.59 
   219.60      7.99     13.57     15.10     -0.01      0.00      9.18 
   219.70      7.99     13.58     15.09      0.01     -0.01      8.94 
   219.80      7.99     13.58     15.10      0.00     -0.01      6.71 
   219.90      7.99     13.58     15.08      0.00     -0.00      8.35 
   220.00      7.99     13.58     15.09      0.01     -0.02      9.76 
   220.10      7.99     13.58     15.10      0.01     -0.01      7.71 
   220.20      7.99     13.58     15.09      0.01     -0.01      8.24 
   220.30      8.00     13.58     15.09     -0.00      0.00     10.76 
   220.40      7.99     13.57     15.10     -0.00      0.01      9.24 
   220.50      8.00     13.58     15.09     -0.00      0.01      7.88 
   220.60      8.00     13.58     15.10      0.01     -0.00      9.12 
   220.70      7.99     13.58     15.09      0.00     -0.00      9.53 
   220.80      7.99     13.57     15.10     -0.01      0.01      7.47 
   220.90      7.99     13.57     15.10     -0.01      0.01      4.12 
   221.00      7.99     13.57     15.11     -0.01      0.01      7.47 
   221.10      7.99     13.57     15.10     -0.01      0.01     11.41 
   221.20      7.99     13.57     15.11     -0.01      0.02      9.29 
   221.30      7.99     13.57     15.10     -0.01      0.01      5.88 
   221.40      7.99     13.57     15.11     -0.01      0.01      7.18 
   221.50      7.99     13.58     15.09     -0.00     -0.00      6.41 
   221.60      7.99     13.58     15.10     -0.00      0.00      6.94 
   221.70      7.99     13.58     15.09      0.00     -0.00     11.35 
   221.80      8.00     13.58     15.10      0.00      0.00      9.29 
   221.90      7.99     13.57     15.10     -0.00      0.00      3.88 
