#Written by Robertson Geologging WinLogger V1.0/370
~VERSION INFORMATION
#------------------------------------------------------------------------------
 VERS. 2.0 : CWLS LOG ASCII STANDARD - VERSION 2.0
 WRAP. NO  : ONE LINE PER DEPTH STEP
~WELL INFORMATION
#MNEM.UNIT         DATA                                DESCRIPTION OF MNEMONIC
#------------------------------------------------------------------------------
 STRT.M         73.4200                            :   START DEPTH
 STOP.M        406.0200                            :   STOP DEPTH
 STEP.M          0.0100                            :   STEP VALUE
 NULL.        -999.2500                            :   NULL VALUE
 COMP.    WHITE YOUN GREEN                         :   COMPANY NAME
 WELL.    HORDEN SHAFT                             :   WELL NAME
 FLD.     HORDEN                                   :   FIELD NAME
 LOC.     N/A                                      :   LOCATION
 PROV.    N/A                                      :   PROVINCE
 SRVC.    N/A                                      :   SERVICE COMPANY NAME
 DATE.    12 Dec 06                                :   DATE
 UWI.     N/A                                      :   UNIQUE WELL IDENTIFIER
~PARAMETER INFORMATION
#MNEMO.UNIT         VALUE                 DESCRIPTION OF MNEMONIC
#------------------------------------------------------------------------------
~OTHER INFORMATION SECTION
#------------------------------------------------------------------------------
 lLOGGING DOWN
~CURVE INFORMATION
#MNEMO.UNIT         API CODE              CURVE DESCRIPTION
#------------------------------------------------------------------------------
 DEPTH.M                                 :   0     Depth
 TEMP.DegC                               :   1     Temperature
 CN25.mS/cm                              :   2     Conductivity@25DegC
 COND.mS/cm                              :   3     Conductivity
 DELT.DegC                               :   4     Delta T
 DELC.mS/cm                              :   5     Delta C
 NGAM.CPS                                :   6     Natural Gamma
#------------------------------------------------------------------------------
~A  DEPTH     TEMP      CN25      COND      DELT      DELC      NGAM      
# ...
   337.84     18.95     83.30     74.29     -0.01      0.03      9.29 
   337.85     18.95     83.31     74.29     -0.01      0.04      8.47 
   337.86     18.95     83.31     74.29     -0.02      0.05      8.47 
   337.87     18.95     83.31     74.29     -0.02      0.07      8.12 
   337.88     18.95     83.31     74.29     -0.02      0.07      7.29 
   337.89     18.95     83.30     74.29     -0.02      0.05      7.65 
   337.90     18.95     83.30     74.29     -0.01      0.04      7.24 
   337.91     18.95     83.30     74.29     -0.01      0.03      7.65 
   337.92     18.95     83.30     74.29     -0.01      0.04      7.24 
   337.93     18.95     83.30     74.29     -0.01      0.04      6.82 
   337.94     18.95     83.29     74.29     -0.01      0.03      7.29 
   337.95     18.96     83.29     74.28     -0.01      0.02      7.24 
   337.96     18.96     83.28     74.28     -0.01      0.01      7.24 
   337.97     18.96     83.27     74.28     -0.00     -0.01      6.41 
   337.98     18.96     83.27     74.28     -0.00     -0.01      6.41 
   337.99     18.96     83.27     74.28     -0.00     -0.02      5.59 
   338.00     18.96     83.28     74.28     -0.00     -0.01      5.65 
   338.01     18.96     83.27     74.28      0.00     -0.01      6.29 
   338.02     18.96     83.26     74.28      0.00     -0.03      7.12 
   338.03     18.97     83.25     74.28      0.01     -0.04      7.53 
   338.04     18.97     83.24     74.28      0.01     -0.05      7.53 
   338.05     18.97     83.24     74.28      0.02     -0.06      7.53 
   338.06     18.97     83.25     74.29      0.02     -0.06      7.18 
   338.07     18.97     83.25     74.28      0.02     -0.06      7.47 
   338.08     18.97     83.26     74.29      0.01     -0.05      7.88 
   338.09     18.97     83.25     74.29      0.01     -0.05      8.71 
   338.10     18.97     83.24     74.29      0.01     -0.05      9.12 
   338.11     18.97     83.23     74.29      0.01     -0.05      9.53 
   338.12     18.97     83.24     74.29      0.01     -0.05      9.59 
   338.13     18.97     83.25     74.28      0.01     -0.04      9.59 
   338.14     18.97     83.26     74.28      0.01     -0.04     10.00 
   338.15     18.96     83.26     74.28      0.01     -0.04     10.82 
   338.16     18.96     83.26     74.28      0.01     -0.03     10.82 
   338.17     18.96     83.26     74.28      0.01     -0.03     10.41 
   338.18     18.96     83.27     74.29      0.00     -0.02     10.18 
   338.19     18.96     83.27     74.28      0.00     -0.02      9.35 
   338.20     18.96     83.28     74.28      0.00     -0.01      8.53 
   338.21     18.96     83.29     74.28     -0.00      0.00      8.53 
   338.22     18.95     83.29     74.28     -0.01      0.01      8.12 
   338.23     18.95     83.29     74.28     -0.01      0.02      8.53 
   338.24     18.96     83.29     74.29     -0.01      0.03      8.65 
   338.25     18.96     83.29     74.28     -0.01      0.03      7.82 
   338.26     18.96     83.28     74.28     -0.01      0.03      7.00 
   338.27     18.96     83.27     74.28     -0.01      0.02      6.59 
   338.28     18.96     83.26     74.28     -0.01      0.01      5.76 
   338.29     18.97     83.25     74.28     -0.00      0.01      5.35 
   338.30     18.97     83.25     74.28     -0.00      0.00      5.76 
   338.31     18.97     83.24     74.28      0.00     -0.01      5.35 
   338.32     18.97     83.24     74.28      0.00     -0.02      4.12 
   338.33     18.97     83.24     74.28      0.01     -0.02      4.53 
   338.34     18.97     83.24     74.28      0.01     -0.03      4.53 
   338.35     18.97     83.25     74.28      0.00     -0.01      4.53 
   338.36     18.96     83.26     74.28     -0.00     -0.00      4.53 
   338.37     18.96     83.27     74.28     -0.00      0.01      5.35 
   338.38     18.95     83.29     74.28     -0.01      0.02      6.59 
   338.39     18.95     83.30     74.28     -0.01      0.03      7.41 
   338.40     18.95     83.31     74.28     -0.01      0.02      7.00 
   338.41     18.95     83.31     74.28     -0.01      0.02      6.59 
   338.42     18.94     83.32     74.28     -0.01      0.03      6.59 
   338.43     18.94     83.32     74.28     -0.01      0.04      7.29 
   338.44     18.94     83.33     74.28     -0.02      0.05      7.71 
   338.45     18.94     83.33     74.28     -0.02      0.06      8.12 
   338.46     18.94     83.33     74.28     -0.02      0.05      8.53 
   338.47     18.94     83.32     74.28     -0.02      0.04      7.71 
   338.48     18.95     83.31     74.28     -0.01      0.03      8.12 
   338.49     18.95     83.30     74.28     -0.01      0.02      8.53 
   338.50     18.96     83.28     74.28     -0.01      0.01      8.47 
   338.51     18.96     83.27     74.28     -0.00      0.00      8.88 
   338.52     18.97     83.25     74.28      0.00     -0.01      8.88 
   338.53     18.97     83.23     74.28      0.00     -0.02     10.12 
   338.54     18.97     83.23     74.28      0.01     -0.04      9.71 
   338.55     18.98     83.22     74.28      0.01     -0.05      9.18 
   338.56     18.98     83.21     74.28      0.02     -0.06      8.35 
   338.57     18.98     83.21     74.28      0.02     -0.08      8.35 
   338.58     18.98     83.21     74.28      0.02     -0.07      8.76 
   338.59     18.97     83.23     74.28      0.01     -0.05      9.59 
   338.60     18.97     83.24     74.28      0.01     -0.03      9.71 
   338.61     18.97     83.25     74.28     -0.00     -0.01     10.12 
   338.62     18.96     83.26     74.28     -0.01      0.01      9.71 
   338.63     18.96     83.27     74.28     -0.01      0.02      9.71 
   338.64     18.96     83.28     74.28     -0.01      0.02     10.12 
   338.65     18.95     83.28     74.28     -0.01      0.02     10.12 
   338.66     18.95     83.28     74.28     -0.01      0.01     10.94 
   338.67     18.96     83.28     74.28     -0.01      0.01     11.41 
   338.68     18.96     83.28     74.28     -0.01      0.01     11.41 
   338.69     18.96     83.27     74.28     -0.00      0.01     11.00 
   338.70     18.96     83.26     74.28      0.00     -0.00     10.18 
   338.71     18.97     83.25     74.28      0.00     -0.01     10.18 
   338.72     18.97     83.24     74.28      0.01     -0.02      9.47 
   338.73     18.97     83.23     74.28      0.01     -0.03     10.71 
   338.74     18.97     83.23     74.28      0.01     -0.05     11.53 
   338.75     18.97     83.22     74.28      0.01     -0.04     11.53 
   338.76     18.98     83.22     74.28      0.01     -0.05     10.71 
   338.77     18.98     83.22     74.28      0.01     -0.04     10.71 
   338.78     18.97     83.23     74.28      0.01     -0.03      9.88 
   338.79     18.97     83.24     74.28      0.00     -0.03      9.88 
   338.80     18.97     83.25     74.28      0.00     -0.02      9.47 
   338.81     18.96     83.26     74.28      0.00     -0.02     10.29 
   338.82     18.96     83.26     74.28      0.00     -0.03      9.47 
   338.83     18.96     83.26     74.28      0.01     -0.04      8.24 
   338.84     18.96     83.28     74.28      0.01     -0.03      8.24 
   338.85     18.95     83.29     74.28      0.00     -0.02      8.88 
   338.86     18.95     83.30     74.28     -0.00     -0.01      8.88 
   338.87     18.95     83.31     74.28     -0.00      0.00      8.47 
   338.88     18.95     83.31     74.28     -0.00      0.00      8.06 
   338.89     18.95     83.30     74.27     -0.00     -0.01      8.06 
   338.90     18.95     83.29     74.27      0.00     -0.02      7.24 
   338.91     18.96     83.27     74.28      0.00     -0.03      6.41 
   338.92     18.96     83.26     74.28      0.01     -0.04      7.24 
   338.93     18.96     83.25     74.27      0.01     -0.04      6.82 
   338.94     18.96     83.25     74.28      0.01     -0.04      6.82 
   338.95     18.97     83.25     74.28      0.01     -0.03      7.24 
   338.96     18.97     83.24     74.27      0.01     -0.03      6.82 
