#Written by Robertson Geologging WinLogger V1.0/312
~VERSION INFORMATION
#------------------------------------------------------------------------------
 VERS. 2.0 : CWLS LOG ASCII STANDARD - VERSION 2.0
 WRAP. NO  : ONE LINE PER DEPTH STEP
~WELL INFORMATION
#MNEM.UNIT         DATA                                DESCRIPTION OF MNEMONIC
#------------------------------------------------------------------------------
 STRT.M         75.1000                            :   START DEPTH
 STOP.M        380.0000                            :   STOP DEPTH
 STEP.M          0.1000                            :   STEP VALUE
 NULL.        -999.2500                            :   NULL VALUE
 COMP.    I.M.C.                                   :   COMPANY NAME
 WELL.    South shaft                              :   WELL NAME
 FLD.     Hordon                                   :   FIELD NAME
 LOC.     N/A                                      :   LOCATION
 PROV.    N/A                                      :   PROVINCE
 SRVC.    N/A                                      :   SERVICE COMPANY NAME
 DATE.    05 Jan 04                                :   DATE
 UWI.     N/A                                      :   UNIQUE WELL IDENTIFIER
~PARAMETER INFORMATION
#MNEMO.UNIT         VALUE                 DESCRIPTION OF MNEMONIC
#------------------------------------------------------------------------------
~OTHER INFORMATION SECTION
#------------------------------------------------------------------------------
 TCGS ex range 1365
~CURVE INFORMATION
#MNEMO.UNIT         API CODE              CURVE DESCRIPTION
#------------------------------------------------------------------------------
 DEPTH.M                                 :   0     Depth
 COND.mS/cm                              :   1     Conductivity
 TEMP.DegC                               :   2     Temperature
 C@25.mS/cm                              :   3     Conductivity @25Deg
 DELT.DegC                               :   4     Delta T
 DC@25.mS/cm                             :   5     Delta C @25Deg
 OUT4.CPS                                :   6     Natural Gamma
#------------------------------------------------------------------------------
~A  DEPTH     COND      TEMP      C@25      DELT      DC@25     OUT4      
# ...
   289.80     11.68     16.45     15.76     -0.00      0.01      7.06 
   289.90     11.68     16.46     15.76      0.00     -0.00      7.82 
   290.00     11.68     16.45     15.77      0.00     -0.00      6.94 
   290.10     11.68     16.45     15.77     -0.01      0.02      7.35 
   290.20     11.68     16.46     15.75      0.02     -0.02      5.29 
   290.30     11.68     16.45     15.76     -0.00      0.00      6.53 
   290.40     11.68     16.45     15.76      0.00     -0.00      7.82 
   290.50     11.68     16.45     15.76     -0.01      0.01      6.18 
   290.60     11.68     16.45     15.76     -0.01      0.01      9.06 
   290.70     11.68     16.45     15.77     -0.02      0.02      9.88 
   290.80     11.68     16.47     15.74      0.02     -0.02      5.76 
   290.90     11.67     16.46     15.74      0.00     -0.01      4.53 
   291.00     11.68     16.45     15.76      0.00     -0.01      8.76 
   291.10     11.68     16.44     15.78     -0.00      0.01      7.41 
   291.20     11.68     16.45     15.76     -0.01      0.01      4.53 
   291.30     11.68     16.45     15.76      0.00      0.00      1.18 
   291.40     11.68     16.47     15.74      0.01     -0.02      5.24 
   291.50     11.68     16.46     15.75      0.01     -0.00      7.59 
   291.60     11.68     16.45     15.76     -0.00      0.00     10.65 
   291.70     11.68     16.46     15.75      0.01     -0.01      7.76 
   291.80     11.68     16.47     15.74     -0.00      0.00      4.94 
   291.90     11.68     16.45     15.75     -0.01      0.01      7.41 
   292.00     11.68     16.45     15.77      0.00     -0.00      6.18 
   292.10     11.68     16.45     15.76      0.01     -0.01      7.82 
   292.20     11.68     16.45     15.77     -0.01      0.01      7.53 
   292.30     11.68     16.45     15.76     -0.00      0.00      7.00 
   292.40     11.68     16.45     15.76     -0.01      0.01      6.18 
   292.50     11.68     16.46     15.75      0.00     -0.00      4.06 
   292.60     11.68     16.45     15.77     -0.00      0.01      6.82 
   292.70     11.67     16.46     15.75      0.00     -0.01      8.88 
   292.80     11.68     16.45     15.76     -0.01      0.02      8.59 
   292.90     11.68     16.46     15.75      0.01     -0.01      7.00 
   293.00     11.68     16.46     15.75      0.01     -0.01      6.65 
   293.10     11.68     16.44     15.77     -0.01      0.01      7.00 
   293.20     11.68     16.45     15.76      0.00     -0.01      6.59 
   293.30     11.68     16.45     15.76      0.00     -0.00      6.06 
   293.40     11.68     16.46     15.75      0.00     -0.01      7.00 
   293.50     11.68     16.45     15.76     -0.00      0.00      7.82 
   293.60     11.68     16.45     15.76      0.00     -0.00      5.24 
   293.70     11.68     16.46     15.76     -0.00      0.01      5.59 
   293.80     11.68     16.45     15.75     -0.00      0.00      5.71 
   293.90     11.68     16.44     15.77     -0.01      0.02      6.53 
   294.00     11.68     16.45     15.76     -0.01      0.01      6.94 
   294.10     11.68     16.44     15.78     -0.00      0.00      5.35 
   294.20     11.68     16.45     15.75      0.00     -0.00      6.18 
   294.30     11.68     16.44     15.78     -0.01      0.02      5.35 
   294.40     11.67     16.46     15.75      0.00     -0.01      4.53 
   294.50     11.68     16.45     15.76     -0.00      0.00      5.76 
   294.60     11.67     16.46     15.75      0.01     -0.01      8.24 
   294.70     11.68     16.45     15.76     -0.01      0.01      7.41 
   294.80     11.67     16.45     15.76      0.00     -0.01      7.82 
   294.90     11.67     16.44     15.77     -0.00     -0.01      9.82 
   295.00     11.68     16.44     15.77     -0.01      0.01     11.06 
   295.10     11.67     16.44     15.78      0.00     -0.00     10.24 
   295.20     11.67     16.45     15.76     -0.00     -0.00      7.71 
   295.30     11.68     16.45     15.77      0.00     -0.00      7.29 
   295.40     11.67     16.44     15.77     -0.02      0.03      7.82 
   295.50     11.68     16.46     15.75      0.01     -0.01      3.71 
   295.60     11.68     16.43     15.79     -0.03      0.04      2.47 
   295.70     11.68     16.43     15.79     -0.02      0.03      3.24 
   295.80     11.68     16.44     15.78     -0.01      0.02      5.18 
   295.90     11.68     16.46     15.75      0.01     -0.02      5.18 
   296.00     11.68     16.45     15.77      0.01     -0.01      5.06 
   296.10     11.68     16.45     15.77      0.00      0.00      5.88 
   296.20     11.68     16.45     15.75      0.00     -0.01      8.47 
   296.30     11.68     16.45     15.77      0.00      0.00     10.00 
   296.40     11.68     16.44     15.78     -0.00      0.01      6.53 
   296.50     11.68     16.45     15.76     -0.01      0.01      5.06 
   296.60     11.68     16.45     15.77      0.02     -0.02      4.88 
   296.70     11.68     16.45     15.76      0.02     -0.03      4.88 
   296.80     11.68     16.44     15.77     -0.01      0.01      5.18 
   296.90     11.68     16.44     15.77     -0.01      0.02      6.53 
   297.00     11.68     16.43     15.78     -0.01      0.02      7.71 
   297.10     11.68     16.44     15.77     -0.00      0.00      7.59 
   297.20     11.68     16.45     15.76      0.00     -0.00      6.24 
   297.30     11.68     16.44     15.78     -0.01      0.00      6.76 
   297.40     11.68     16.44     15.77      0.01     -0.01      7.41 
   297.50     11.68     16.44     15.77     -0.01      0.01      9.24 
   297.60     11.68     16.45     15.77     -0.00      0.00      7.76 
   297.70     11.68     16.45     15.77     -0.01      0.00      4.35 
   297.80     11.68     16.44     15.78     -0.00      0.00      5.71 
   297.90     11.67     16.43     15.78     -0.01      0.01      7.71 
   298.00     11.68     16.44     15.78      0.01     -0.01      7.88 
   298.10     11.68     16.45     15.76      0.00     -0.00      7.59 
   298.20     11.68     16.43     15.78     -0.02      0.03      5.29 
   298.30     11.68     16.45     15.77      0.01     -0.00      5.12 
   298.40     11.68     16.45     15.75      0.01     -0.02      6.47 
   298.50     11.68     16.45     15.76      0.01     -0.01      6.82 
   298.60     11.68     16.44     15.77     -0.00      0.00      6.18 
   298.70     11.68     16.44     15.77     -0.00      0.00      6.76 
   298.80     11.68     16.45     15.77      0.01     -0.01      5.65 
   298.90     11.68     16.44     15.78      0.00     -0.00      6.12 
   299.00     11.68     16.45     15.77      0.00     -0.00      4.35 
   299.10     11.68     16.44     15.77     -0.00      0.00      6.41 
   299.20     11.68     16.44     15.77      0.01     -0.01      8.82 
   299.30     11.68     16.45     15.77     -0.00     -0.00      4.82 
   299.40     11.68     16.45     15.77     -0.01      0.01      6.06 
   299.50     11.67     16.44     15.77     -0.01      0.00      6.53 
   299.60     11.67     16.44     15.78     -0.01      0.01      3.00 
   299.70     11.68     16.43     15.78     -0.01      0.01      3.53 
   299.80     11.68     16.45     15.77      0.00     -0.00      5.18 
   299.90     11.68     16.46     15.75      0.02     -0.03      7.53 
   300.00     11.68     16.45     15.76     -0.00      0.00      5.82 
   300.10     11.67     16.44     15.77     -0.00     -0.01      6.06 
   300.20     11.67     16.43     15.78     -0.01      0.00      7.12 
   300.30     11.67     16.44     15.77     -0.00      0.00      8.59 
   300.40     11.67     16.44     15.77     -0.01      0.01      7.35 
   300.50     11.67     16.44     15.78     -0.01      0.01      7.12 
   300.60     11.67     16.43     15.78     -0.00      0.00      4.82 
   300.70     11.67     16.43     15.78     -0.00     -0.01      4.47 
   300.80     11.67     16.44     15.77     -0.01      0.01      6.82 
   300.90     11.67     16.44     15.77     -0.02      0.02      5.06 
   301.00     11.67     16.43     15.78     -0.01      0.01      6.71 
