#Written by Robertson Geologging WinLogger V1.0/370
~VERSION INFORMATION
#------------------------------------------------------------------------------
 VERS. 2.0 : CWLS LOG ASCII STANDARD - VERSION 2.0
 WRAP. NO  : ONE LINE PER DEPTH STEP
~WELL INFORMATION
#MNEM.UNIT         DATA                                DESCRIPTION OF MNEMONIC
#------------------------------------------------------------------------------
 STRT.M         73.4200                            :   START DEPTH
 STOP.M        406.0200                            :   STOP DEPTH
 STEP.M          0.0100                            :   STEP VALUE
 NULL.        -999.2500                            :   NULL VALUE
 COMP.    WHITE YOUN GREEN                         :   COMPANY NAME
 WELL.    HORDEN SHAFT                             :   WELL NAME
 FLD.     HORDEN                                   :   FIELD NAME
 LOC.     N/A                                      :   LOCATION
 PROV.    N/A                                      :   PROVINCE
 SRVC.    N/A                                      :   SERVICE COMPANY NAME
 DATE.    12 Dec 06                                :   DATE
 UWI.     N/A                                      :   UNIQUE WELL IDENTIFIER
~PARAMETER INFORMATION
#MNEMO.UNIT         VALUE                 DESCRIPTION OF MNEMONIC
#------------------------------------------------------------------------------
~OTHER INFORMATION SECTION
#------------------------------------------------------------------------------
 lLOGGING DOWN
~CURVE INFORMATION
#MNEMO.UNIT         API CODE              CURVE DESCRIPTION
#------------------------------------------------------------------------------
 DEPTH.M                                 :   0     Depth
 TEMP.DegC                               :   1     Temperature
 CN25.mS/cm                              :   2     Conductivity@25DegC
 COND.mS/cm                              :   3     Conductivity
 DELT.DegC                               :   4     Delta T
 DELC.mS/cm                              :   5     Delta C
 NGAM.CPS                                :   6     Natural Gamma
#------------------------------------------------------------------------------
~A  DEPTH     TEMP      CN25      COND      DELT      DELC      NGAM      
# ...
   140.09     16.22     48.43     38.34      0.00     -0.02      0.00 
   140.10     16.22     48.43     38.34      0.00     -0.02      0.00 
   140.11     16.22     48.43     38.34      0.00     -0.02      0.35 
   140.12     16.22     48.42     38.34      0.00     -0.02      0.35 
   140.13     16.23     48.42     38.33      0.00     -0.03      0.35 
   140.14     16.23     48.41     38.33      0.00     -0.03      0.35 
   140.15     16.23     48.41     38.33      0.00     -0.03      0.35 
   140.16     16.23     48.41     38.33      0.00     -0.03      0.35 
   140.17     16.23     48.41     38.33     -0.00     -0.04      0.35 
   140.18     16.22     48.41     38.32     -0.00     -0.03      0.35 
   140.19     16.23     48.41     38.32     -0.00     -0.04      1.06 
   140.20     16.23     48.40     38.33     -0.00     -0.04      1.06 
   140.21     16.23     48.40     38.32      0.00     -0.04      1.06 
   140.22     16.23     48.40     38.32      0.00     -0.05      1.06 
   140.23     16.23     48.40     38.32      0.00     -0.06      1.06 
   140.24     16.23     48.40     38.32      0.00     -0.06      1.06 
   140.25     16.23     48.40     38.32      0.00     -0.06      1.06 
   140.26     16.23     48.40     38.32      0.00     -0.07      1.06 
   140.27     16.23     48.40     38.32      0.00     -0.08      1.47 
   140.28     16.23     48.40     38.32      0.00     -0.08      1.12 
   140.29     16.23     48.39     38.32      0.01     -0.09      1.12 
   140.30     16.23     48.39     38.32      0.01     -0.09      1.12 
   140.31     16.23     48.39     38.32      0.01     -0.11      1.53 
   140.32     16.23     48.39     38.32      0.01     -0.12      1.53 
   140.33     16.23     48.39     38.31      0.01     -0.12      1.53 
   140.34     16.23     48.38     38.31      0.01     -0.13      1.88 
   140.35     16.23     48.38     38.31      0.01     -0.14      1.88 
   140.36     16.23     48.38     38.31      0.01     -0.14      1.18 
   140.37     16.22     48.40     38.31      0.00     -0.12      1.18 
   140.38     16.22     48.40     38.32      0.00     -0.12      1.18 
   140.39     16.22     48.41     38.32      0.00     -0.10      1.18 
   140.40     16.22     48.42     38.33     -0.00     -0.09      1.59 
   140.41     16.22     48.43     38.33     -0.00     -0.08      2.00 
   140.42     16.22     48.44     38.34     -0.01     -0.06      2.35 
   140.43     16.22     48.45     38.35     -0.01     -0.05      2.35 
   140.44     16.22     48.46     38.36     -0.01     -0.03      1.94 
   140.45     16.22     48.47     38.36     -0.01     -0.01      1.94 
   140.46     16.22     48.48     38.37     -0.01     -0.01      1.94 
   140.47     16.22     48.48     38.38     -0.01      0.00      1.94 
   140.48     16.22     48.48     38.38     -0.01     -0.00      2.24 
   140.49     16.23     48.47     38.38     -0.00     -0.01      2.65 
   140.50     16.23     48.46     38.37      0.00     -0.02      2.65 
   140.51     16.23     48.46     38.37      0.00     -0.01      2.29 
   140.52     16.23     48.46     38.37      0.00     -0.02      2.29 
   140.53     16.23     48.46     38.37      0.00     -0.01      2.29 
   140.54     16.23     48.46     38.38      0.00     -0.00      2.29 
   140.55     16.23     48.47     38.38      0.00     -0.01      2.29 
   140.56     16.23     48.46     38.38      0.00     -0.01      2.29 
   140.57     16.23     48.46     38.38      0.00     -0.00      2.29 
   140.58     16.23     48.46     38.38      0.00     -0.01      2.24 
   140.59     16.23     48.46     38.38      0.01     -0.01      1.88 
   140.60     16.23     48.46     38.38      0.00     -0.01      2.29 
   140.61     16.23     48.47     38.39      0.00      0.00      2.29 
   140.62     16.23     48.46     38.39      0.00      0.01      2.29 
   140.63     16.23     48.46     38.39      0.00      0.01      2.29 
   140.64     16.23     48.46     38.39      0.00      0.01      2.29 
   140.65     16.24     48.46     38.39      0.00      0.01      1.94 
   140.66     16.24     48.46     38.39      0.00      0.01      1.53 
   140.67     16.24     48.46     38.38     -0.00      0.01      1.53 
   140.68     16.23     48.46     38.38     -0.00      0.01      1.53 
   140.69     16.23     48.45     38.37     -0.00      0.01      1.94 
   140.70     16.23     48.45     38.37     -0.00      0.00      1.94 
   140.71     16.23     48.45     38.37     -0.00     -0.00      2.35 
   140.72     16.23     48.45     38.36     -0.00     -0.01      2.35 
   140.73     16.23     48.44     38.36     -0.00     -0.02      2.35 
   140.74     16.23     48.43     38.35      0.00     -0.04      1.94 
   140.75     16.23     48.42     38.35      0.01     -0.05      1.59 
   140.76     16.23     48.42     38.35      0.01     -0.05      1.59 
   140.77     16.23     48.41     38.34      0.01     -0.06      1.18 
   140.78     16.23     48.41     38.33      0.01     -0.07      1.18 
   140.79     16.23     48.41     38.33      0.00     -0.06      1.18 
   140.80     16.23     48.42     38.33      0.00     -0.05      1.18 
   140.81     16.23     48.41     38.33     -0.00     -0.05      1.59 
   140.82     16.23     48.41     38.33     -0.00     -0.04      1.59 
   140.83     16.23     48.40     38.32     -0.00     -0.05      1.59 
   140.84     16.23     48.40     38.32     -0.00     -0.05      1.59 
   140.85     16.23     48.40     38.32     -0.01     -0.05      1.59 
   140.86     16.23     48.39     38.32     -0.01     -0.05      1.18 
   140.87     16.23     48.39     38.31     -0.01     -0.05      1.18 
   140.88     16.23     48.39     38.31     -0.01     -0.05      0.76 
   140.89     16.23     48.38     38.31     -0.00     -0.06      0.76 
   140.90     16.23     48.38     38.31     -0.00     -0.07      1.82 
   140.91     16.23     48.37     38.30     -0.00     -0.07      2.24 
   140.92     16.23     48.37     38.30     -0.00     -0.08      2.24 
   140.93     16.23     48.37     38.30     -0.00     -0.08      2.24 
   140.94     16.22     48.38     38.30     -0.00     -0.08      2.24 
   140.95     16.22     48.37     38.30     -0.00     -0.07      2.24 
   140.96     16.22     48.38     38.30     -0.00     -0.07      2.24 
   140.97     16.22     48.38     38.30     -0.00     -0.06      2.24 
   140.98     16.22     48.38     38.30      0.00     -0.06      1.82 
   140.99     16.22     48.38     38.30      0.00     -0.06      1.47 
   141.00     16.22     48.39     38.31     -0.00     -0.04      1.47 
   141.01     16.22     48.39     38.31     -0.00     -0.04      1.47 
   141.02     16.22     48.39     38.31      0.00     -0.04      1.47 
   141.03     16.23     48.40     38.32      0.00     -0.03      1.47 
   141.04     16.23     48.39     38.32      0.00     -0.04      1.88 
   141.05     16.23     48.40     38.32      0.00     -0.03      1.88 
   141.06     16.23     48.40     38.32      0.00     -0.03      1.88 
   141.07     16.23     48.40     38.33      0.00     -0.02      1.24 
   141.08     16.23     48.41     38.33      0.01     -0.02      0.82 
   141.09     16.23     48.41     38.33      0.01     -0.03      0.82 
   141.10     16.23     48.41     38.33      0.00     -0.02      0.82 
   141.11     16.23     48.40     38.33      0.01     -0.02      0.82 
   141.12     16.23     48.40     38.33      0.01     -0.02      0.82 
   141.13     16.23     48.40     38.33      0.00     -0.01      0.82 
   141.14     16.23     48.40     38.33      0.01     -0.01      0.82 
   141.15     16.23     48.41     38.34      0.00      0.00      1.18 
   141.16     16.23     48.41     38.34      0.00      0.00      1.18 
   141.17     16.23     48.42     38.34      0.00      0.01      1.18 
   141.18     16.23     48.42     38.34      0.00      0.02      1.53 
   141.19     16.22     48.43     38.34     -0.00      0.02      1.53 
   141.20     16.22     48.43     38.34     -0.00      0.03      2.24 
   141.21     16.23     48.43     38.34     -0.00      0.03      1.82 
