#Written by Robertson Geologging WinLogger V1.0/370
~VERSION INFORMATION
#------------------------------------------------------------------------------
 VERS. 2.0 : CWLS LOG ASCII STANDARD - VERSION 2.0
 WRAP. NO  : ONE LINE PER DEPTH STEP
~WELL INFORMATION
#MNEM.UNIT         DATA                                DESCRIPTION OF MNEMONIC
#------------------------------------------------------------------------------
 STRT.M         73.4200                            :   START DEPTH
 STOP.M        406.0200                            :   STOP DEPTH
 STEP.M          0.0100                            :   STEP VALUE
 NULL.        -999.2500                            :   NULL VALUE
 COMP.    WHITE YOUN GREEN                         :   COMPANY NAME
 WELL.    HORDEN SHAFT                             :   WELL NAME
 FLD.     HORDEN                                   :   FIELD NAME
 LOC.     N/A                                      :   LOCATION
 PROV.    N/A                                      :   PROVINCE
 SRVC.    N/A                                      :   SERVICE COMPANY NAME
 DATE.    12 Dec 06                                :   DATE
 UWI.     N/A                                      :   UNIQUE WELL IDENTIFIER
~PARAMETER INFORMATION
#MNEMO.UNIT         VALUE                 DESCRIPTION OF MNEMONIC
#------------------------------------------------------------------------------
~OTHER INFORMATION SECTION
#------------------------------------------------------------------------------
 lLOGGING DOWN
~CURVE INFORMATION
#MNEMO.UNIT         API CODE              CURVE DESCRIPTION
#------------------------------------------------------------------------------
 DEPTH.M                                 :   0     Depth
 TEMP.DegC                               :   1     Temperature
 CN25.mS/cm                              :   2     Conductivity@25DegC
 COND.mS/cm                              :   3     Conductivity
 DELT.DegC                               :   4     Delta T
 DELC.mS/cm                              :   5     Delta C
 NGAM.CPS                                :   6     Natural Gamma
#------------------------------------------------------------------------------
~A  DEPTH     TEMP      CN25      COND      DELT      DELC      NGAM      
# ...
   249.70     17.18     66.48     55.35      0.00     -0.00      4.82 
   249.71     17.18     66.48     55.35     -0.00      0.01      4.41 
   249.72     17.18     66.47     55.35     -0.00      0.00      4.00 
   249.73     17.18     66.47     55.35     -0.00      0.00      3.18 
   249.74     17.18     66.47     55.35      0.00      0.00      2.82 
   249.75     17.18     66.46     55.35      0.00     -0.00      2.82 
   249.76     17.18     66.45     55.35      0.00     -0.01      2.82 
   249.77     17.19     66.46     55.35      0.00     -0.00      2.00 
   249.78     17.19     66.45     55.35      0.00     -0.00      1.65 
   249.79     17.19     66.45     55.35      0.00     -0.00      1.24 
   249.80     17.19     66.45     55.35      0.00      0.01      1.65 
   249.81     17.19     66.45     55.35     -0.00      0.00      1.65 
   249.82     17.19     66.45     55.35      0.00      0.01      1.65 
   249.83     17.19     66.45     55.35      0.00     -0.00      1.24 
   249.84     17.19     66.45     55.35      0.00      0.01      1.24 
   249.85     17.19     66.45     55.35      0.00      0.00      1.65 
   249.86     17.19     66.45     55.35      0.00      0.01      2.00 
   249.87     17.19     66.46     55.36      0.00      0.00      2.41 
   249.88     17.19     66.46     55.35      0.01     -0.00      3.24 
   249.89     17.18     66.46     55.35      0.01     -0.00      3.65 
   249.90     17.18     66.47     55.35      0.01     -0.00      3.65 
   249.91     17.18     66.48     55.35      0.00     -0.00      3.65 
   249.92     17.18     66.48     55.35      0.00      0.00      3.65 
   249.93     17.18     66.49     55.35      0.00      0.00      4.06 
   249.94     17.17     66.49     55.35      0.00      0.01      4.47 
   249.95     17.17     66.49     55.35     -0.00      0.01      5.18 
   249.96     17.17     66.50     55.36     -0.01      0.03      5.18 
   249.97     17.17     66.50     55.36     -0.01      0.04      5.18 
   249.98     17.17     66.50     55.35     -0.02      0.06      5.18 
   249.99     17.17     66.51     55.35     -0.02      0.07      5.18 
   250.00     17.17     66.51     55.36     -0.02      0.07      5.18 
   250.01     17.17     66.50     55.35     -0.02      0.07      5.59 
   250.02     17.17     66.50     55.35     -0.02      0.07      6.00 
   250.03     17.17     66.50     55.35     -0.02      0.07      5.65 
   250.04     17.17     66.49     55.35     -0.02      0.07      5.94 
   250.05     17.17     66.49     55.35     -0.02      0.06      5.12 
   250.06     17.18     66.47     55.35     -0.01      0.04      4.71 
   250.07     17.18     66.47     55.35     -0.01      0.02      4.71 
   250.08     17.18     66.46     55.35     -0.00      0.02      4.71 
   250.09     17.18     66.46     55.35     -0.01      0.03      4.71 
   250.10     17.19     66.46     55.35     -0.01      0.03      4.71 
   250.11     17.19     66.45     55.35     -0.01      0.03      4.29 
   250.12     17.19     66.45     55.35     -0.01      0.02      4.00 
   250.13     17.19     66.46     55.35     -0.00      0.02      3.59 
   250.14     17.18     66.46     55.35     -0.00      0.02      3.18 
   250.15     17.18     66.46     55.35     -0.00      0.02      3.18 
   250.16     17.18     66.48     55.35     -0.01      0.04      3.59 
   250.17     17.17     66.49     55.35     -0.02      0.06      4.82 
   250.18     17.17     66.50     55.35     -0.02      0.07      5.24 
   250.19     17.17     66.51     55.35     -0.02      0.07      4.41 
   250.20     17.16     66.51     55.35     -0.02      0.07      4.41 
   250.21     17.17     66.51     55.35     -0.02      0.06      4.12 
   250.22     17.17     66.50     55.35     -0.02      0.05      4.53 
   250.23     17.17     66.50     55.35     -0.02      0.06      4.53 
   250.24     17.17     66.51     55.35     -0.02      0.06      4.53 
   250.25     17.17     66.50     55.35     -0.02      0.06      5.35 
   250.26     17.17     66.50     55.35     -0.02      0.06      5.35 
   250.27     17.17     66.49     55.35     -0.01      0.04      4.53 
   250.28     17.18     66.48     55.35     -0.01      0.04      4.53 
   250.29     17.18     66.48     55.35     -0.01      0.04      4.53 
   250.30     17.18     66.48     55.35     -0.01      0.04      5.35 
   250.31     17.18     66.48     55.35     -0.01      0.04      5.76 
   250.32     17.18     66.48     55.35     -0.01      0.04      5.76 
   250.33     17.17     66.48     55.35     -0.01      0.04      5.35 
   250.34     17.18     66.48     55.35     -0.01      0.03      4.12 
   250.35     17.18     66.48     55.35     -0.01      0.03      3.71 
   250.36     17.18     66.48     55.35     -0.01      0.02      4.53 
   250.37     17.18     66.48     55.35     -0.01      0.01      4.53 
   250.38     17.18     66.48     55.35     -0.01      0.02      4.12 
   250.39     17.18     66.48     55.35     -0.01      0.02      3.71 
   250.40     17.18     66.47     55.35     -0.00      0.01      4.12 
   250.41     17.18     66.47     55.34     -0.00      0.01      4.12 
   250.42     17.18     66.46     55.34     -0.01      0.01      3.29 
   250.43     17.18     66.46     55.34     -0.01      0.01      3.29 
   250.44     17.18     66.46     55.35     -0.01      0.01      4.12 
   250.45     17.18     66.46     55.34     -0.01      0.02      4.12 
   250.46     17.18     66.46     55.34     -0.01      0.02      3.71 
   250.47     17.18     66.46     55.34     -0.01      0.02      3.59 
   250.48     17.18     66.47     55.34     -0.01      0.03      3.18 
   250.49     17.18     66.48     55.34     -0.02      0.04      3.59 
   250.50     17.17     66.48     55.34     -0.02      0.04      3.59 
   250.51     17.17     66.49     55.35     -0.02      0.05      4.00 
   250.52     17.17     66.48     55.35     -0.01      0.03      4.00 
   250.53     17.18     66.47     55.35     -0.01      0.02      3.59 
   250.54     17.18     66.47     55.35     -0.00      0.01      4.65 
   250.55     17.18     66.47     55.35     -0.00      0.01      4.65 
   250.56     17.18     66.47     55.35     -0.00      0.01      4.65 
   250.57     17.18     66.47     55.35     -0.00      0.00      4.24 
   250.58     17.18     66.46     55.35     -0.00     -0.00      4.24 
   250.59     17.19     66.46     55.35      0.00     -0.01      4.65 
   250.60     17.19     66.45     55.35      0.01     -0.02      5.00 
   250.61     17.19     66.44     55.35      0.01     -0.03      4.59 
   250.62     17.19     66.44     55.35      0.01     -0.03      4.59 
   250.63     17.19     66.45     55.35      0.01     -0.02      5.00 
   250.64     17.19     66.45     55.35      0.01     -0.03      4.71 
   250.65     17.19     66.44     55.35      0.01     -0.03      5.06 
   250.66     17.19     66.44     55.35      0.01     -0.03      5.47 
   250.67     17.19     66.45     55.35      0.01     -0.03      5.88 
   250.68     17.19     66.45     55.35      0.01     -0.02      5.47 
   250.69     17.19     66.46     55.35      0.01     -0.02      5.47 
   250.70     17.18     66.46     55.35      0.01     -0.02      5.06 
   250.71     17.19     66.46     55.35      0.01     -0.01      4.41 
   250.72     17.19     66.46     55.35      0.01     -0.01      4.82 
   250.73     17.19     66.45     55.35      0.00     -0.01      4.82 
   250.74     17.19     66.45     55.35      0.00     -0.01      5.53 
   250.75     17.18     66.46     55.35      0.00      0.01      5.53 
   250.76     17.18     66.47     55.35     -0.00      0.01      5.94 
   250.77     17.18     66.47     55.35     -0.01      0.02      6.00 
   250.78     17.18     66.47     55.35     -0.01      0.03      5.59 
   250.79     17.18     66.47     55.35     -0.01      0.02      5.59 
   250.80     17.18     66.46     55.35     -0.01      0.01      5.59 
   250.81     17.18     66.47     55.35     -0.01      0.02      6.00 
   250.82     17.18     66.47     55.35     -0.01      0.02      6.06 
