#Written by Robertson Geologging WinLogger V1.0/312
~VERSION INFORMATION
#------------------------------------------------------------------------------
 VERS. 2.0 : CWLS LOG ASCII STANDARD - VERSION 2.0
 WRAP. NO  : ONE LINE PER DEPTH STEP
~WELL INFORMATION
#MNEM.UNIT         DATA                                DESCRIPTION OF MNEMONIC
#------------------------------------------------------------------------------
 STRT.M         75.1000                            :   START DEPTH
 STOP.M        380.0000                            :   STOP DEPTH
 STEP.M          0.1000                            :   STEP VALUE
 NULL.        -999.2500                            :   NULL VALUE
 COMP.    I.M.C.                                   :   COMPANY NAME
 WELL.    South shaft                              :   WELL NAME
 FLD.     Hordon                                   :   FIELD NAME
 LOC.     N/A                                      :   LOCATION
 PROV.    N/A                                      :   PROVINCE
 SRVC.    N/A                                      :   SERVICE COMPANY NAME
 DATE.    05 Jan 04                                :   DATE
 UWI.     N/A                                      :   UNIQUE WELL IDENTIFIER
~PARAMETER INFORMATION
#MNEMO.UNIT         VALUE                 DESCRIPTION OF MNEMONIC
#------------------------------------------------------------------------------
~OTHER INFORMATION SECTION
#------------------------------------------------------------------------------
 TCGS ex range 1365
~CURVE INFORMATION
#MNEMO.UNIT         API CODE              CURVE DESCRIPTION
#------------------------------------------------------------------------------
 DEPTH.M                                 :   0     Depth
 COND.mS/cm                              :   1     Conductivity
 TEMP.DegC                               :   2     Temperature
 C@25.mS/cm                              :   3     Conductivity @25Deg
 DELT.DegC                               :   4     Delta T
 DC@25.mS/cm                             :   5     Delta C @25Deg
 OUT4.CPS                                :   6     Natural Gamma
#------------------------------------------------------------------------------
~A  DEPTH     COND      TEMP      C@25      DELT      DC@25     OUT4      
# ...
   346.30     12.93     15.61     18.52      0.00      0.00      6.24 
   346.40     12.93     15.61     18.52     -0.00      0.00      4.41 
   346.50     12.92     15.61     18.51     -0.01      0.01      6.35 
   346.60     12.93     15.61     18.52     -0.00      0.00      6.29 
   346.70     12.92     15.61     18.51     -0.00      0.00      5.53 
   346.80     12.92     15.62     18.51     -0.00      0.00      6.94 
   346.90     12.93     15.61     18.51     -0.00      0.00      8.82 
   347.00     12.93     15.61     18.52      0.00     -0.00      8.24 
   347.10     12.92     15.61     18.51      0.01     -0.01      4.59 
   347.20     12.93     15.61     18.51     -0.00      0.01      4.29 
   347.30     12.93     15.62     18.51      0.01     -0.02      3.12 
   347.40     12.93     15.62     18.50      0.01     -0.01      2.76 
   347.50     12.93     15.61     18.51      0.00     -0.01      3.65 
   347.60     12.92     15.61     18.52     -0.00      0.00      4.53 
   347.70     12.93     15.62     18.50      0.01     -0.01      4.88 
   347.80     12.93     15.62     18.50      0.00     -0.01      2.00 
   347.90     12.93     15.61     18.51      0.00     -0.01      4.29 
   348.00     12.93     15.61     18.51     -0.00      0.01      4.71 
   348.10     12.93     15.61     18.51      0.00     -0.00      2.65 
   348.20     12.93     15.61     18.51      0.00     -0.01      3.41 
   348.30     12.93     15.62     18.50      0.00     -0.00      4.82 
   348.40     12.93     15.61     18.51     -0.00      0.00      6.71 
   348.50     12.93     15.61     18.51      0.00     -0.01      5.12 
   348.60     12.93     15.61     18.51      0.00      0.00      3.29 
   348.70     12.93     15.61     18.52     -0.01      0.02      3.65 
   348.80     12.93     15.61     18.51     -0.01      0.01      6.12 
   348.90     12.93     15.62     18.50      0.00     -0.01      6.00 
   349.00     12.93     15.61     18.51      0.00     -0.00      5.59 
   349.10     12.92     15.61     18.51     -0.00      0.00      5.53 
   349.20     12.93     15.61     18.52     -0.01      0.01      3.94 
   349.30     12.93     15.61     18.51     -0.01      0.01      7.82 
   349.40     12.93     15.61     18.52     -0.01      0.01      5.41 
   349.50     12.93     15.61     18.52     -0.00      0.01      2.41 
   349.60     12.93     15.62     18.50      0.01     -0.01      5.24 
   349.70     12.93     15.61     18.50      0.01     -0.01      6.59 
   349.80     12.93     15.61     18.51      0.00     -0.00      6.47 
   349.90     12.93     15.61     18.51     -0.00      0.00      6.12 
   350.00     12.93     15.61     18.51      0.00     -0.00      7.35 
   350.10     12.93     15.62     18.51      0.01     -0.01      6.76 
   350.20     12.93     15.61     18.51      0.01     -0.01      7.47 
   350.30     12.93     15.61     18.51     -0.00      0.00      7.76 
   350.40     12.93     15.61     18.52      0.00     -0.00      4.71 
   350.50     12.93     15.61     18.52     -0.00      0.00      5.47 
   350.60     12.93     15.61     18.51     -0.01      0.01      4.00 
   350.70     12.93     15.61     18.52     -0.01      0.01      7.06 
   350.80     12.93     15.61     18.51      0.00      0.00      7.12 
   350.90     12.93     15.61     18.52     -0.00      0.00      5.12 
   351.00     12.93     15.60     18.53     -0.01      0.02      7.12 
   351.10     12.93     15.61     18.51     -0.01      0.02      7.59 
   351.20     12.93     15.61     18.52     -0.00      0.00      7.18 
   351.30     12.93     15.61     18.51      0.00     -0.00      7.06 
   351.40     12.93     15.60     18.53     -0.01      0.01      6.59 
   351.50     12.93     15.60     18.53     -0.01      0.01      5.06 
   351.60     12.93     15.61     18.52     -0.00      0.01      3.94 
   351.70     12.93     15.61     18.52      0.00      0.00      3.94 
   351.80     12.93     15.61     18.52     -0.01      0.01      3.94 
   351.90     12.93     15.61     18.52      0.00     -0.01      5.12 
   352.00     12.93     15.61     18.51      0.01     -0.02      6.24 
   352.10     12.93     15.60     18.52     -0.01      0.01      6.06 
   352.20     12.93     15.61     18.51      0.00     -0.00      7.65 
   352.30     12.93     15.62     18.51      0.01     -0.01      4.65 
   352.40     12.93     15.61     18.51      0.01     -0.01      6.18 
   352.50     12.93     15.60     18.52      0.00     -0.00      8.00 
   352.60     12.93     15.60     18.52     -0.00      0.01      7.35 
   352.70     12.93     15.61     18.52      0.00     -0.00      5.71 
   352.80     12.93     15.61     18.52      0.00     -0.01      5.65 
   352.90     12.93     15.61     18.51      0.00     -0.00      4.94 
   353.00     12.93     15.61     18.52     -0.00      0.00      3.88 
   353.10     12.93     15.61     18.52      0.01     -0.01      6.18 
   353.20     12.93     15.61     18.51      0.00      0.00      6.24 
   353.30     12.93     15.61     18.51     -0.00      0.01      6.00 
   353.40     12.93     15.61     18.51     -0.00      0.00      5.24 
   353.50     12.93     15.61     18.52      0.00     -0.00      7.29 
   353.60     12.93     15.60     18.53     -0.00      0.01      6.24 
   353.70     12.93     15.62     18.50      0.01     -0.01      5.94 
   353.80     12.93     15.60     18.52     -0.01      0.01      5.88 
   353.90     12.93     15.60     18.53     -0.01      0.02      6.47 
   354.00     12.93     15.61     18.52      0.00     -0.00      5.00 
   354.10     12.93     15.61     18.52     -0.01      0.01      5.24 
   354.20     12.93     15.61     18.52     -0.00      0.00      4.88 
   354.30     12.93     15.60     18.53     -0.01      0.02      3.47 
   354.40     13.17     15.62     18.75      0.00      0.29      5.82 
   354.50     13.70     15.62     19.41      0.01      0.94      5.82 
   354.60     14.02     15.63     19.80      0.02      1.31      8.18 
   354.70     14.29     15.65     20.11      0.03      1.64      8.65 
   354.80     14.56     15.67     20.41      0.06      1.91      7.12 
   354.90     14.86     15.68     20.75      0.08      2.26      6.82 
   355.00     15.18     15.71     21.10      0.10      2.62      6.76 
   355.10     15.54     15.72     21.53      0.11      3.05      6.47 
   355.20     15.97     15.72     22.03      0.11      3.56      7.59 
   355.30     16.43     15.73     22.59      0.12      4.11      9.59 
   355.40     16.96     15.74     23.20      0.12      4.39      5.82 
   355.50     17.50     15.75     23.86      0.13      4.42      7.00 
   355.60     18.10     15.75     24.57      0.13      4.78      7.65 
   355.70     18.76     15.77     25.35      0.11      5.27      8.53 
   355.80     19.47     15.77     26.21      0.11      5.83      7.76 
   355.90     20.30     15.77     27.21      0.09      6.49      6.59 
   356.00     21.16     15.79     28.24      0.08      7.17      7.59 
   356.10     22.02     15.79     29.28      0.08      7.76      7.88 
   356.20     22.84     15.81     30.27      0.09      8.23      8.82 
   356.30     23.70     15.83     31.28      0.10      8.68     10.06 
   356.40     24.49     15.83     32.25      0.09      9.01      8.35 
   356.50     25.28     15.84     33.20      0.09      9.31      6.00 
   356.60     26.07     15.86     34.14      0.10      9.51      4.59 
   356.70     26.89     15.87     35.12      0.10      9.70      5.71 
   356.80     27.61     15.88     35.99      0.11      9.66      8.06 
   356.90     28.18     15.90     36.67      0.12      9.32      6.88 
   357.00     28.71     15.91     37.30      0.12      8.91      6.06 
   357.10     29.18     15.93     37.85      0.13      8.42      5.53 
   357.20     29.60     15.93     38.34      0.12      7.93      6.35 
   357.30     29.92     15.96     38.71      0.13      7.26      8.00 
   357.40     30.20     15.98     39.02      0.14      6.62      7.29 
   357.50     30.46     16.00     39.30      0.16      5.92      7.29 
