#Written by Robertson Geologging WinLogger V1.0/370
~VERSION INFORMATION
#------------------------------------------------------------------------------
 VERS. 2.0 : CWLS LOG ASCII STANDARD - VERSION 2.0
 WRAP. NO  : ONE LINE PER DEPTH STEP
~WELL INFORMATION
#MNEM.UNIT         DATA                                DESCRIPTION OF MNEMONIC
#------------------------------------------------------------------------------
 STRT.M         73.4200                            :   START DEPTH
 STOP.M        406.0200                            :   STOP DEPTH
 STEP.M          0.0100                            :   STEP VALUE
 NULL.        -999.2500                            :   NULL VALUE
 COMP.    WHITE YOUN GREEN                         :   COMPANY NAME
 WELL.    HORDEN SHAFT                             :   WELL NAME
 FLD.     HORDEN                                   :   FIELD NAME
 LOC.     N/A                                      :   LOCATION
 PROV.    N/A                                      :   PROVINCE
 SRVC.    N/A                                      :   SERVICE COMPANY NAME
 DATE.    12 Dec 06                                :   DATE
 UWI.     N/A                                      :   UNIQUE WELL IDENTIFIER
~PARAMETER INFORMATION
#MNEMO.UNIT         VALUE                 DESCRIPTION OF MNEMONIC
#------------------------------------------------------------------------------
~OTHER INFORMATION SECTION
#------------------------------------------------------------------------------
 lLOGGING DOWN
~CURVE INFORMATION
#MNEMO.UNIT         API CODE              CURVE DESCRIPTION
#------------------------------------------------------------------------------
 DEPTH.M                                 :   0     Depth
 TEMP.DegC                               :   1     Temperature
 CN25.mS/cm                              :   2     Conductivity@25DegC
 COND.mS/cm                              :   3     Conductivity
 DELT.DegC                               :   4     Delta T
 DELC.mS/cm                              :   5     Delta C
 NGAM.CPS                                :   6     Natural Gamma
#------------------------------------------------------------------------------
~A  DEPTH     TEMP      CN25      COND      DELT      DELC      NGAM      
# ...
   360.44     19.01     82.83     74.02      0.00     -0.01      5.65 
   360.45     19.01     82.81     74.02      0.00     -0.02      5.65 
   360.46     19.01     82.81     74.02      0.01     -0.02      5.65 
   360.47     19.01     82.81     74.02      0.01     -0.02      5.24 
   360.48     19.01     82.81     74.02      0.01     -0.02      5.53 
   360.49     19.01     82.81     74.02      0.00     -0.02      5.94 
   360.50     19.01     82.83     74.02      0.00     -0.02      5.12 
   360.51     19.01     82.83     74.02      0.00     -0.02      5.82 
   360.52     19.01     82.83     74.02      0.01     -0.03      6.24 
   360.53     19.01     82.83     74.02      0.01     -0.04      6.18 
   360.54     19.01     82.83     74.02      0.01     -0.05      6.18 
   360.55     19.01     82.83     74.02      0.02     -0.07      6.59 
   360.56     19.00     82.84     74.02      0.02     -0.07      6.94 
   360.57     19.00     82.84     74.02      0.02     -0.08      6.94 
   360.58     19.00     82.86     74.02      0.02     -0.07      6.47 
   360.59     18.99     82.87     74.02      0.02     -0.06      6.06 
   360.60     18.99     82.89     74.02      0.01     -0.04      5.35 
   360.61     18.99     82.89     74.02      0.01     -0.02      6.41 
   360.62     18.99     82.89     74.02     -0.00      0.00      6.82 
   360.63     18.99     82.90     74.02     -0.01      0.02      7.24 
   360.64     18.99     82.89     74.02     -0.01      0.03      7.59 
   360.65     18.99     82.89     74.02     -0.01      0.04      8.94 
   360.66     18.99     82.88     74.02     -0.01      0.04      8.94 
   360.67     18.99     82.88     74.02     -0.01      0.05      9.29 
   360.68     18.99     82.89     74.02     -0.02      0.06      8.59 
   360.69     18.99     82.88     74.02     -0.01      0.04      7.76 
   360.70     18.99     82.87     74.02     -0.01      0.03      8.65 
   360.71     19.00     82.86     74.02     -0.00      0.01      8.65 
   360.72     19.00     82.84     74.02      0.00     -0.01      8.59 
   360.73     19.00     82.84     74.02      0.00     -0.01      9.06 
   360.74     19.00     82.84     74.02      0.00     -0.02      9.76 
   360.75     19.00     82.85     74.02      0.00     -0.01      9.82 
   360.76     19.00     82.85     74.02      0.00     -0.01      9.82 
   360.77     19.00     82.85     74.02      0.00     -0.02     10.18 
   360.78     19.00     82.85     74.02      0.00     -0.01      9.12 
   360.79     19.00     82.85     74.02      0.00     -0.01      8.29 
   360.80     19.00     82.85     74.02      0.00      0.00      8.29 
   360.81     19.00     82.85     74.02     -0.00      0.00      7.94 
   360.82     19.00     82.85     74.02      0.00     -0.00      6.29 
   360.83     19.00     82.85     74.02      0.00     -0.01      5.88 
   360.84     19.00     82.84     74.02      0.01     -0.02      6.24 
   360.85     19.00     82.84     74.02      0.01     -0.03      6.65 
   360.86     19.01     82.83     74.02      0.01     -0.02      6.65 
   360.87     19.01     82.83     74.02      0.00     -0.02      5.76 
   360.88     19.00     82.84     74.02      0.00      0.00      6.59 
   360.89     19.01     82.83     74.02     -0.00      0.01      6.24 
   360.90     19.01     82.83     74.03     -0.00      0.01      6.88 
   360.91     19.01     82.83     74.02     -0.00      0.01      6.59 
   360.92     19.01     82.82     74.03     -0.00      0.01      7.41 
   360.93     19.01     82.82     74.03     -0.00      0.02      7.00 
   360.94     19.01     82.82     74.03     -0.01      0.03      7.06 
   360.95     19.01     82.83     74.03     -0.01      0.05      7.41 
   360.96     19.01     82.84     74.03     -0.02      0.06      7.41 
   360.97     19.01     82.84     74.03     -0.02      0.06      8.24 
   360.98     19.01     82.84     74.03     -0.02      0.06      9.06 
   360.99     19.01     82.84     74.03     -0.02      0.05      9.00 
   361.00     19.00     82.84     74.03     -0.01      0.05     10.65 
   361.01     19.00     82.84     74.03     -0.01      0.04     10.35 
   361.02     19.00     82.84     74.03     -0.01      0.03      9.94 
   361.03     19.00     82.84     74.03     -0.01      0.02     10.65 
   361.04     19.00     82.85     74.03     -0.01      0.03     10.29 
   361.05     19.00     82.86     74.03     -0.01      0.03     10.29 
   361.06     19.00     82.88     74.03     -0.01      0.03     10.65 
   361.07     18.99     82.89     74.03     -0.01      0.04     10.00 
   361.08     18.99     82.90     74.03     -0.01      0.04      9.94 
   361.09     18.99     82.90     74.03     -0.01      0.04     10.76 
   361.10     18.99     82.90     74.03     -0.01      0.04     10.76 
   361.11     18.99     82.90     74.03     -0.01      0.04     10.35 
   361.12     18.99     82.89     74.03     -0.01      0.04     10.35 
   361.13     18.99     82.90     74.03     -0.01      0.05     10.35 
   361.14     18.99     82.90     74.03     -0.01      0.05      9.12 
   361.15     18.99     82.89     74.03     -0.01      0.05      9.12 
   361.16     18.99     82.88     74.03     -0.01      0.04      8.76 
   361.17     19.00     82.86     74.03     -0.01      0.02      7.82 
   361.18     19.00     82.86     74.03     -0.00      0.01      9.06 
   361.19     19.00     82.85     74.03      0.00      0.00      9.06 
   361.20     19.00     82.85     74.03      0.01     -0.01      9.06 
   361.21     19.01     82.85     74.03      0.01     -0.01      9.06 
   361.22     19.01     82.85     74.03      0.01     -0.01      8.65 
   361.23     19.00     82.86     74.04      0.01     -0.00      8.65 
   361.24     19.00     82.86     74.03      0.01      0.00      8.65 
   361.25     19.00     82.87     74.04      0.00      0.02      8.71 
   361.26     19.00     82.88     74.04     -0.00      0.03      6.65 
   361.27     19.00     82.88     74.03     -0.00      0.03      7.88 
   361.28     18.99     82.89     74.03     -0.01      0.04      8.29 
   361.29     18.99     82.89     74.04     -0.01      0.04      8.29 
   361.30     18.99     82.90     74.04     -0.01      0.05      8.29 
   361.31     18.99     82.91     74.04     -0.02      0.06      9.12 
   361.32     18.99     82.91     74.04     -0.02      0.07      9.76 
   361.33     18.99     82.91     74.04     -0.02      0.08     10.18 
   361.34     18.99     82.91     74.04     -0.02      0.07      9.47 
   361.35     18.99     82.90     74.04     -0.01      0.06      7.82 
   361.36     18.99     82.89     74.04     -0.01      0.05      8.65 
   361.37     19.00     82.88     74.04     -0.01      0.05      8.76 
   361.38     19.00     82.88     74.04     -0.01      0.05      9.18 
   361.39     19.00     82.87     74.04     -0.01      0.05      9.12 
   361.40     19.01     82.86     74.05     -0.00      0.03      9.59 
   361.41     19.01     82.84     74.05      0.00      0.02      9.18 
   361.42     19.02     82.83     74.05      0.01      0.01      8.76 
   361.43     19.02     82.83     74.05      0.01      0.00      8.76 
   361.44     19.02     82.83     74.05      0.00      0.02      7.53 
   361.45     19.01     82.84     74.05      0.00      0.03      7.53 
   361.46     19.01     82.85     74.05     -0.00      0.04      8.00 
   361.47     19.01     82.85     74.05     -0.00      0.04      8.82 
   361.48     19.01     82.86     74.05      0.00      0.04      8.41 
   361.49     19.01     82.86     74.06      0.00      0.03      6.94 
   361.50     19.01     82.87     74.06      0.00      0.04      7.35 
   361.51     19.01     82.87     74.05     -0.00      0.04      7.35 
   361.52     19.00     82.88     74.06     -0.00      0.05      7.71 
   361.53     19.00     82.89     74.06     -0.01      0.06      7.29 
   361.54     19.00     82.88     74.06     -0.00      0.06      7.29 
   361.55     19.01     82.87     74.05      0.00      0.03      7.71 
   361.56     19.01     82.88     74.06      0.00      0.03      7.76 
