#Written by Robertson Geologging WinLogger V1.0/370
~VERSION INFORMATION
#------------------------------------------------------------------------------
 VERS. 2.0 : CWLS LOG ASCII STANDARD - VERSION 2.0
 WRAP. NO  : ONE LINE PER DEPTH STEP
~WELL INFORMATION
#MNEM.UNIT         DATA                                DESCRIPTION OF MNEMONIC
#------------------------------------------------------------------------------
 STRT.M         73.4200                            :   START DEPTH
 STOP.M        406.0200                            :   STOP DEPTH
 STEP.M          0.0100                            :   STEP VALUE
 NULL.        -999.2500                            :   NULL VALUE
 COMP.    WHITE YOUN GREEN                         :   COMPANY NAME
 WELL.    HORDEN SHAFT                             :   WELL NAME
 FLD.     HORDEN                                   :   FIELD NAME
 LOC.     N/A                                      :   LOCATION
 PROV.    N/A                                      :   PROVINCE
 SRVC.    N/A                                      :   SERVICE COMPANY NAME
 DATE.    12 Dec 06                                :   DATE
 UWI.     N/A                                      :   UNIQUE WELL IDENTIFIER
~PARAMETER INFORMATION
#MNEMO.UNIT         VALUE                 DESCRIPTION OF MNEMONIC
#------------------------------------------------------------------------------
~OTHER INFORMATION SECTION
#------------------------------------------------------------------------------
 lLOGGING DOWN
~CURVE INFORMATION
#MNEMO.UNIT         API CODE              CURVE DESCRIPTION
#------------------------------------------------------------------------------
 DEPTH.M                                 :   0     Depth
 TEMP.DegC                               :   1     Temperature
 CN25.mS/cm                              :   2     Conductivity@25DegC
 COND.mS/cm                              :   3     Conductivity
 DELT.DegC                               :   4     Delta T
 DELC.mS/cm                              :   5     Delta C
 NGAM.CPS                                :   6     Natural Gamma
#------------------------------------------------------------------------------
~A  DEPTH     TEMP      CN25      COND      DELT      DELC      NGAM      
# ...
    96.02     16.28     48.72     38.69     -0.01     -0.03      2.35 
    96.03     16.28     48.72     38.69     -0.00     -0.04      1.94 
    96.04     16.28     48.72     38.70     -0.00     -0.03      2.35 
    96.05     16.28     48.73     38.70     -0.01     -0.03      2.76 
    96.06     16.28     48.73     38.70     -0.01     -0.03      3.12 
    96.07     16.29     48.72     38.70     -0.01     -0.03      3.12 
    96.08     16.29     48.72     38.70     -0.00     -0.03      3.53 
    96.09     16.29     48.72     38.70     -0.00     -0.03      3.53 
    96.10     16.29     48.72     38.70     -0.00     -0.03      3.12 
    96.11     16.29     48.72     38.70     -0.00     -0.03      3.12 
    96.12     16.29     48.72     38.70     -0.00     -0.02      3.53 
    96.13     16.29     48.72     38.70     -0.00     -0.02      3.53 
    96.14     16.29     48.72     38.70     -0.00     -0.02      3.53 
    96.15     16.29     48.72     38.70     -0.00     -0.03      3.59 
    96.16     16.29     48.72     38.70     -0.00     -0.02      3.59 
    96.17     16.29     48.72     38.71     -0.00     -0.02      3.59 
    96.18     16.29     48.73     38.71     -0.01     -0.01      3.59 
    96.19     16.29     48.73     38.71     -0.01     -0.01      3.24 
    96.20     16.29     48.74     38.71     -0.01     -0.01      3.24 
    96.21     16.29     48.74     38.71     -0.01     -0.00      2.41 
    96.22     16.29     48.74     38.71     -0.01     -0.01      2.41 
    96.23     16.29     48.74     38.71     -0.01     -0.01      2.06 
    96.24     16.29     48.74     38.71     -0.00     -0.01      2.06 
    96.25     16.29     48.74     38.71     -0.00     -0.01      1.65 
    96.26     16.29     48.74     38.71     -0.00     -0.00      1.65 
    96.27     16.29     48.74     38.71     -0.00     -0.00      2.12 
    96.28     16.29     48.74     38.71     -0.00     -0.01      2.12 
    96.29     16.29     48.74     38.71     -0.00     -0.01      2.12 
    96.30     16.29     48.73     38.71     -0.00     -0.01      2.12 
    96.31     16.29     48.74     38.71     -0.00     -0.01      2.12 
    96.32     16.29     48.74     38.71     -0.00     -0.01      1.71 
    96.33     16.29     48.74     38.71     -0.00     -0.01      1.71 
    96.34     16.29     48.73     38.71     -0.00     -0.01      1.29 
    96.35     16.29     48.73     38.71     -0.01     -0.01      1.29 
    96.36     16.29     48.73     38.71     -0.01     -0.01      1.29 
    96.37     16.29     48.73     38.71     -0.01     -0.01      1.29 
    96.38     16.29     48.73     38.71     -0.01     -0.01      1.29 
    96.39     16.29     48.74     38.71     -0.01      0.01      0.88 
    96.40     16.29     48.74     38.71     -0.01      0.02      0.88 
    96.41     16.29     48.74     38.71     -0.02      0.02      0.88 
    96.42     16.29     48.74     38.71     -0.02      0.02      0.88 
    96.43     16.28     48.74     38.71     -0.02      0.02      0.88 
    96.44     16.28     48.74     38.71     -0.02      0.02      0.41 
    96.45     16.29     48.74     38.71     -0.01      0.01      0.41 
    96.46     16.29     48.74     38.71     -0.01      0.01      0.41 
    96.47     16.29     48.73     38.71     -0.01      0.01      0.41 
    96.48     16.29     48.73     38.71     -0.01      0.00      0.41 
    96.49     16.29     48.73     38.71     -0.01      0.00      0.41 
    96.50     16.29     48.73     38.71     -0.01     -0.01      0.82 
    96.51     16.29     48.73     38.71     -0.00     -0.01      0.82 
    96.52     16.29     48.72     38.71     -0.00     -0.02      0.82 
    96.53     16.29     48.72     38.71      0.00     -0.02      0.82 
    96.54     16.30     48.72     38.71      0.00     -0.02      0.82 
    96.55     16.30     48.71     38.71      0.00     -0.03      1.18 
    96.56     16.30     48.72     38.71      0.00     -0.02      1.18 
    96.57     16.29     48.72     38.71     -0.00     -0.02      1.18 
    96.58     16.29     48.72     38.71     -0.00     -0.01      1.18 
    96.59     16.29     48.73     38.71     -0.00     -0.01      1.18 
    96.60     16.29     48.73     38.71     -0.00     -0.00      1.18 
    96.61     16.29     48.73     38.71     -0.00     -0.01      1.18 
    96.62     16.29     48.73     38.71     -0.00     -0.01      1.18 
    96.63     16.29     48.73     38.72      0.00     -0.01      1.18 
    96.64     16.29     48.73     38.71     -0.00     -0.02      1.59 
    96.65     16.29     48.73     38.71     -0.00     -0.02      1.59 
    96.66     16.29     48.73     38.71     -0.00     -0.01      1.59 
    96.67     16.29     48.73     38.71     -0.00     -0.02      1.59 
    96.68     16.29     48.73     38.71     -0.00     -0.02      2.00 
    96.69     16.29     48.73     38.71      0.00     -0.02      2.00 
    96.70     16.29     48.72     38.70      0.00     -0.02      2.00 
    96.71     16.29     48.72     38.70      0.00     -0.03      2.00 
    96.72     16.29     48.72     38.70      0.00     -0.03      1.65 
    96.73     16.29     48.73     38.70      0.00     -0.02      1.65 
    96.74     16.29     48.72     38.70      0.00     -0.02      1.65 
    96.75     16.29     48.73     38.70      0.00     -0.02      1.65 
    96.76     16.29     48.73     38.70      0.00     -0.02      1.65 
    96.77     16.29     48.73     38.70     -0.00     -0.02      2.06 
    96.78     16.28     48.73     38.70     -0.00     -0.01      2.47 
    96.79     16.28     48.73     38.70     -0.00     -0.00      2.47 
    96.80     16.28     48.73     38.70     -0.00     -0.01      2.06 
    96.81     16.28     48.73     38.70     -0.00     -0.01      2.06 
    96.82     16.28     48.73     38.70     -0.00     -0.00      2.06 
    96.83     16.28     48.73     38.69     -0.01      0.00      2.06 
    96.84     16.28     48.73     38.69     -0.01     -0.00      2.47 
    96.85     16.28     48.73     38.69     -0.01     -0.00      2.06 
    96.86     16.28     48.73     38.69     -0.01     -0.00      2.41 
    96.87     16.28     48.73     38.69     -0.01     -0.00      2.41 
    96.88     16.28     48.73     38.69     -0.00     -0.00      2.41 
    96.89     16.28     48.72     38.69     -0.00     -0.01      2.41 
    96.90     16.28     48.72     38.69     -0.00     -0.01      2.82 
    96.91     16.29     48.72     38.69      0.00     -0.01      2.82 
    96.92     16.29     48.72     38.69      0.00     -0.01      2.82 
    96.93     16.29     48.71     38.69      0.00     -0.02      2.82 
    96.94     16.29     48.71     38.69      0.01     -0.02      2.41 
    96.95     16.29     48.70     38.69      0.01     -0.03      2.00 
    96.96     16.29     48.70     38.69      0.01     -0.02      2.41 
    96.97     16.29     48.70     38.69      0.01     -0.02      2.76 
    96.98     16.29     48.70     38.69      0.01     -0.02      2.76 
    96.99     16.29     48.71     38.69      0.00     -0.01      3.18 
    97.00     16.29     48.71     38.69      0.00     -0.01      3.18 
    97.01     16.29     48.71     38.69      0.00     -0.01      2.35 
    97.02     16.28     48.72     38.69     -0.00      0.00      2.71 
    97.03     16.28     48.72     38.69     -0.00     -0.00      2.35 
    97.04     16.28     48.73     38.69     -0.00      0.00      2.76 
    97.05     16.28     48.73     38.69     -0.00     -0.00      3.18 
    97.06     16.28     48.72     38.69     -0.00      0.00      3.18 
    97.07     16.28     48.72     38.69     -0.01      0.00      2.76 
    97.08     16.28     48.72     38.69     -0.01      0.01      2.76 
    97.09     16.28     48.72     38.69     -0.01      0.01      2.76 
    97.10     16.28     48.72     38.69     -0.01      0.00      2.76 
    97.11     16.28     48.72     38.69     -0.01     -0.00      2.76 
    97.12     16.28     48.72     38.69     -0.01     -0.00      2.76 
    97.13     16.28     48.72     38.69     -0.01     -0.00      2.35 
    97.14     16.28     48.72     38.69     -0.01      0.00      2.41 
