#Written by Robertson Geologging WinLogger V1.0/370
~VERSION INFORMATION
#------------------------------------------------------------------------------
 VERS. 2.0 : CWLS LOG ASCII STANDARD - VERSION 2.0
 WRAP. NO  : ONE LINE PER DEPTH STEP
~WELL INFORMATION
#MNEM.UNIT         DATA                                DESCRIPTION OF MNEMONIC
#------------------------------------------------------------------------------
 STRT.M         74.0000                            :   START DEPTH
 STOP.M        380.0000                            :   STOP DEPTH
 STEP.M          0.0100                            :   STEP VALUE
 NULL.        -999.2500                            :   NULL VALUE
 COMP.    White Young Gteen                        :   COMPANY NAME
 WELL.    Horden Shaft                             :   WELL NAME
 FLD.     Horden                                   :   FIELD NAME
 LOC.     N/A                                      :   LOCATION
 PROV.    N/A                                      :   PROVINCE
 SRVC.    N/A                                      :   SERVICE COMPANY NAME
 DATE.    03 Oct 05                                :   DATE
 UWI.     N/A                                      :   UNIQUE WELL IDENTIFIER
~PARAMETER INFORMATION
#MNEMO.UNIT         VALUE                 DESCRIPTION OF MNEMONIC
#------------------------------------------------------------------------------
~OTHER INFORMATION SECTION
#------------------------------------------------------------------------------
 TCGS1365
~CURVE INFORMATION
#MNEMO.UNIT         API CODE              CURVE DESCRIPTION
#------------------------------------------------------------------------------
 DEPTH.M                                 :   0     Depth
 TEMP.DegC                               :   1     Temperature
 CN25.mS/cm                              :   2     Conductivity@25DegC
 COND.mS/cm                              :   3     Conductivity
 DELT.DegC                               :   4     Delta T
 DELC.mS/cm                              :   5     Delta C
 NGAM.CPS                                :   6     Natural Gamma
#------------------------------------------------------------------------------
~A  DEPTH     TEMP      CN25      COND      DELT      DELC      NGAM      
# ...
   114.68     15.91     32.41     24.66     -0.01     -0.02      0.82 
   114.69     15.91     32.41     24.66     -0.00     -0.02      0.82 
   114.70     15.91     32.41     24.66     -0.00     -0.03      0.82 
   114.71     15.91     32.40     24.66      0.00     -0.03      0.82 
   114.72     15.92     32.40     24.66      0.00     -0.03      0.41 
   114.73     15.92     32.40     24.66      0.01     -0.04      0.41 
   114.74     15.92     32.40     24.66      0.01     -0.05      0.41 
   114.75     15.92     32.40     24.66      0.01     -0.06      0.41 
   114.76     15.92     32.40     24.66      0.02     -0.06      0.41 
   114.77     15.92     32.40     24.66      0.02     -0.06      0.41 
   114.78     15.92     32.40     24.66      0.02     -0.07      0.41 
   114.79     15.92     32.39     24.66      0.02     -0.07      0.41 
   114.80     15.92     32.39     24.66      0.02     -0.07      0.41 
   114.81     15.92     32.39     24.66      0.02     -0.06      0.41 
   114.82     15.92     32.39     24.66      0.02     -0.06      0.41 
   114.83     15.92     32.39     24.66      0.01     -0.06      0.41 
   114.84     15.92     32.39     24.66      0.01     -0.05      0.00 
   114.85     15.92     32.39     24.66      0.01     -0.04      0.00 
   114.86     15.92     32.39     24.66      0.01     -0.04      0.00 
   114.87     15.93     32.38     24.66      0.00     -0.04      0.00 
   114.88     15.93     32.38     24.66      0.00     -0.03      0.00 
   114.89     15.93     32.38     24.66      0.00     -0.03      0.41 
   114.90     15.93     32.38     24.66      0.00     -0.03      0.41 
   114.91     15.93     32.38     24.66      0.00     -0.03      0.82 
   114.92     15.93     32.38     24.66      0.00     -0.03      1.24 
   114.93     15.92     32.38     24.66     -0.00     -0.02      1.24 
   114.94     15.92     32.39     24.66     -0.00     -0.02      1.65 
   114.95     15.92     32.39     24.66     -0.01     -0.02      1.65 
   114.96     15.92     32.40     24.66     -0.01     -0.01      2.06 
   114.97     15.91     32.40     24.66     -0.01     -0.02      2.06 
   114.98     15.91     32.41     24.66     -0.00     -0.02      2.47 
   114.99     15.91     32.41     24.66     -0.00     -0.02      2.47 
   115.00     15.91     32.41     24.66     -0.01     -0.02      2.47 
   115.01     15.91     32.42     24.66     -0.01     -0.01      2.47 
   115.02     15.91     32.41     24.66     -0.01     -0.01      2.47 
   115.03     15.91     32.41     24.66     -0.01     -0.01      2.47 
   115.04     15.91     32.41     24.66     -0.01     -0.02      2.47 
   115.05     15.91     32.40     24.66     -0.00     -0.02      2.88 
   115.06     15.91     32.40     24.65      0.00     -0.03      2.47 
   115.07     15.91     32.39     24.65      0.01     -0.05      2.47 
   115.08     15.92     32.39     24.65      0.01     -0.05      2.06 
   115.09     15.92     32.39     24.65      0.01     -0.05      1.65 
   115.10     15.92     32.39     24.65      0.01     -0.05      1.65 
   115.11     15.92     32.39     24.65      0.01     -0.05      1.24 
   115.12     15.92     32.39     24.65      0.01     -0.05      1.65 
   115.13     15.92     32.39     24.65      0.01     -0.05      1.24 
   115.14     15.92     32.39     24.65      0.01     -0.04      1.24 
   115.15     15.92     32.39     24.65      0.01     -0.05      1.24 
   115.16     15.92     32.39     24.65      0.01     -0.05      1.24 
   115.17     15.92     32.39     24.65      0.01     -0.04      1.24 
   115.18     15.92     32.39     24.65      0.00     -0.03      1.24 
   115.19     15.92     32.39     24.65     -0.00     -0.02      1.24 
   115.20     15.92     32.39     24.65     -0.00     -0.01      1.24 
   115.21     15.92     32.39     24.65     -0.01     -0.01      1.24 
   115.22     15.92     32.38     24.65     -0.00     -0.02      0.82 
   115.23     15.92     32.38     24.65     -0.00     -0.02      0.82 
   115.24     15.92     32.38     24.65     -0.00     -0.02      0.82 
   115.25     15.92     32.38     24.65     -0.00     -0.02      0.82 
   115.26     15.92     32.38     24.65     -0.01     -0.01      0.82 
   115.27     15.92     32.38     24.65     -0.01     -0.01      0.82 
   115.28     15.92     32.38     24.65     -0.00     -0.01      0.82 
   115.29     15.92     32.38     24.65     -0.00     -0.02      0.41 
   115.30     15.92     32.38     24.65      0.00     -0.03      0.41 
   115.31     15.92     32.38     24.65      0.00     -0.04      0.41 
   115.32     15.92     32.38     24.65      0.00     -0.03      0.41 
   115.33     15.92     32.38     24.65     -0.00     -0.03      0.41 
   115.34     15.92     32.39     24.65     -0.00     -0.02      0.82 
   115.35     15.92     32.39     24.65      0.00     -0.03      0.82 
   115.36     15.92     32.39     24.65      0.01     -0.04      0.82 
   115.37     15.92     32.38     24.65      0.01     -0.05      0.82 
   115.38     15.92     32.38     24.65      0.01     -0.05      0.82 
   115.39     15.92     32.38     24.65      0.01     -0.05      0.82 
   115.40     15.92     32.38     24.65      0.01     -0.04      1.24 
   115.41     15.91     32.39     24.65      0.00     -0.03      1.24 
   115.42     15.91     32.39     24.65      0.00     -0.02      1.24 
   115.43     15.91     32.39     24.65     -0.00     -0.03      1.24 
   115.44     15.91     32.40     24.65     -0.00     -0.02      1.24 
   115.45     15.91     32.39     24.65     -0.00     -0.02      1.24 
   115.46     15.91     32.40     24.65     -0.01     -0.00      2.06 
   115.47     15.90     32.41     24.65     -0.02      0.01      2.06 
   115.48     15.90     32.41     24.65     -0.03      0.02      2.06 
   115.49     15.90     32.42     24.65     -0.03      0.04      1.65 
   115.50     15.90     32.42     24.65     -0.03      0.04      1.65 
   115.51     15.90     32.42     24.65     -0.03      0.03      1.65 
   115.52     15.90     32.41     24.65     -0.03      0.02      1.65 
   115.53     15.90     32.41     24.65     -0.02      0.02      1.65 
   115.54     15.91     32.40     24.65     -0.02      0.01      1.65 
   115.55     15.91     32.40     24.65     -0.01     -0.00      1.65 
   115.56     15.91     32.39     24.65     -0.01     -0.01      1.65 
   115.57     15.91     32.39     24.64     -0.00     -0.02      1.24 
   115.58     15.91     32.39     24.64     -0.00     -0.02      1.65 
   115.59     15.91     32.39     24.65      0.00     -0.03      1.65 
   115.60     15.91     32.39     24.64      0.00     -0.03      1.65 
   115.61     15.91     32.39     24.64      0.01     -0.04      1.65 
   115.62     15.91     32.39     24.65      0.01     -0.03      1.65 
   115.63     15.91     32.39     24.64      0.00     -0.03      0.82 
   115.64     15.91     32.39     24.64      0.00     -0.03      0.82 
   115.65     15.91     32.39     24.64     -0.00     -0.02      1.29 
   115.66     15.91     32.39     24.64     -0.00     -0.02      1.29 
   115.67     15.91     32.39     24.64     -0.00     -0.02      1.71 
   115.68     15.91     32.39     24.64     -0.00     -0.02      1.29 
   115.69     15.92     32.38     24.64      0.00     -0.02      1.29 
   115.70     15.92     32.37     24.64      0.00     -0.03      1.29 
   115.71     15.92     32.37     24.64      0.01     -0.03      1.29 
   115.72     15.92     32.37     24.64      0.01     -0.03      1.29 
   115.73     15.92     32.36     24.64      0.01     -0.04      1.29 
   115.74     15.92     32.37     24.64      0.00     -0.03      1.29 
   115.75     15.92     32.37     24.64      0.00     -0.03      0.88 
   115.76     15.92     32.37     24.64     -0.00     -0.02      1.71 
   115.77     15.92     32.37     24.64     -0.00     -0.02      1.71 
   115.78     15.92     32.37     24.64     -0.00     -0.02      2.12 
   115.79     15.92     32.37     24.64     -0.00     -0.02      2.12 
   115.80     15.92     32.38     24.64     -0.00     -0.02      2.12 
