#Written by Robertson Geologging WinLogger V1.0/370
~VERSION INFORMATION
#------------------------------------------------------------------------------
 VERS. 2.0 : CWLS LOG ASCII STANDARD - VERSION 2.0
 WRAP. NO  : ONE LINE PER DEPTH STEP
~WELL INFORMATION
#MNEM.UNIT         DATA                                DESCRIPTION OF MNEMONIC
#------------------------------------------------------------------------------
 STRT.M         74.0000                            :   START DEPTH
 STOP.M        380.0000                            :   STOP DEPTH
 STEP.M          0.0100                            :   STEP VALUE
 NULL.        -999.2500                            :   NULL VALUE
 COMP.    White Young Gteen                        :   COMPANY NAME
 WELL.    Horden Shaft                             :   WELL NAME
 FLD.     Horden                                   :   FIELD NAME
 LOC.     N/A                                      :   LOCATION
 PROV.    N/A                                      :   PROVINCE
 SRVC.    N/A                                      :   SERVICE COMPANY NAME
 DATE.    03 Oct 05                                :   DATE
 UWI.     N/A                                      :   UNIQUE WELL IDENTIFIER
~PARAMETER INFORMATION
#MNEMO.UNIT         VALUE                 DESCRIPTION OF MNEMONIC
#------------------------------------------------------------------------------
~OTHER INFORMATION SECTION
#------------------------------------------------------------------------------
 TCGS1365
~CURVE INFORMATION
#MNEMO.UNIT         API CODE              CURVE DESCRIPTION
#------------------------------------------------------------------------------
 DEPTH.M                                 :   0     Depth
 TEMP.DegC                               :   1     Temperature
 CN25.mS/cm                              :   2     Conductivity@25DegC
 COND.mS/cm                              :   3     Conductivity
 DELT.DegC                               :   4     Delta T
 DELC.mS/cm                              :   5     Delta C
 NGAM.CPS                                :   6     Natural Gamma
#------------------------------------------------------------------------------
~A  DEPTH     TEMP      CN25      COND      DELT      DELC      NGAM      
    74.00      0.00     15.89      0.00      0.00      0.00      0.00 
    74.01      0.00     15.89      0.00      0.00      0.00      0.00 
    74.02      0.00     15.89      0.00      0.00      0.00      0.00 
    74.03      0.00     15.89      0.00      0.00      0.00      0.00 
    74.04      0.00     15.89      0.00      0.00      0.00      0.00 
    74.05      0.00     15.89      0.00      0.00      0.00      0.00 
    74.06      0.00     15.89      0.00      0.00      0.00      0.00 
    74.07      0.00     15.89      0.00      0.00      0.00      0.00 
    74.08      0.00     15.89      0.00      0.00      0.00      0.00 
    74.09      0.00     15.89      0.00      0.00      0.00      0.00 
    74.10      0.00     15.89      0.00      0.00      0.00      0.00 
    74.11      0.00     15.89      0.00      0.00      0.00      0.00 
    74.12      0.00     15.89      0.00      0.00      0.00      0.00 
    74.13      0.00     15.89      0.00      0.00      0.00      0.00 
    74.14      0.00     15.89      0.00      0.00      0.00      0.00 
    74.15      0.00     15.89      0.00      0.00      0.00      0.00 
    74.16      0.00     15.89      0.00      0.00      0.00      0.00 
    74.17      0.00     15.89      0.00      0.00      0.00      0.00 
    74.18      0.00     15.89      0.00      0.00      0.00      0.00 
    74.19      0.00     15.89      0.00      0.00      0.00      0.00 
    74.20      0.00     15.89      0.00      0.00      0.00      0.00 
    74.21      0.00     15.89      0.00      0.00      0.00      0.00 
    74.22      0.00     15.89      0.00      0.00      0.00      0.00 
    74.23      0.00     15.89      0.00      0.00      0.00      0.00 
    74.24      0.00     15.89      0.00      0.00      0.00      0.00 
    74.25      0.00     15.89      0.00      0.00      0.00      0.00 
    74.26      0.00     15.89      0.00      0.00      0.00      0.00 
    74.27      0.00     15.89      0.00      0.00      0.00      0.00 
    74.28      0.00     15.89      0.00      0.00      0.00      0.00 
    74.29      0.00     15.89      0.00      0.00      0.00      0.00 
    74.30      0.00     15.89      0.00      0.00      0.00      0.00 
    74.31      0.00     15.89      0.00      0.00      0.00      0.00 
    74.32      0.00     15.89      0.00      0.00      0.00      0.00 
    74.33      0.00     15.89      0.00      0.00      0.00      0.00 
    74.34      0.00     15.89      0.00      0.00      0.00      0.00 
    74.35      0.00     15.89      0.00      0.00      0.00      0.00 
    74.36      0.00     15.89      0.00      0.00      0.00      0.00 
    74.37      0.00     15.89      0.00      0.00      0.00      0.00 
    74.38      0.00     15.89      0.00      0.00      0.00      0.00 
    74.39      0.00     15.89      0.00      0.00      0.00      0.00 
    74.40      0.00     15.89      0.00      0.00      0.00      0.00 
    74.41      0.00     15.89      0.00      0.00      0.00      0.00 
    74.42      0.00     15.89      0.00      0.00      0.00      0.00 
    74.43      0.00     15.89      0.00      0.00      0.00      0.00 
    74.44      0.00     15.89      0.00      0.00      0.00      0.00 
    74.45      0.00     15.89      0.00      0.00      0.00      0.00 
    74.46      0.00     15.89      0.00      0.00      0.00      0.00 
    74.47      0.00     15.89      0.00      0.00      0.00      0.00 
    74.48      0.00     15.89      0.00      0.00      0.00      0.00 
    74.49      0.00     15.89      0.00      0.00      0.00      0.00 
    74.50      0.00     15.89      0.00      0.00      0.00      0.00 
    74.51      0.00     15.89      0.00      0.00      0.00      0.00 
    74.52      0.00     15.89      0.00      0.00      0.00      0.00 
    74.53      0.00     15.89      0.00      0.00      0.00      0.00 
    74.54      0.00     15.89      0.00      0.00      0.00      0.00 
    74.55      0.00     15.89      0.00      0.00      0.00      0.00 
    74.56      0.00     15.89      0.00      0.00      0.00      0.00 
    74.57      0.00     15.89      0.00      0.00      0.00      0.00 
    74.58      0.00     15.89      0.00      0.00      0.00      0.00 
    74.59      0.00     15.89      0.00      0.00      0.00      0.00 
    74.60      0.00     15.89      0.00      0.00      0.00      0.00 
    74.61      0.00     15.89      0.00      0.00      0.00      0.00 
    74.62      0.00     15.89      0.00      0.00      0.00      0.00 
    74.63      0.00     15.89      0.00      0.00      0.00      0.00 
    74.64      0.00     15.89      0.00      0.00      0.00      0.00 
    74.65      0.00     15.89      0.00      0.00      0.00      0.00 
    74.66      0.00     15.89      0.00      0.00      0.00      0.00 
    74.67      0.00     15.89      0.00      0.00      0.00      0.00 
    74.68      0.00     15.89      0.00      0.00      0.00      0.00 
    74.69      0.00     15.89      0.00      0.00      0.00      0.00 
    74.70      0.00     15.89      0.00      0.00      0.00      0.00 
    74.71      0.00     15.89      0.00      0.00      0.00      0.00 
    74.72      0.00     15.89      0.00      0.00      0.00      0.00 
    74.73      0.00     15.89      0.00      0.00      0.00      0.00 
    74.74      0.00     15.89      0.00      0.00      0.00      0.00 
    74.75      0.00     15.89      0.00      0.00      0.00      0.00 
    74.76      0.00     15.89      0.00      0.00      0.00      0.00 
    74.77      0.00     15.89      0.00      0.00      0.00      0.00 
    74.78      0.00     15.89      0.00      0.00      0.00      0.00 
    74.79      0.00     15.89      0.00      0.00      0.00      0.00 
    74.80      0.00     15.89      0.00      0.00      0.00      0.00 
    74.81      0.00     15.89      0.00      0.00      0.00      0.00 
    74.82      0.00     15.89      0.00      0.00      0.00      0.00 
    74.83      0.00     15.89      0.00      0.00      0.00      0.00 
    74.84      0.00     15.89      0.00      0.00      0.00      0.00 
    74.85      0.00     15.89      0.00      0.00      0.00      0.00 
    74.86      0.00     15.89      0.00      0.00      0.00      0.00 
    74.87      0.00     15.89      0.00      0.00      0.00      0.00 
    74.88      0.00     15.89      0.00      0.00      0.00      0.00 
    74.89      0.00     15.89      0.00      0.00      0.00      0.00 
    74.90      0.00     15.89      0.00      0.00      0.00      0.00 
    74.91      0.00     15.89      0.00      0.00      0.00      0.00 
    74.92      0.00     15.89      0.00      0.00      0.00      0.00 
    74.93      0.00     15.89      0.00      0.00      0.00      0.00 
    74.94      0.00     15.89      0.00      0.00      0.00      0.00 
    74.95      0.00     15.89      0.00      0.00      0.00      0.00 
    74.96      0.00     15.89      0.00      0.00      0.00      0.00 
    74.97      0.00     15.89      0.00      0.00      0.00      0.00 
    74.98      0.00     15.89      0.00      0.00      0.00      0.00 
    74.99      0.00     15.89      0.00      0.00      0.00      0.00 
    75.00      0.00     15.89      0.00      0.00      0.00      0.00 
    75.01      0.00     15.89      0.00      0.00      0.00      0.00 
    75.02      0.00     15.89      0.00      0.00      0.00      0.00 
    75.03      0.00     15.89      0.00      0.00      0.00      0.00 
    75.04      0.00     15.89      0.00      0.00      0.00      0.00 
    75.05      0.00     15.89      0.00      0.00      0.00      0.00 
    75.06      0.00     15.89      0.00      0.00      0.00      0.00 
    75.07      0.00     15.89      0.00      0.00      0.00      0.00 
    75.08      0.00     15.89      0.00      0.00      0.00      0.00 
    75.09      0.00     15.89      0.00      0.00      0.00      0.00 
    75.10      0.00     15.89      0.00      0.00      0.00      0.00 
    75.11      0.00     15.89      0.00      0.00      0.00      0.00 
    75.12      0.00     15.89      0.00      0.00      0.00      0.00 
