#Written by Robertson Geologging WinLogger V1.0/370
~VERSION INFORMATION
#------------------------------------------------------------------------------
 VERS. 2.0 : CWLS LOG ASCII STANDARD - VERSION 2.0
 WRAP. NO  : ONE LINE PER DEPTH STEP
~WELL INFORMATION
#MNEM.UNIT         DATA                                DESCRIPTION OF MNEMONIC
#------------------------------------------------------------------------------
 STRT.M         74.0000                            :   START DEPTH
 STOP.M        380.0000                            :   STOP DEPTH
 STEP.M          0.0100                            :   STEP VALUE
 NULL.        -999.2500                            :   NULL VALUE
 COMP.    White Young Gteen                        :   COMPANY NAME
 WELL.    Horden Shaft                             :   WELL NAME
 FLD.     Horden                                   :   FIELD NAME
 LOC.     N/A                                      :   LOCATION
 PROV.    N/A                                      :   PROVINCE
 SRVC.    N/A                                      :   SERVICE COMPANY NAME
 DATE.    03 Oct 05                                :   DATE
 UWI.     N/A                                      :   UNIQUE WELL IDENTIFIER
~PARAMETER INFORMATION
#MNEMO.UNIT         VALUE                 DESCRIPTION OF MNEMONIC
#------------------------------------------------------------------------------
~OTHER INFORMATION SECTION
#------------------------------------------------------------------------------
 TCGS1365
~CURVE INFORMATION
#MNEMO.UNIT         API CODE              CURVE DESCRIPTION
#------------------------------------------------------------------------------
 DEPTH.M                                 :   0     Depth
 TEMP.DegC                               :   1     Temperature
 CN25.mS/cm                              :   2     Conductivity@25DegC
 COND.mS/cm                              :   3     Conductivity
 DELT.DegC                               :   4     Delta T
 DELC.mS/cm                              :   5     Delta C
 NGAM.CPS                                :   6     Natural Gamma
#------------------------------------------------------------------------------
~A  DEPTH     TEMP      CN25      COND      DELT      DELC      NGAM      
# ...
   379.10     18.50     88.06     77.19      0.31     -0.10      3.59 
   379.11     18.50     88.07     77.20      0.31     -0.08      3.24 
   379.12     18.50     88.07     77.20      0.30     -0.07      2.41 
   379.13     18.50     88.07     77.21      0.30     -0.06      2.41 
   379.14     18.50     88.07     77.21      0.30     -0.06      2.41 
   379.15     18.51     88.06     77.21      0.29     -0.05      2.00 
   379.16     18.51     88.06     77.22      0.29     -0.04      1.94 
   379.17     18.51     88.06     77.22      0.29     -0.04      2.76 
   379.18     18.51     88.06     77.23      0.29     -0.03      2.76 
   379.19     18.52     88.06     77.24      0.28     -0.03      3.18 
   379.20     18.52     88.05     77.24      0.29     -0.04      3.24 
   379.21     18.53     88.03     77.24      0.29     -0.06      3.24 
   379.22     18.53     88.02     77.25      0.29     -0.07      2.82 
   379.23     18.54     88.01     77.26      0.30     -0.10      3.24 
   379.24     18.54     88.00     77.26      0.31     -0.12      3.24 
   379.25     18.55     87.99     77.26      0.31     -0.14      3.24 
   379.26     18.55     87.99     77.27      0.32     -0.16      3.94 
   379.27     18.55     87.98     77.27      0.32     -0.17      3.94 
   379.28     18.56     87.97     77.27      0.32     -0.18      3.94 
   379.29     18.56     87.95     77.27      0.32     -0.21      3.94 
   379.30     18.56     87.93     77.27      0.32     -0.21      4.76 
   379.31     18.57     87.94     77.27      0.32     -0.20      6.24 
   379.32     18.57     87.94     77.28      0.31     -0.20      6.24 
   379.33     18.57     87.93     77.28      0.31     -0.19      6.29 
   379.34     18.57     87.93     77.28      0.30     -0.19      6.29 
   379.35     18.57     87.92     77.28      0.30     -0.19      7.94 
   379.36     18.58     87.91     77.28      0.30     -0.20      7.53 
   379.37     18.58     87.91     77.28      0.30     -0.20      7.12 
   379.38     18.58     87.90     77.28      0.30     -0.21      7.12 
   379.39     18.58     87.89     77.29      0.30     -0.23      7.53 
   379.40     18.59     87.89     77.29      0.31     -0.24      7.12 
   379.41     18.59     87.88     77.29      0.31     -0.26      7.41 
   379.42     18.60     87.87     77.29      0.32     -0.28      7.82 
   379.43     18.60     87.86     77.29      0.32     -0.30      7.53 
   379.44     18.60     87.85     77.29      0.32     -0.31      8.35 
   379.45     18.60     87.85     77.30      0.31     -0.31      8.35 
   379.46     18.60     87.84     77.29      0.31     -0.31      7.94 
   379.47     18.60     87.85     77.30      0.30     -0.30      7.12 
   379.48     18.60     87.85     77.29      0.30     -0.30      6.06 
   379.49     18.60     87.87     77.30      0.29     -0.29      6.88 
   379.50     18.59     87.88     77.30      0.28     -0.27      7.71 
   379.51     18.59     87.90     77.30      0.27     -0.26      6.88 
   379.52     18.58     87.91     77.30      0.26     -0.24      6.06 
   379.53     18.58     87.93     77.30      0.26     -0.22      6.06 
   379.54     18.57     87.94     77.30      0.25     -0.22      6.06 
   379.55     18.57     87.95     77.30      0.25     -0.21      6.06 
   379.56     18.57     87.96     77.30      0.24     -0.21      6.06 
   379.57     18.57     87.96     77.30      0.24     -0.22      6.47 
   379.58     18.57     87.95     77.30      0.24     -0.23      5.76 
   379.59     18.57     87.95     77.30      0.24     -0.24      5.35 
   379.60     18.57     87.94     77.30      0.24     -0.26      4.94 
   379.61     18.58     87.93     77.30      0.25     -0.28      4.12 
   379.62     18.58     87.92     77.30      0.25     -0.30      4.94 
   379.63     18.59     87.90     77.30      0.25     -0.32      4.94 
   379.64     18.59     87.89     77.30      0.25     -0.33      5.35 
   379.65     18.59     87.89     77.30      0.25     -0.33      5.35 
   379.66     18.59     87.89     77.30      0.25     -0.33      4.53 
   379.67     18.59     87.89     77.30      0.24     -0.33      3.29 
   379.68     18.59     87.90     77.30      0.24     -0.32      3.65 
   379.69     18.58     87.92     77.31      0.23     -0.29      3.24 
   379.70     18.58     87.92     77.31      0.22     -0.27      3.24 
   379.71     18.58     87.94     77.31      0.20     -0.23      4.06 
   379.72     18.57     87.97     77.30      0.19     -0.20      4.47 
   379.73     18.56     88.00     77.31      0.17     -0.15      4.47 
   379.74     18.55     88.02     77.30      0.16     -0.14      5.29 
   379.75     18.55     88.03     77.30      0.16     -0.13      6.35 
   379.76     18.55     88.04     77.30      0.15     -0.13      6.76 
   379.77     18.54     88.05     77.31      0.15     -0.12      6.76 
   379.78     18.54     88.06     77.31      0.14     -0.11      7.18 
   379.79     18.53     88.08     77.31      0.13     -0.08      6.76 
   379.80     18.53     88.10     77.31      0.12     -0.06      7.18 
   379.81     18.52     88.12     77.31      0.11     -0.04      8.00 
   379.82     18.52     88.13     77.31      0.11     -0.03      7.59 
   379.83     18.51     88.14     77.31      0.10     -0.01      8.00 
   379.84     18.51     88.15     77.31      0.09      0.00      8.82 
   379.85     18.51     88.17     77.31      0.08      0.03      8.88 
   379.86     18.50     88.17     77.31      0.07      0.05      8.47 
   379.87     18.50     88.19     77.31      0.06      0.08      8.47 
   379.88     18.50     88.20     77.30      0.05      0.10      7.65 
   379.89     18.50     88.20     77.31      0.05      0.11      7.65 
   379.90     18.49     88.20     77.31      0.04      0.12      8.06 
   379.91     18.49     88.21     77.31      0.04      0.13      6.82 
   379.92     18.49     88.22     77.31      0.03      0.14      5.76 
   379.93     18.49     88.23     77.31      0.03      0.16      6.18 
   379.94     18.48     88.24     77.31      0.02      0.16      6.18 
   379.95     18.48     88.24     77.31      0.02      0.16      5.76 
   379.96     18.48     88.25     77.31      0.02      0.17      5.35 
   379.97     18.48     88.27     77.31      0.01      0.19      4.94 
   379.98     18.47     88.28     77.31     -0.00      0.21      4.12 
   379.99     18.47     88.30     77.31     -0.01      0.24      4.12 
   380.00     18.46     88.32     77.32     -0.02      0.26      3.71 
