#Written by Robertson Geologging WinLogger V1.0/370
~VERSION INFORMATION
#------------------------------------------------------------------------------
 VERS. 2.0 : CWLS LOG ASCII STANDARD - VERSION 2.0
 WRAP. NO  : ONE LINE PER DEPTH STEP
~WELL INFORMATION
#MNEM.UNIT         DATA                                DESCRIPTION OF MNEMONIC
#------------------------------------------------------------------------------
 STRT.M         74.0000                            :   START DEPTH
 STOP.M        380.0000                            :   STOP DEPTH
 STEP.M          0.0100                            :   STEP VALUE
 NULL.        -999.2500                            :   NULL VALUE
 COMP.    White Young Gteen                        :   COMPANY NAME
 WELL.    Horden Shaft                             :   WELL NAME
 FLD.     Horden                                   :   FIELD NAME
 LOC.     N/A                                      :   LOCATION
 PROV.    N/A                                      :   PROVINCE
 SRVC.    N/A                                      :   SERVICE COMPANY NAME
 DATE.    03 Oct 05                                :   DATE
 UWI.     N/A                                      :   UNIQUE WELL IDENTIFIER
~PARAMETER INFORMATION
#MNEMO.UNIT         VALUE                 DESCRIPTION OF MNEMONIC
#------------------------------------------------------------------------------
~OTHER INFORMATION SECTION
#------------------------------------------------------------------------------
 TCGS1365
~CURVE INFORMATION
#MNEMO.UNIT         API CODE              CURVE DESCRIPTION
#------------------------------------------------------------------------------
 DEPTH.M                                 :   0     Depth
 TEMP.DegC                               :   1     Temperature
 CN25.mS/cm                              :   2     Conductivity@25DegC
 COND.mS/cm                              :   3     Conductivity
 DELT.DegC                               :   4     Delta T
 DELC.mS/cm                              :   5     Delta C
 NGAM.CPS                                :   6     Natural Gamma
#------------------------------------------------------------------------------
~A  DEPTH     TEMP      CN25      COND      DELT      DELC      NGAM      
# ...
   175.70     16.39     34.34     26.99      0.02      0.06      5.24 
   175.71     16.39     34.34     26.99      0.01      0.06      5.24 
   175.72     16.39     34.35     26.99      0.01      0.07      6.47 
   175.73     16.39     34.35     26.99      0.01      0.07      6.53 
   175.74     16.39     34.36     26.99      0.01      0.07      7.24 
   175.75     16.39     34.36     26.99      0.01      0.07      6.82 
   175.76     16.39     34.36     26.99      0.01      0.07      6.82 
   175.77     16.39     34.36     26.99      0.01      0.07      6.41 
   175.78     16.39     34.36     26.99      0.01      0.06      7.65 
   175.79     16.39     34.36     26.99      0.01      0.06      7.65 
   175.80     16.39     34.36     26.99      0.01      0.06      7.24 
   175.81     16.39     34.36     26.99      0.01      0.06      7.24 
   175.82     16.39     34.36     26.99      0.01      0.06      7.65 
   175.83     16.39     34.36     26.99      0.01      0.06      7.71 
   175.84     16.39     34.36     26.99      0.01      0.06      7.29 
   175.85     16.38     34.36     26.99      0.00      0.06      7.29 
   175.86     16.38     34.36     26.99      0.00      0.06      7.71 
   175.87     16.38     34.36     26.99      0.00      0.06      7.29 
   175.88     16.39     34.36     26.99     -0.00      0.06      7.71 
   175.89     16.39     34.36     27.00     -0.00      0.07      6.88 
   175.90     16.39     34.36     27.00     -0.00      0.06      6.47 
   175.91     16.39     34.35     27.00     -0.00      0.06      5.76 
   175.92     16.39     34.35     27.00      0.00      0.06      4.94 
   175.93     16.39     34.35     27.00      0.00      0.06      5.29 
   175.94     16.39     34.35     27.00      0.00      0.06      5.71 
   175.95     16.40     34.34     27.00      0.00      0.05      4.88 
   175.96     16.40     34.34     27.00      0.01      0.04      4.88 
   175.97     16.40     34.33     27.00      0.01      0.04      4.06 
   175.98     16.40     34.33     27.00      0.01      0.04      4.06 
   175.99     16.41     34.33     27.00      0.01      0.03      4.06 
   176.00     16.41     34.32     27.00      0.01      0.03      4.06 
   176.01     16.41     34.32     27.00      0.01      0.03      4.06 
   176.02     16.41     34.33     27.00      0.01      0.02      4.06 
   176.03     16.41     34.33     27.00      0.02      0.02      4.06 
   176.04     16.41     34.33     27.00      0.02      0.02      4.76 
   176.05     16.40     34.33     27.00      0.02      0.02      3.94 
   176.06     16.40     34.33     27.00      0.02      0.02      3.53 
   176.07     16.40     34.33     27.00      0.01      0.01      3.94 
   176.08     16.40     34.34     27.00      0.01      0.02      4.35 
   176.09     16.40     34.33     27.00      0.01      0.02      4.35 
   176.10     16.40     34.33     27.00      0.01      0.02      4.00 
   176.11     16.40     34.34     27.00      0.01      0.02      3.59 
   176.12     16.40     34.34     27.00      0.01      0.03      4.00 
   176.13     16.40     34.34     27.00      0.00      0.03      4.00 
   176.14     16.40     34.33     27.00      0.00      0.03      5.24 
   176.15     16.40     34.33     27.00      0.00      0.03      5.24 
   176.16     16.40     34.33     27.00      0.00      0.03      5.65 
   176.17     16.40     34.33     27.00     -0.00      0.04      5.65 
   176.18     16.40     34.34     27.00     -0.01      0.05      5.65 
   176.19     16.40     34.34     27.00     -0.01      0.05      5.24 
   176.20     16.40     34.34     27.00     -0.01      0.05      4.82 
   176.21     16.40     34.34     27.00     -0.01      0.05      4.53 
   176.22     16.40     34.34     27.00     -0.01      0.05      4.53 
   176.23     16.40     34.33     27.00     -0.00      0.04      4.94 
   176.24     16.41     34.33     27.00     -0.00      0.04      5.24 
   176.25     16.41     34.33     27.00     -0.00      0.04      4.82 
   176.26     16.41     34.33     27.00     -0.00      0.04      5.24 
   176.27     16.41     34.33     27.01     -0.00      0.04      5.24 
   176.28     16.41     34.33     27.00     -0.00      0.04      5.24 
   176.29     16.41     34.33     27.01      0.00      0.04      4.82 
   176.30     16.41     34.33     27.00     -0.00      0.03      5.65 
   176.31     16.41     34.33     27.00     -0.00      0.04      4.41 
   176.32     16.40     34.34     27.01     -0.00      0.04      4.82 
   176.33     16.40     34.34     27.00     -0.00      0.04      4.41 
   176.34     16.40     34.35     27.00     -0.00      0.04      4.82 
   176.35     16.40     34.35     27.00     -0.00      0.03      4.82 
   176.36     16.40     34.35     27.00     -0.00      0.04      4.82 
   176.37     16.39     34.35     27.00     -0.00      0.04      5.18 
   176.38     16.39     34.35     27.00     -0.00      0.03      4.76 
   176.39     16.40     34.35     27.00      0.00      0.03      4.76 
   176.40     16.40     34.35     27.00      0.00      0.02      4.35 
   176.41     16.40     34.34     27.00      0.01      0.01      4.88 
   176.42     16.40     34.34     27.00      0.01      0.01      4.88 
   176.43     16.40     34.34     27.00      0.01      0.01      4.47 
   176.44     16.40     34.34     27.00      0.01      0.01      4.47 
   176.45     16.40     34.34     27.00      0.01      0.02      6.12 
   176.46     16.40     34.34     27.00      0.00      0.02      5.71 
   176.47     16.40     34.34     27.00      0.00      0.02      4.88 
   176.48     16.40     34.34     27.00     -0.00      0.03      5.29 
   176.49     16.40     34.34     27.00     -0.00      0.03      4.88 
   176.50     16.40     34.34     27.00     -0.01      0.03      4.47 
   176.51     16.40     34.34     27.00     -0.01      0.04      4.06 
   176.52     16.40     34.34     27.00     -0.01      0.05      4.06 
   176.53     16.40     34.34     27.00     -0.01      0.04      4.47 
   176.54     16.40     34.34     27.00     -0.01      0.04      4.94 
   176.55     16.40     34.33     27.00     -0.01      0.04      4.94 
   176.56     16.41     34.33     27.00     -0.01      0.03      5.35 
   176.57     16.41     34.33     27.00     -0.00      0.03      5.35 
   176.58     16.41     34.33     27.00     -0.00      0.02      4.53 
   176.59     16.41     34.32     27.00     -0.00      0.01      4.94 
   176.60     16.41     34.33     27.00      0.00      0.02      4.94 
   176.61     16.41     34.33     27.00      0.00      0.02      5.35 
   176.62     16.41     34.33     27.00      0.00      0.02      4.12 
   176.63     16.41     34.33     27.00      0.00      0.02      4.94 
   176.64     16.40     34.34     27.00      0.00      0.02      5.35 
   176.65     16.40     34.34     27.00      0.00      0.01      5.35 
   176.66     16.40     34.34     27.00      0.00      0.01      5.76 
   176.67     16.40     34.34     27.00      0.01      0.00      6.18 
   176.68     16.41     34.33     27.00      0.01     -0.00      6.18 
   176.69     16.41     34.33     27.00      0.01     -0.01      6.18 
   176.70     16.41     34.33     27.00      0.01     -0.01      5.76 
   176.71     16.41     34.33     27.00      0.02     -0.02      5.76 
   176.72     16.41     34.33     27.00      0.02     -0.02      5.76 
   176.73     16.41     34.33     27.00      0.02     -0.03      6.18 
   176.74     16.41     34.32     27.00      0.03     -0.04      6.18 
   176.75     16.41     34.32     27.00      0.03     -0.04      6.18 
   176.76     16.41     34.31     27.00      0.03     -0.05      6.59 
   176.77     16.41     34.32     27.00      0.03     -0.04      6.59 
   176.78     16.41     34.33     27.00      0.02     -0.03      6.18 
   176.79     16.41     34.33     27.00      0.02     -0.03      6.18 
   176.80     16.40     34.34     27.00      0.02     -0.02      7.18 
   176.81     16.40     34.34     27.00      0.02     -0.02      7.18 
   176.82     16.41     34.33     27.00      0.02     -0.03      7.18 
