#Written by Robertson Geologging WinLogger V1.0/370
~VERSION INFORMATION
#------------------------------------------------------------------------------
 VERS. 2.0 : CWLS LOG ASCII STANDARD - VERSION 2.0
 WRAP. NO  : ONE LINE PER DEPTH STEP
~WELL INFORMATION
#MNEM.UNIT         DATA                                DESCRIPTION OF MNEMONIC
#------------------------------------------------------------------------------
 STRT.M         74.0000                            :   START DEPTH
 STOP.M        380.0000                            :   STOP DEPTH
 STEP.M          0.0100                            :   STEP VALUE
 NULL.        -999.2500                            :   NULL VALUE
 COMP.    White Young Gteen                        :   COMPANY NAME
 WELL.    Horden Shaft                             :   WELL NAME
 FLD.     Horden                                   :   FIELD NAME
 LOC.     N/A                                      :   LOCATION
 PROV.    N/A                                      :   PROVINCE
 SRVC.    N/A                                      :   SERVICE COMPANY NAME
 DATE.    03 Oct 05                                :   DATE
 UWI.     N/A                                      :   UNIQUE WELL IDENTIFIER
~PARAMETER INFORMATION
#MNEMO.UNIT         VALUE                 DESCRIPTION OF MNEMONIC
#------------------------------------------------------------------------------
~OTHER INFORMATION SECTION
#------------------------------------------------------------------------------
 TCGS1365
~CURVE INFORMATION
#MNEMO.UNIT         API CODE              CURVE DESCRIPTION
#------------------------------------------------------------------------------
 DEPTH.M                                 :   0     Depth
 TEMP.DegC                               :   1     Temperature
 CN25.mS/cm                              :   2     Conductivity@25DegC
 COND.mS/cm                              :   3     Conductivity
 DELT.DegC                               :   4     Delta T
 DELC.mS/cm                              :   5     Delta C
 NGAM.CPS                                :   6     Natural Gamma
#------------------------------------------------------------------------------
~A  DEPTH     TEMP      CN25      COND      DELT      DELC      NGAM      
# ...
   216.38     16.40     34.43     27.07     -0.01      0.04      5.18 
   216.39     16.40     34.43     27.07     -0.01      0.04      4.47 
   216.40     16.40     34.44     27.07     -0.02      0.05      4.47 
   216.41     16.39     34.44     27.07     -0.02      0.05      4.47 
   216.42     16.39     34.44     27.07     -0.02      0.05      5.29 
   216.43     16.39     34.45     27.07     -0.02      0.05      5.29 
   216.44     16.39     34.45     27.07     -0.02      0.05      4.47 
   216.45     16.39     34.45     27.07     -0.02      0.06      4.47 
   216.46     16.39     34.45     27.07     -0.02      0.05      5.29 
   216.47     16.39     34.45     27.07     -0.02      0.06      5.29 
   216.48     16.39     34.45     27.07     -0.02      0.06      5.29 
   216.49     16.39     34.45     27.07     -0.02      0.06      5.71 
   216.50     16.39     34.44     27.07     -0.02      0.06      4.88 
   216.51     16.39     34.45     27.07     -0.02      0.06      4.47 
   216.52     16.39     34.44     27.07     -0.02      0.05      4.47 
   216.53     16.40     34.44     27.07     -0.02      0.05      4.88 
   216.54     16.40     34.44     27.07     -0.01      0.05      4.47 
   216.55     16.40     34.43     27.07     -0.01      0.04      4.53 
   216.56     16.40     34.43     27.07     -0.01      0.03      5.35 
   216.57     16.40     34.42     27.07     -0.01      0.03      5.35 
   216.58     16.40     34.42     27.07     -0.01      0.02      5.35 
   216.59     16.40     34.42     27.07     -0.01      0.02      4.53 
   216.60     16.40     34.42     27.07     -0.01      0.01      4.12 
   216.61     16.40     34.43     27.07     -0.01      0.01      4.12 
   216.62     16.40     34.42     27.07     -0.01      0.00      4.53 
   216.63     16.40     34.43     27.07     -0.01      0.01      3.71 
   216.64     16.40     34.43     27.07     -0.01      0.01      4.12 
   216.65     16.40     34.43     27.07     -0.01      0.02      4.53 
   216.66     16.40     34.44     27.08     -0.01      0.02      4.12 
   216.67     16.40     34.44     27.08     -0.01      0.03      4.12 
   216.68     16.40     34.45     27.08     -0.01      0.03      4.12 
   216.69     16.40     34.45     27.08     -0.01      0.03      4.12 
   216.70     16.40     34.45     27.08     -0.01      0.04      3.71 
   216.71     16.40     34.45     27.08     -0.01      0.04      3.71 
   216.72     16.40     34.45     27.08     -0.00      0.04      4.12 
   216.73     16.40     34.45     27.08     -0.00      0.04      3.29 
   216.74     16.40     34.45     27.08     -0.01      0.05      2.88 
   216.75     16.40     34.45     27.08     -0.01      0.05      4.12 
   216.76     16.40     34.45     27.08     -0.01      0.05      4.12 
   216.77     16.40     34.45     27.08     -0.01      0.05      4.12 
   216.78     16.40     34.45     27.08     -0.01      0.04      4.12 
   216.79     16.39     34.45     27.08     -0.01      0.04      3.71 
   216.80     16.39     34.45     27.08     -0.00      0.04      3.71 
   216.81     16.39     34.45     27.08     -0.01      0.04      3.71 
   216.82     16.39     34.45     27.08     -0.01      0.04      2.88 
   216.83     16.39     34.45     27.08     -0.01      0.04      3.29 
   216.84     16.39     34.45     27.08     -0.01      0.04      4.94 
   216.85     16.39     34.45     27.08     -0.00      0.04      4.94 
   216.86     16.39     34.45     27.08     -0.00      0.03      4.94 
   216.87     16.40     34.45     27.08     -0.00      0.03      4.94 
   216.88     16.40     34.45     27.08     -0.00      0.03      4.94 
   216.89     16.40     34.44     27.09      0.00      0.03      4.12 
   216.90     16.40     34.44     27.09      0.00      0.02      5.35 
   216.91     16.40     34.44     27.08      0.00      0.02      5.71 
   216.92     16.40     34.44     27.08      0.00      0.02      5.29 
   216.93     16.40     34.44     27.08      0.00      0.02      5.29 
   216.94     16.40     34.45     27.09      0.00      0.03      5.29 
   216.95     16.40     34.45     27.09     -0.00      0.03      6.12 
   216.96     16.40     34.45     27.09     -0.00      0.03      6.53 
   216.97     16.40     34.45     27.09     -0.00      0.04      6.53 
   216.98     16.40     34.45     27.09     -0.00      0.04      6.12 
   216.99     16.40     34.44     27.09     -0.01      0.04      6.12 
   217.00     16.40     34.45     27.09     -0.01      0.04      5.29 
   217.01     16.40     34.45     27.09     -0.01      0.04      3.65 
   217.02     16.40     34.44     27.09     -0.01      0.05      4.00 
   217.03     16.40     34.44     27.08     -0.01      0.04      4.00 
   217.04     16.40     34.43     27.08     -0.00      0.04      4.00 
   217.05     16.41     34.43     27.08     -0.00      0.04      4.00 
   217.06     16.40     34.43     27.08     -0.00      0.03      4.00 
   217.07     16.40     34.44     27.08     -0.00      0.03      2.76 
   217.08     16.40     34.44     27.08     -0.00      0.03      2.82 
   217.09     16.40     34.44     27.08      0.00      0.03      2.00 
   217.10     16.40     34.45     27.09     -0.00      0.03      2.82 
   217.11     16.39     34.45     27.09     -0.00      0.04      3.53 
   217.12     16.39     34.46     27.09     -0.01      0.04      3.53 
   217.13     16.39     34.46     27.08     -0.01      0.04      3.12 
   217.14     16.39     34.46     27.09     -0.01      0.04      3.12 
   217.15     16.39     34.46     27.09     -0.00      0.03      3.53 
   217.16     16.39     34.46     27.09     -0.00      0.03      3.94 
   217.17     16.39     34.46     27.09     -0.00      0.03      3.94 
   217.18     16.39     34.47     27.09     -0.00      0.03      5.18 
   217.19     16.39     34.47     27.09     -0.00      0.03      5.65 
   217.20     16.39     34.47     27.09     -0.00      0.03      5.65 
   217.21     16.39     34.46     27.09     -0.00      0.03      6.06 
   217.22     16.39     34.46     27.09      0.00      0.02      6.47 
   217.23     16.40     34.46     27.09      0.00      0.02      6.88 
   217.24     16.40     34.46     27.09      0.00      0.02      6.88 
   217.25     16.40     34.46     27.09     -0.00      0.03      6.47 
   217.26     16.39     34.46     27.09     -0.01      0.04      6.47 
   217.27     16.39     34.46     27.09     -0.01      0.04      5.65 
   217.28     16.39     34.47     27.09     -0.01      0.05      4.94 
   217.29     16.39     34.47     27.09     -0.02      0.05      4.12 
   217.30     16.39     34.47     27.09     -0.02      0.05      4.12 
   217.31     16.39     34.47     27.09     -0.02      0.05      4.94 
   217.32     16.39     34.47     27.09     -0.02      0.04      4.53 
   217.33     16.39     34.47     27.09     -0.02      0.04      4.12 
   217.34     16.39     34.46     27.08     -0.01      0.04      4.12 
   217.35     16.39     34.46     27.08     -0.01      0.04      2.88 
   217.36     16.39     34.46     27.08     -0.01      0.03      2.06 
   217.37     16.39     34.46     27.08     -0.01      0.03      3.29 
   217.38     16.39     34.46     27.08     -0.01      0.03      3.29 
   217.39     16.39     34.45     27.08     -0.01      0.02      3.29 
   217.40     16.39     34.45     27.08     -0.00      0.01      4.12 
   217.41     16.39     34.45     27.08      0.00      0.00      4.53 
   217.42     16.39     34.44     27.07      0.00     -0.00      4.94 
   217.43     16.39     34.44     27.07      0.00     -0.01      4.94 
   217.44     16.39     34.44     27.07      0.00     -0.01      6.18 
   217.45     16.39     34.44     27.08      0.01     -0.00      6.59 
   217.46     16.39     34.44     27.08      0.01     -0.01      7.82 
   217.47     16.39     34.44     27.08      0.01     -0.00      8.65 
   217.48     16.39     34.45     27.08      0.00     -0.00      8.24 
   217.49     16.39     34.45     27.08      0.00      0.00      8.65 
   217.50     16.39     34.45     27.08      0.00      0.01      9.06 
