#Written by Robertson Geologging WinLogger V1.0/370
~VERSION INFORMATION
#------------------------------------------------------------------------------
 VERS. 2.0 : CWLS LOG ASCII STANDARD - VERSION 2.0
 WRAP. NO  : ONE LINE PER DEPTH STEP
~WELL INFORMATION
#MNEM.UNIT         DATA                                DESCRIPTION OF MNEMONIC
#------------------------------------------------------------------------------
 STRT.M         74.0000                            :   START DEPTH
 STOP.M        380.0000                            :   STOP DEPTH
 STEP.M          0.0100                            :   STEP VALUE
 NULL.        -999.2500                            :   NULL VALUE
 COMP.    White Young Gteen                        :   COMPANY NAME
 WELL.    Horden Shaft                             :   WELL NAME
 FLD.     Horden                                   :   FIELD NAME
 LOC.     N/A                                      :   LOCATION
 PROV.    N/A                                      :   PROVINCE
 SRVC.    N/A                                      :   SERVICE COMPANY NAME
 DATE.    03 Oct 05                                :   DATE
 UWI.     N/A                                      :   UNIQUE WELL IDENTIFIER
~PARAMETER INFORMATION
#MNEMO.UNIT         VALUE                 DESCRIPTION OF MNEMONIC
#------------------------------------------------------------------------------
~OTHER INFORMATION SECTION
#------------------------------------------------------------------------------
 TCGS1365
~CURVE INFORMATION
#MNEMO.UNIT         API CODE              CURVE DESCRIPTION
#------------------------------------------------------------------------------
 DEPTH.M                                 :   0     Depth
 TEMP.DegC                               :   1     Temperature
 CN25.mS/cm                              :   2     Conductivity@25DegC
 COND.mS/cm                              :   3     Conductivity
 DELT.DegC                               :   4     Delta T
 DELC.mS/cm                              :   5     Delta C
 NGAM.CPS                                :   6     Natural Gamma
#------------------------------------------------------------------------------
~A  DEPTH     TEMP      CN25      COND      DELT      DELC      NGAM      
# ...
   277.40     17.67     65.00     55.23      0.00     -0.01      4.82 
   277.41     17.68     64.99     55.23      0.01     -0.03      4.82 
   277.42     17.68     64.99     55.23      0.01     -0.04      4.82 
   277.43     17.68     64.99     55.23      0.01     -0.04      5.18 
   277.44     17.68     64.99     55.23      0.01     -0.03      4.76 
   277.45     17.68     64.99     55.23      0.01     -0.02      5.59 
   277.46     17.68     64.99     55.23      0.01     -0.01      5.65 
   277.47     17.68     65.00     55.23      0.00     -0.01      5.59 
   277.48     17.68     64.99     55.23      0.01     -0.02      5.59 
   277.49     17.68     64.99     55.23      0.01     -0.02      6.00 
   277.50     17.68     64.99     55.23      0.01     -0.02      6.00 
   277.51     17.68     64.99     55.23      0.01     -0.02      6.71 
   277.52     17.68     64.99     55.23      0.00     -0.00      5.88 
   277.53     17.68     64.99     55.23     -0.00      0.01      5.88 
   277.54     17.68     64.99     55.23     -0.01      0.01      5.53 
   277.55     17.68     65.00     55.23     -0.00      0.01      5.53 
   277.56     17.68     64.99     55.23      0.00     -0.00      5.53 
   277.57     17.68     64.99     55.23      0.01     -0.02      5.12 
   277.58     17.68     64.99     55.23      0.01     -0.02      5.47 
   277.59     17.68     64.99     55.23      0.00     -0.01      5.47 
   277.60     17.68     65.00     55.23     -0.00      0.00      5.12 
   277.61     17.67     65.00     55.23     -0.01      0.01      5.12 
   277.62     17.67     65.00     55.23     -0.01      0.01      4.65 
   277.63     17.67     65.00     55.23     -0.01      0.01      4.24 
   277.64     17.67     65.00     55.23     -0.00      0.01      3.88 
   277.65     17.67     65.00     55.23     -0.00      0.01      4.71 
   277.66     17.67     65.00     55.23     -0.01      0.01      4.65 
   277.67     17.67     65.00     55.23     -0.01      0.01      4.24 
   277.68     17.67     65.01     55.23     -0.01      0.03      3.94 
   277.69     17.67     65.02     55.23     -0.02      0.04      4.35 
   277.70     17.67     65.02     55.23     -0.01      0.04      3.94 
   277.71     17.67     65.01     55.23     -0.01      0.03      4.35 
   277.72     17.67     65.01     55.23     -0.01      0.02      4.35 
   277.73     17.67     65.00     55.23     -0.00      0.01      3.94 
   277.74     17.67     65.00     55.23     -0.00      0.01      3.94 
   277.75     17.67     65.01     55.23     -0.00      0.01      4.82 
   277.76     17.67     65.01     55.23     -0.00      0.00      4.82 
   277.77     17.67     65.02     55.23     -0.00      0.00      6.06 
   277.78     17.67     65.02     55.23      0.00      0.00      6.76 
   277.79     17.67     65.01     55.23      0.00     -0.01      7.24 
   277.80     17.67     65.01     55.23      0.00     -0.01      7.24 
   277.81     17.67     65.01     55.23      0.01     -0.01      7.65 
   277.82     17.68     65.01     55.23      0.01     -0.01      7.18 
   277.83     17.67     65.01     55.23      0.01     -0.01      6.82 
   277.84     17.67     65.01     55.23      0.01     -0.01      6.82 
   277.85     17.67     65.01     55.23      0.01     -0.01      6.82 
   277.86     17.67     65.01     55.23      0.00     -0.01      7.12 
   277.87     17.67     65.01     55.23      0.00     -0.00      7.12 
   277.88     17.67     65.01     55.23      0.00      0.00      7.12 
   277.89     17.67     65.01     55.23     -0.00      0.01      7.53 
   277.90     17.67     65.01     55.23     -0.00      0.01      8.35 
   277.91     17.67     65.02     55.23     -0.00      0.00      8.71 
   277.92     17.67     65.02     55.23     -0.00      0.01      7.47 
   277.93     17.67     65.03     55.23     -0.01      0.02      7.47 
   277.94     17.66     65.04     55.23     -0.01      0.03      6.65 
   277.95     17.66     65.05     55.23     -0.01      0.04      7.00 
   277.96     17.66     65.05     55.23     -0.02      0.04      6.18 
   277.97     17.66     65.04     55.23     -0.02      0.04      7.00 
   277.98     17.66     65.04     55.23     -0.01      0.04      6.59 
   277.99     17.66     65.03     55.23     -0.01      0.03      7.06 
   278.00     17.67     65.03     55.23     -0.01      0.03      7.41 
   278.01     17.67     65.02     55.23     -0.01      0.03      7.41 
   278.02     17.67     65.03     55.23     -0.01      0.03      7.82 
   278.03     17.66     65.03     55.23     -0.01      0.03      7.53 
   278.04     17.66     65.03     55.23     -0.01      0.03      8.35 
   278.05     17.67     65.03     55.23     -0.01      0.03      7.94 
   278.06     17.67     65.03     55.23     -0.01      0.02      8.35 
   278.07     17.67     65.03     55.23     -0.01      0.02      8.35 
   278.08     17.67     65.03     55.24     -0.00      0.01      8.00 
   278.09     17.66     65.03     55.23     -0.00      0.01      8.00 
   278.10     17.66     65.04     55.23     -0.00      0.01      8.82 
   278.11     17.66     65.04     55.23     -0.00      0.01      9.47 
   278.12     17.66     65.04     55.24     -0.00      0.01      8.41 
   278.13     17.66     65.04     55.23     -0.00      0.00      8.82 
   278.14     17.66     65.03     55.23     -0.00      0.00      8.82 
   278.15     17.67     65.03     55.23      0.00     -0.00      9.24 
   278.16     17.67     65.03     55.24     -0.00      0.01      9.24 
   278.17     17.67     65.03     55.23     -0.00      0.01      8.88 
   278.18     17.67     65.03     55.23     -0.00      0.01      8.88 
   278.19     17.67     65.04     55.24     -0.01      0.03      8.06 
   278.20     17.66     65.04     55.24     -0.01      0.04      8.06 
   278.21     17.66     65.05     55.24     -0.01      0.04      7.24 
   278.22     17.66     65.05     55.24     -0.01      0.05      7.65 
   278.23     17.66     65.06     55.24     -0.01      0.05      6.82 
   278.24     17.66     65.05     55.24     -0.01      0.05      6.82 
   278.25     17.66     65.05     55.24     -0.01      0.04      7.24 
   278.26     17.66     65.04     55.24     -0.01      0.04      7.65 
   278.27     17.67     65.03     55.23     -0.00      0.02      6.41 
   278.28     17.67     65.02     55.24      0.00      0.00      5.35 
   278.29     17.67     65.02     55.24      0.01     -0.01      6.18 
   278.30     17.67     65.00     55.23      0.01     -0.03      5.76 
   278.31     17.68     65.00     55.23      0.01     -0.03      4.94 
   278.32     17.68     65.00     55.23      0.01     -0.03      4.53 
   278.33     17.68     64.99     55.23      0.01     -0.03      3.71 
   278.34     17.68     64.99     55.23      0.01     -0.03      4.41 
   278.35     17.68     64.99     55.24      0.01     -0.03      4.00 
   278.36     17.68     64.99     55.23      0.01     -0.03      4.41 
   278.37     17.68     64.99     55.23      0.01     -0.03      4.00 
   278.38     17.68     65.00     55.23      0.01     -0.01      4.41 
   278.39     17.68     65.00     55.23      0.00      0.00      4.71 
   278.40     17.68     65.00     55.23     -0.00      0.01      4.71 
   278.41     17.67     65.01     55.23     -0.01      0.02      4.71 
   278.42     17.67     65.01     55.23     -0.01      0.02      4.29 
   278.43     17.67     65.01     55.23     -0.01      0.02      4.29 
   278.44     17.67     65.01     55.23     -0.01      0.02      5.12 
   278.45     17.67     65.01     55.23     -0.00      0.01      5.12 
   278.46     17.67     65.01     55.23     -0.00      0.01      4.71 
   278.47     17.67     65.01     55.24     -0.01      0.02      4.71 
   278.48     17.67     65.02     55.24     -0.01      0.02      4.71 
   278.49     17.67     65.02     55.24     -0.01      0.04      5.53 
   278.50     17.67     65.03     55.24     -0.02      0.04      5.94 
   278.51     17.67     65.03     55.24     -0.02      0.04      5.65 
   278.52     17.67     65.03     55.24     -0.01      0.04      6.06 
