#Written by Robertson Geologging WinLogger V1.0/370
~VERSION INFORMATION
#------------------------------------------------------------------------------
 VERS. 2.0 : CWLS LOG ASCII STANDARD - VERSION 2.0
 WRAP. NO  : ONE LINE PER DEPTH STEP
~WELL INFORMATION
#MNEM.UNIT         DATA                                DESCRIPTION OF MNEMONIC
#------------------------------------------------------------------------------
 STRT.M         74.0000                            :   START DEPTH
 STOP.M        380.0000                            :   STOP DEPTH
 STEP.M          0.0100                            :   STEP VALUE
 NULL.        -999.2500                            :   NULL VALUE
 COMP.    White Young Gteen                        :   COMPANY NAME
 WELL.    Horden Shaft                             :   WELL NAME
 FLD.     Horden                                   :   FIELD NAME
 LOC.     N/A                                      :   LOCATION
 PROV.    N/A                                      :   PROVINCE
 SRVC.    N/A                                      :   SERVICE COMPANY NAME
 DATE.    03 Oct 05                                :   DATE
 UWI.     N/A                                      :   UNIQUE WELL IDENTIFIER
~PARAMETER INFORMATION
#MNEMO.UNIT         VALUE                 DESCRIPTION OF MNEMONIC
#------------------------------------------------------------------------------
~OTHER INFORMATION SECTION
#------------------------------------------------------------------------------
 TCGS1365
~CURVE INFORMATION
#MNEMO.UNIT         API CODE              CURVE DESCRIPTION
#------------------------------------------------------------------------------
 DEPTH.M                                 :   0     Depth
 TEMP.DegC                               :   1     Temperature
 CN25.mS/cm                              :   2     Conductivity@25DegC
 COND.mS/cm                              :   3     Conductivity
 DELT.DegC                               :   4     Delta T
 DELC.mS/cm                              :   5     Delta C
 NGAM.CPS                                :   6     Natural Gamma
#------------------------------------------------------------------------------
~A  DEPTH     TEMP      CN25      COND      DELT      DELC      NGAM      
# ...
    94.34     14.82     33.18     23.68     -0.00      0.03      0.88 
    94.35     14.82     33.18     23.68      0.00      0.03      0.88 
    94.36     14.82     33.18     23.68      0.00      0.03      0.88 
    94.37     14.82     33.17     23.68      0.00      0.03      0.88 
    94.38     14.82     33.17     23.68      0.01      0.02      0.88 
    94.39     14.82     33.17     23.68      0.01      0.02      0.88 
    94.40     14.82     33.17     23.68      0.01      0.02      0.88 
    94.41     14.82     33.17     23.68      0.01      0.01      0.88 
    94.42     14.82     33.17     23.68      0.01      0.02      0.88 
    94.43     14.82     33.17     23.68      0.01      0.02      1.35 
    94.44     14.82     33.17     23.68      0.01      0.02      1.29 
    94.45     14.82     33.17     23.68      0.01      0.01      1.29 
    94.46     14.82     33.17     23.68      0.01      0.01      1.29 
    94.47     14.82     33.18     23.68      0.01      0.00      1.29 
    94.48     14.82     33.18     23.68      0.02     -0.00      1.29 
    94.49     14.82     33.18     23.68      0.02      0.00      1.29 
    94.50     14.82     33.18     23.68      0.02     -0.00      0.88 
    94.51     14.82     33.18     23.68      0.02     -0.00      0.88 
    94.52     14.82     33.18     23.68      0.01     -0.00      0.88 
    94.53     14.82     33.18     23.68      0.01      0.00      0.88 
    94.54     14.82     33.18     23.68      0.02      0.00      0.88 
    94.55     14.82     33.18     23.68      0.02     -0.00      0.88 
    94.56     14.82     33.18     23.68      0.02      0.00      0.88 
    94.57     14.82     33.18     23.68      0.02     -0.00      0.88 
    94.58     14.82     33.18     23.68      0.01      0.00      1.35 
    94.59     14.82     33.18     23.68      0.01      0.01      1.35 
    94.60     14.82     33.18     23.68      0.01      0.01      0.88 
    94.61     14.82     33.18     23.68      0.01      0.01      0.47 
    94.62     14.82     33.18     23.68      0.00      0.02      0.88 
    94.63     14.82     33.18     23.68      0.00      0.03      0.88 
    94.64     14.82     33.19     23.68     -0.00      0.03      0.88 
    94.65     14.81     33.18     23.68     -0.01      0.03      0.88 
    94.66     14.81     33.19     23.68     -0.01      0.04      0.88 
    94.67     14.81     33.19     23.68     -0.01      0.04      0.88 
    94.68     14.81     33.19     23.68     -0.01      0.04      0.88 
    94.69     14.81     33.20     23.68     -0.01      0.04      0.88 
    94.70     14.81     33.19     23.67     -0.01      0.04      1.35 
    94.71     14.81     33.20     23.68     -0.01      0.04      1.35 
    94.72     14.81     33.20     23.68     -0.01      0.04      1.35 
    94.73     14.81     33.20     23.68     -0.01      0.04      1.35 
    94.74     14.81     33.20     23.68     -0.01      0.03      1.35 
    94.75     14.81     33.20     23.68     -0.01      0.04      0.88 
    94.76     14.81     33.20     23.68     -0.01      0.03      1.29 
    94.77     14.81     33.20     23.68     -0.01      0.04      1.29 
    94.78     14.81     33.20     23.68     -0.01      0.03      1.29 
    94.79     14.81     33.20     23.68     -0.01      0.03      0.88 
    94.80     14.81     33.20     23.68     -0.01      0.03      0.88 
    94.81     14.81     33.20     23.68     -0.01      0.03      0.88 
    94.82     14.81     33.20     23.68     -0.01      0.03      0.88 
    94.83     14.81     33.20     23.68     -0.01      0.03      0.88 
    94.84     14.81     33.20     23.68     -0.01      0.03      0.88 
    94.85     14.81     33.20     23.68     -0.00      0.03      0.88 
    94.86     14.81     33.20     23.68     -0.00      0.02      0.88 
    94.87     14.81     33.20     23.68      0.00      0.02      0.41 
    94.88     14.81     33.20     23.68      0.00      0.01      0.41 
    94.89     14.81     33.21     23.69      0.00      0.02      0.41 
    94.90     14.81     33.21     23.69      0.00      0.02      0.41 
    94.91     14.81     33.22     23.69      0.00      0.03      0.41 
    94.92     14.80     33.22     23.69     -0.00      0.03      0.41 
    94.93     14.80     33.22     23.69     -0.00      0.03      0.00 
    94.94     14.80     33.22     23.69     -0.00      0.03      0.00 
    94.95     14.80     33.23     23.69     -0.01      0.03      0.00 
    94.96     14.80     33.23     23.69     -0.01      0.04      0.00 
    94.97     14.80     33.22     23.69     -0.01      0.03      0.00 
    94.98     14.80     33.22     23.69     -0.01      0.03      0.00 
    94.99     14.80     33.22     23.69     -0.01      0.03      0.00 
    95.00     14.80     33.22     23.69     -0.01      0.04      0.00 
    95.01     14.80     33.22     23.69     -0.01      0.04      0.41 
    95.02     14.80     33.23     23.69     -0.01      0.04      0.82 
    95.03     14.80     33.23     23.69     -0.01      0.04      0.82 
    95.04     14.80     33.23     23.69     -0.01      0.04      0.82 
    95.05     14.80     33.22     23.69     -0.01      0.04      0.82 
    95.06     14.80     33.23     23.69     -0.01      0.05      0.82 
    95.07     14.80     33.22     23.69     -0.01      0.05      0.82 
    95.08     14.80     33.23     23.70     -0.01      0.05      0.82 
    95.09     14.80     33.22     23.69     -0.01      0.05      0.82 
    95.10     14.81     33.22     23.70     -0.01      0.05      0.82 
    95.11     14.81     33.21     23.69     -0.00      0.04      0.82 
    95.12     14.81     33.21     23.70     -0.00      0.04      0.82 
    95.13     14.82     33.20     23.69      0.00      0.03      0.82 
    95.14     14.82     33.20     23.70      0.00      0.03      0.82 
    95.15     14.82     33.20     23.69      0.00      0.03      0.82 
    95.16     14.82     33.20     23.70      0.00      0.03      0.82 
    95.17     14.82     33.20     23.69      0.00      0.02      0.82 
    95.18     14.82     33.20     23.70      0.00      0.02      0.41 
    95.19     14.82     33.20     23.69      0.00      0.02      0.00 
    95.20     14.82     33.20     23.70     -0.00      0.03      0.00 
    95.21     14.81     33.20     23.69     -0.00      0.03      0.00 
    95.22     14.81     33.21     23.70     -0.00      0.03      0.00 
    95.23     14.81     33.21     23.69     -0.00      0.03      0.00 
    95.24     14.81     33.21     23.70     -0.00      0.03      0.00 
    95.25     14.81     33.21     23.70     -0.00      0.03      0.00 
    95.26     14.81     33.21     23.70      0.00      0.03      0.00 
    95.27     14.81     33.21     23.70      0.00      0.03      0.00 
    95.28     14.81     33.21     23.70     -0.00      0.03      0.00 
    95.29     14.81     33.21     23.70     -0.00      0.03      0.00 
    95.30     14.81     33.22     23.70     -0.00      0.04      0.00 
    95.31     14.81     33.22     23.70     -0.00      0.03      0.00 
    95.32     14.81     33.22     23.70     -0.01      0.04      0.00 
    95.33     14.81     33.23     23.70     -0.01      0.05      0.00 
    95.34     14.80     33.23     23.70     -0.01      0.05      0.00 
    95.35     14.80     33.23     23.70     -0.02      0.06      0.00 
    95.36     14.80     33.23     23.70     -0.02      0.06      0.00 
    95.37     14.80     33.24     23.70     -0.02      0.07      0.00 
    95.38     14.80     33.23     23.70     -0.02      0.07      0.00 
    95.39     14.80     33.24     23.70     -0.02      0.07      0.00 
    95.40     14.80     33.23     23.70     -0.02      0.06      0.00 
    95.41     14.80     33.23     23.70     -0.02      0.06      0.41 
    95.42     14.81     33.23     23.70     -0.02      0.06      0.41 
    95.43     14.81     33.23     23.70     -0.01      0.06      0.41 
    95.44     14.81     33.22     23.70     -0.01      0.05      0.41 
    95.45     14.81     33.23     23.70     -0.01      0.05      0.41 
    95.46     14.81     33.22     23.70     -0.01      0.05      0.41 
