#Written by Robertson Geologging WinLogger V1.0/370
~VERSION INFORMATION
#------------------------------------------------------------------------------
 VERS. 2.0 : CWLS LOG ASCII STANDARD - VERSION 2.0
 WRAP. NO  : ONE LINE PER DEPTH STEP
~WELL INFORMATION
#MNEM.UNIT         DATA                                DESCRIPTION OF MNEMONIC
#------------------------------------------------------------------------------
 STRT.M         74.0000                            :   START DEPTH
 STOP.M        380.0000                            :   STOP DEPTH
 STEP.M          0.0100                            :   STEP VALUE
 NULL.        -999.2500                            :   NULL VALUE
 COMP.    White Young Gteen                        :   COMPANY NAME
 WELL.    Horden Shaft                             :   WELL NAME
 FLD.     Horden                                   :   FIELD NAME
 LOC.     N/A                                      :   LOCATION
 PROV.    N/A                                      :   PROVINCE
 SRVC.    N/A                                      :   SERVICE COMPANY NAME
 DATE.    03 Oct 05                                :   DATE
 UWI.     N/A                                      :   UNIQUE WELL IDENTIFIER
~PARAMETER INFORMATION
#MNEMO.UNIT         VALUE                 DESCRIPTION OF MNEMONIC
#------------------------------------------------------------------------------
~OTHER INFORMATION SECTION
#------------------------------------------------------------------------------
 TCGS1365
~CURVE INFORMATION
#MNEMO.UNIT         API CODE              CURVE DESCRIPTION
#------------------------------------------------------------------------------
 DEPTH.M                                 :   0     Depth
 TEMP.DegC                               :   1     Temperature
 CN25.mS/cm                              :   2     Conductivity@25DegC
 COND.mS/cm                              :   3     Conductivity
 DELT.DegC                               :   4     Delta T
 DELC.mS/cm                              :   5     Delta C
 NGAM.CPS                                :   6     Natural Gamma
#------------------------------------------------------------------------------
~A  DEPTH     TEMP      CN25      COND      DELT      DELC      NGAM      
# ...
   155.36     15.95     32.75     24.99      0.01     -0.01      0.82 
   155.37     15.95     32.74     24.99      0.00     -0.01      0.82 
   155.38     15.94     32.75     24.99      0.00     -0.00      0.82 
   155.39     15.94     32.75     24.99      0.00     -0.01      0.82 
   155.40     15.94     32.75     24.99      0.00     -0.00      0.82 
   155.41     15.94     32.75     24.99      0.00     -0.00      1.24 
   155.42     15.94     32.75     24.99      0.01     -0.01      1.24 
   155.43     15.95     32.75     24.99      0.01     -0.02      1.24 
   155.44     15.95     32.75     24.99      0.01     -0.02      1.24 
   155.45     15.95     32.75     24.99      0.01     -0.02      1.24 
   155.46     15.94     32.75     24.99      0.01     -0.02      0.82 
   155.47     15.94     32.75     24.99      0.01     -0.02      0.82 
   155.48     15.94     32.76     24.99      0.01     -0.02      1.24 
   155.49     15.94     32.75     24.99      0.01     -0.03      1.24 
   155.50     15.94     32.75     24.99      0.01     -0.02      1.24 
   155.51     15.94     32.75     24.99      0.01     -0.02      1.24 
   155.52     15.94     32.75     24.99      0.01     -0.02      1.71 
   155.53     15.94     32.75     24.99      0.01     -0.02      1.71 
   155.54     15.94     32.75     24.99      0.01     -0.01      1.71 
   155.55     15.94     32.76     24.99      0.00     -0.00      1.71 
   155.56     15.94     32.75     24.99     -0.00      0.00      1.71 
   155.57     15.94     32.75     24.99     -0.00      0.01      2.12 
   155.58     15.94     32.76     24.99     -0.01      0.01      1.71 
   155.59     15.94     32.76     24.99     -0.01      0.02      1.71 
   155.60     15.94     32.76     24.99     -0.01      0.02      1.29 
   155.61     15.94     32.76     24.99     -0.01      0.02      1.29 
   155.62     15.94     32.76     24.99     -0.01      0.02      1.29 
   155.63     15.94     32.76     24.99     -0.01      0.03      1.29 
   155.64     15.94     32.76     24.99     -0.01      0.03      1.29 
   155.65     15.94     32.76     24.99     -0.01      0.03      0.88 
   155.66     15.94     32.76     24.99     -0.01      0.02      0.88 
   155.67     15.94     32.77     24.99     -0.01      0.03      0.88 
   155.68     15.93     32.77     24.99     -0.01      0.03      0.88 
   155.69     15.93     32.77     24.99     -0.02      0.03      0.41 
   155.70     15.93     32.78     24.99     -0.02      0.03      0.41 
   155.71     15.93     32.78     24.99     -0.02      0.03      0.41 
   155.72     15.93     32.78     24.99     -0.02      0.03      0.41 
   155.73     15.93     32.78     24.99     -0.02      0.04      0.41 
   155.74     15.93     32.78     24.99     -0.02      0.03      0.00 
   155.75     15.93     32.78     24.99     -0.02      0.03      0.00 
   155.76     15.93     32.78     24.99     -0.01      0.02      0.41 
   155.77     15.93     32.78     24.99     -0.01      0.02      0.82 
   155.78     15.93     32.78     24.99     -0.01      0.01      0.82 
   155.79     15.93     32.77     24.99     -0.00      0.01      0.82 
   155.80     15.93     32.76     24.99     -0.00      0.00      0.82 
   155.81     15.94     32.76     24.99     -0.00      0.00      0.82 
   155.82     15.94     32.76     24.99     -0.00      0.00      0.82 
   155.83     15.94     32.75     24.99     -0.00     -0.00      1.29 
   155.84     15.94     32.75     24.99      0.00     -0.00      1.29 
   155.85     15.94     32.76     24.99      0.00      0.00      1.29 
   155.86     15.94     32.76     24.99      0.00      0.00      1.29 
   155.87     15.94     32.75     24.99     -0.00      0.00      1.29 
   155.88     15.94     32.76     24.99     -0.00      0.01      1.71 
   155.89     15.94     32.76     24.99     -0.01      0.02      1.71 
   155.90     15.94     32.77     24.99     -0.01      0.02      1.71 
   155.91     15.94     32.77     24.99     -0.00      0.02      2.12 
   155.92     15.94     32.77     24.99     -0.00      0.01      2.12 
   155.93     15.94     32.76     24.99      0.00      0.00      1.71 
   155.94     15.94     32.76     24.99      0.00     -0.00      1.29 
   155.95     15.94     32.77     24.99      0.01     -0.00      1.29 
   155.96     15.94     32.76     24.99      0.01     -0.01      1.29 
   155.97     15.94     32.76     24.99      0.01     -0.01      1.29 
   155.98     15.94     32.76     24.99      0.01     -0.01      1.29 
   155.99     15.94     32.75     24.99      0.02     -0.03      1.29 
   156.00     15.95     32.75     24.99      0.02     -0.03      0.82 
   156.01     15.95     32.75     24.99      0.02     -0.03      0.82 
   156.02     15.95     32.75     24.99      0.02     -0.03      0.82 
   156.03     15.95     32.75     24.99      0.01     -0.02      0.82 
   156.04     15.94     32.75     24.99      0.01     -0.01      0.82 
   156.05     15.94     32.76     24.99      0.00     -0.00      0.41 
   156.06     15.94     32.75     24.99     -0.00      0.00      0.82 
   156.07     15.94     32.76     24.99     -0.01      0.01      0.82 
   156.08     15.94     32.76     24.99     -0.01      0.02      0.41 
   156.09     15.94     32.77     24.99     -0.01      0.02      0.82 
   156.10     15.94     32.77     24.99     -0.01      0.03      0.82 
   156.11     15.94     32.77     24.99     -0.01      0.02      1.24 
   156.12     15.94     32.76     24.99     -0.01      0.02      1.24 
   156.13     15.94     32.76     24.99     -0.01      0.02      2.06 
   156.14     15.94     32.77     24.99     -0.01      0.02      2.06 
   156.15     15.94     32.77     24.99     -0.01      0.02      2.06 
   156.16     15.94     32.76     24.99     -0.00      0.01      2.06 
   156.17     15.94     32.76     24.99      0.00      0.00      2.06 
   156.18     15.94     32.76     24.99      0.01     -0.01      2.06 
   156.19     15.94     32.76     24.99      0.01     -0.01      2.06 
   156.20     15.94     32.75     24.99      0.01     -0.02      2.06 
   156.21     15.94     32.75     24.99      0.01     -0.02      2.06 
   156.22     15.94     32.75     24.99      0.01     -0.02      2.06 
   156.23     15.94     32.76     24.99      0.01     -0.02      1.65 
   156.24     15.94     32.76     24.99      0.01     -0.02      1.65 
   156.25     15.94     32.76     24.99      0.01     -0.02      2.06 
   156.26     15.94     32.76     24.99      0.01     -0.01      1.65 
   156.27     15.94     32.76     24.99      0.01     -0.01      1.65 
   156.28     15.94     32.75     24.99      0.01     -0.01      1.24 
   156.29     15.94     32.75     24.99      0.01     -0.01      1.24 
   156.30     15.94     32.75     24.99      0.01     -0.02      0.41 
   156.31     15.94     32.75     24.99      0.01     -0.01      0.41 
   156.32     15.94     32.76     24.99      0.00     -0.01      0.41 
   156.33     15.94     32.76     24.99      0.00      0.00      0.82 
   156.34     15.94     32.76     24.99     -0.00      0.01      1.24 
   156.35     15.94     32.75     24.99     -0.00      0.01      1.24 
   156.36     15.94     32.76     24.99     -0.00      0.01      1.24 
   156.37     15.94     32.76     24.99     -0.00      0.01      1.24 
   156.38     15.94     32.76     24.99     -0.00      0.01      1.24 
   156.39     15.94     32.76     24.99     -0.00      0.01      1.24 
   156.40     15.94     32.77     24.99     -0.01      0.01      1.24 
   156.41     15.94     32.77     24.99     -0.01      0.02      1.24 
   156.42     15.94     32.77     24.99     -0.01      0.02      0.82 
   156.43     15.94     32.77     24.99     -0.01      0.02      0.82 
   156.44     15.94     32.77     24.99     -0.01      0.02      0.82 
   156.45     15.94     32.77     24.99     -0.01      0.01      0.82 
   156.46     15.94     32.77     24.99     -0.01      0.01      0.82 
   156.47     15.94     32.76     24.99     -0.00      0.01      0.82 
   156.48     15.94     32.76     24.99     -0.00      0.01      0.82 
