#Written by Robertson Geologging WinLogger V1.0/370
~VERSION INFORMATION
#------------------------------------------------------------------------------
 VERS. 2.0 : CWLS LOG ASCII STANDARD - VERSION 2.0
 WRAP. NO  : ONE LINE PER DEPTH STEP
~WELL INFORMATION
#MNEM.UNIT         DATA                                DESCRIPTION OF MNEMONIC
#------------------------------------------------------------------------------
 STRT.M         74.0000                            :   START DEPTH
 STOP.M        380.0000                            :   STOP DEPTH
 STEP.M          0.0100                            :   STEP VALUE
 NULL.        -999.2500                            :   NULL VALUE
 COMP.    White Young Gteen                        :   COMPANY NAME
 WELL.    Horden Shaft                             :   WELL NAME
 FLD.     Horden                                   :   FIELD NAME
 LOC.     N/A                                      :   LOCATION
 PROV.    N/A                                      :   PROVINCE
 SRVC.    N/A                                      :   SERVICE COMPANY NAME
 DATE.    03 Oct 05                                :   DATE
 UWI.     N/A                                      :   UNIQUE WELL IDENTIFIER
~PARAMETER INFORMATION
#MNEMO.UNIT         VALUE                 DESCRIPTION OF MNEMONIC
#------------------------------------------------------------------------------
~OTHER INFORMATION SECTION
#------------------------------------------------------------------------------
 TCGS1365
~CURVE INFORMATION
#MNEMO.UNIT         API CODE              CURVE DESCRIPTION
#------------------------------------------------------------------------------
 DEPTH.M                                 :   0     Depth
 TEMP.DegC                               :   1     Temperature
 CN25.mS/cm                              :   2     Conductivity@25DegC
 COND.mS/cm                              :   3     Conductivity
 DELT.DegC                               :   4     Delta T
 DELC.mS/cm                              :   5     Delta C
 NGAM.CPS                                :   6     Natural Gamma
#------------------------------------------------------------------------------
~A  DEPTH     TEMP      CN25      COND      DELT      DELC      NGAM      
# ...
   196.04     16.41     34.57     27.21     -0.00      0.03     12.35 
   196.05     16.41     34.58     27.21     -0.01      0.04     13.18 
   196.06     16.41     34.58     27.21     -0.01      0.04     13.12 
   196.07     16.41     34.57     27.21     -0.01      0.04     11.47 
   196.08     16.41     34.58     27.21     -0.01      0.04     12.29 
   196.09     16.41     34.57     27.21     -0.01      0.04     11.47 
   196.10     16.41     34.58     27.21     -0.01      0.05     11.47 
   196.11     16.41     34.58     27.21     -0.01      0.04     12.71 
   196.12     16.41     34.57     27.21     -0.00      0.04     13.53 
   196.13     16.41     34.57     27.21     -0.00      0.04     13.12 
   196.14     16.41     34.57     27.21     -0.00      0.04     13.94 
   196.15     16.41     34.57     27.21     -0.00      0.04     14.35 
   196.16     16.41     34.58     27.21     -0.00      0.04     15.18 
   196.17     16.41     34.58     27.21     -0.01      0.05     14.35 
   196.18     16.41     34.58     27.21     -0.01      0.05     14.35 
   196.19     16.41     34.58     27.21     -0.01      0.05     14.35 
   196.20     16.41     34.59     27.21     -0.01      0.05     13.94 
   196.21     16.41     34.59     27.21     -0.01      0.06     13.53 
   196.22     16.41     34.59     27.21     -0.01      0.06     12.29 
   196.23     16.41     34.58     27.21     -0.01      0.06     13.59 
   196.24     16.40     34.59     27.21     -0.01      0.07     14.41 
   196.25     16.40     34.59     27.21     -0.01      0.06     14.82 
   196.26     16.40     34.59     27.21     -0.01      0.06     15.24 
   196.27     16.41     34.59     27.21     -0.01      0.06     16.88 
   196.28     16.41     34.58     27.21     -0.01      0.06     14.82 
   196.29     16.41     34.59     27.21     -0.01      0.06     13.59 
   196.30     16.41     34.59     27.21     -0.00      0.05     13.53 
   196.31     16.41     34.58     27.21     -0.00      0.05     12.29 
   196.32     16.41     34.59     27.21     -0.00      0.05     11.88 
   196.33     16.40     34.59     27.21      0.00      0.04     11.06 
   196.34     16.41     34.59     27.22      0.00      0.04     11.06 
   196.35     16.41     34.59     27.22      0.00      0.04     11.47 
   196.36     16.41     34.59     27.22      0.01      0.04     11.06 
   196.37     16.41     34.58     27.22      0.01      0.04     10.65 
   196.38     16.41     34.58     27.22      0.00      0.04     11.06 
   196.39     16.41     34.58     27.22      0.00      0.05     12.29 
   196.40     16.41     34.58     27.22      0.00      0.05     10.65 
   196.41     16.42     34.58     27.22      0.00      0.05     10.24 
   196.42     16.42     34.58     27.22      0.00      0.04      9.00 
   196.43     16.42     34.57     27.22      0.00      0.05      8.59 
   196.44     16.42     34.57     27.22      0.00      0.04      7.35 
   196.45     16.42     34.57     27.22      0.00      0.04      6.94 
   196.46     16.42     34.57     27.22      0.00      0.05      7.35 
   196.47     16.42     34.58     27.22      0.00      0.05      8.24 
   196.48     16.42     34.58     27.22      0.00      0.05      8.24 
   196.49     16.42     34.58     27.22      0.00      0.04     10.29 
   196.50     16.41     34.58     27.22      0.00      0.04     10.71 
   196.51     16.41     34.59     27.22      0.00      0.04     11.53 
   196.52     16.41     34.59     27.22     -0.00      0.05     11.53 
   196.53     16.41     34.60     27.22     -0.01      0.06     11.53 
   196.54     16.40     34.60     27.22     -0.01      0.06     11.94 
   196.55     16.40     34.61     27.22     -0.01      0.06     11.53 
   196.56     16.40     34.61     27.22     -0.01      0.06     10.29 
   196.57     16.40     34.61     27.22     -0.01      0.06     11.12 
   196.58     16.40     34.62     27.23     -0.01      0.06     10.71 
   196.59     16.40     34.62     27.23     -0.01      0.06     10.71 
   196.60     16.40     34.62     27.23     -0.01      0.06     11.35 
   196.61     16.40     34.62     27.23     -0.01      0.06     12.18 
   196.62     16.40     34.61     27.23     -0.01      0.05     12.18 
   196.63     16.40     34.61     27.23     -0.01      0.05     11.76 
   196.64     16.41     34.60     27.23     -0.00      0.04     10.94 
   196.65     16.41     34.60     27.23     -0.00      0.04     10.94 
   196.66     16.41     34.60     27.23      0.00      0.03      8.88 
   196.67     16.41     34.59     27.23      0.00      0.03      8.06 
   196.68     16.41     34.59     27.23      0.00      0.03      8.06 
   196.69     16.41     34.59     27.23      0.00      0.03      8.88 
   196.70     16.41     34.59     27.23      0.00      0.03      8.88 
   196.71     16.41     34.59     27.23      0.00      0.02      8.47 
   196.72     16.41     34.59     27.23      0.00      0.02      8.06 
   196.73     16.41     34.59     27.23      0.00      0.02      9.29 
   196.74     16.41     34.59     27.23      0.00      0.02      9.29 
   196.75     16.41     34.59     27.22      0.00      0.02      9.29 
   196.76     16.41     34.59     27.22      0.00      0.02     10.12 
   196.77     16.41     34.59     27.22      0.01      0.01      9.71 
   196.78     16.41     34.59     27.22      0.01      0.01      8.47 
   196.79     16.41     34.59     27.22      0.01      0.01      8.47 
   196.80     16.41     34.59     27.22      0.00      0.01      9.29 
   196.81     16.41     34.59     27.22      0.00      0.01      9.71 
   196.82     16.41     34.59     27.22      0.00      0.01      9.29 
   196.83     16.41     34.59     27.22     -0.00      0.02      9.29 
   196.84     16.41     34.59     27.22     -0.00      0.03      9.71 
   196.85     16.41     34.60     27.22     -0.01      0.03     10.53 
   196.86     16.40     34.60     27.22     -0.01      0.04     10.12 
   196.87     16.40     34.60     27.22     -0.01      0.04     10.12 
   196.88     16.40     34.60     27.22     -0.01      0.04     10.41 
   196.89     16.40     34.61     27.22     -0.01      0.04     10.41 
   196.90     16.40     34.61     27.22     -0.01      0.04     10.00 
   196.91     16.40     34.60     27.22     -0.01      0.04      9.59 
   196.92     16.40     34.60     27.22     -0.01      0.03      9.59 
   196.93     16.41     34.60     27.22     -0.01      0.03      9.59 
   196.94     16.41     34.60     27.22     -0.01      0.03      8.53 
   196.95     16.41     34.60     27.22     -0.01      0.02      9.35 
   196.96     16.41     34.59     27.22     -0.00      0.02      9.35 
   196.97     16.41     34.59     27.22     -0.00      0.02      9.24 
   196.98     16.41     34.59     27.23      0.00      0.02      8.82 
   196.99     16.41     34.59     27.23      0.00      0.02      9.24 
   197.00     16.41     34.59     27.23      0.00      0.02      8.82 
   197.01     16.41     34.59     27.23      0.00      0.02      9.65 
   197.02     16.41     34.59     27.22      0.00      0.02      8.82 
   197.03     16.41     34.59     27.22      0.00      0.02      8.82 
   197.04     16.41     34.59     27.22      0.00      0.02      9.24 
   197.05     16.41     34.59     27.22      0.00      0.02      8.53 
   197.06     16.41     34.59     27.22      0.00      0.02      9.24 
   197.07     16.41     34.59     27.22      0.00      0.02      8.82 
   197.08     16.41     34.60     27.23     -0.00      0.02      8.82 
   197.09     16.41     34.60     27.23     -0.00      0.02      8.82 
   197.10     16.41     34.60     27.23     -0.00      0.02      8.82 
   197.11     16.41     34.60     27.23     -0.00      0.02      9.24 
   197.12     16.41     34.60     27.23     -0.00      0.02      8.82 
   197.13     16.41     34.59     27.23     -0.00      0.02      9.24 
   197.14     16.41     34.59     27.23     -0.00      0.02      8.53 
   197.15     16.41     34.59     27.23      0.00      0.02      8.12 
   197.16     16.41     34.60     27.23      0.00      0.02      7.71 
