#Written by Robertson Geologging WinLogger V1.0/370
~VERSION INFORMATION
#------------------------------------------------------------------------------
 VERS. 2.0 : CWLS LOG ASCII STANDARD - VERSION 2.0
 WRAP. NO  : ONE LINE PER DEPTH STEP
~WELL INFORMATION
#MNEM.UNIT         DATA                                DESCRIPTION OF MNEMONIC
#------------------------------------------------------------------------------
 STRT.M         74.0000                            :   START DEPTH
 STOP.M        380.0000                            :   STOP DEPTH
 STEP.M          0.0100                            :   STEP VALUE
 NULL.        -999.2500                            :   NULL VALUE
 COMP.    White Young Gteen                        :   COMPANY NAME
 WELL.    Horden Shaft                             :   WELL NAME
 FLD.     Horden                                   :   FIELD NAME
 LOC.     N/A                                      :   LOCATION
 PROV.    N/A                                      :   PROVINCE
 SRVC.    N/A                                      :   SERVICE COMPANY NAME
 DATE.    03 Oct 05                                :   DATE
 UWI.     N/A                                      :   UNIQUE WELL IDENTIFIER
~PARAMETER INFORMATION
#MNEMO.UNIT         VALUE                 DESCRIPTION OF MNEMONIC
#------------------------------------------------------------------------------
~OTHER INFORMATION SECTION
#------------------------------------------------------------------------------
 TCGS1365
~CURVE INFORMATION
#MNEMO.UNIT         API CODE              CURVE DESCRIPTION
#------------------------------------------------------------------------------
 DEPTH.M                                 :   0     Depth
 TEMP.DegC                               :   1     Temperature
 CN25.mS/cm                              :   2     Conductivity@25DegC
 COND.mS/cm                              :   3     Conductivity
 DELT.DegC                               :   4     Delta T
 DELC.mS/cm                              :   5     Delta C
 NGAM.CPS                                :   6     Natural Gamma
#------------------------------------------------------------------------------
~A  DEPTH     TEMP      CN25      COND      DELT      DELC      NGAM      
# ...
   135.02     15.94     32.88     25.09      0.02      0.02      2.06 
   135.03     15.94     32.88     25.09      0.03      0.01      2.06 
   135.04     15.94     32.88     25.09      0.03      0.01      1.65 
   135.05     15.94     32.89     25.09      0.03      0.01      1.65 
   135.06     15.94     32.89     25.09      0.02      0.02      0.82 
   135.07     15.94     32.89     25.09      0.02      0.02      0.82 
   135.08     15.94     32.89     25.09      0.02      0.03      1.24 
   135.09     15.94     32.89     25.09      0.01      0.04      1.24 
   135.10     15.93     32.90     25.09      0.01      0.05      1.24 
   135.11     15.93     32.90     25.09      0.00      0.05      1.24 
   135.12     15.93     32.90     25.09      0.00      0.06      1.24 
   135.13     15.93     32.90     25.09      0.00      0.06      1.24 
   135.14     15.93     32.90     25.09      0.00      0.06      1.24 
   135.15     15.93     32.90     25.09      0.00      0.05      1.24 
   135.16     15.93     32.90     25.09      0.00      0.05      1.24 
   135.17     15.93     32.91     25.10      0.00      0.06      1.24 
   135.18     15.93     32.91     25.10      0.00      0.06      0.41 
   135.19     15.93     32.92     25.10      0.00      0.06      0.41 
   135.20     15.93     32.92     25.10      0.00      0.06      0.41 
   135.21     15.92     32.92     25.10     -0.00      0.06      0.41 
   135.22     15.92     32.92     25.10     -0.00      0.06      0.41 
   135.23     15.92     32.93     25.10     -0.01      0.07      0.41 
   135.24     15.92     32.93     25.10     -0.01      0.07      0.41 
   135.25     15.92     32.93     25.10     -0.01      0.07      0.41 
   135.26     15.92     32.93     25.10     -0.01      0.07      0.41 
   135.27     15.93     32.92     25.10     -0.00      0.07      0.41 
   135.28     15.93     32.91     25.10      0.00      0.06      0.41 
   135.29     15.93     32.91     25.10      0.00      0.05      0.41 
   135.30     15.94     32.90     25.10      0.01      0.04      0.41 
   135.31     15.94     32.90     25.10      0.01      0.03      0.41 
   135.32     15.94     32.90     25.10      0.02      0.02      0.41 
   135.33     15.94     32.90     25.10      0.02      0.02      0.41 
   135.34     15.94     32.89     25.10      0.02      0.02      0.82 
   135.35     15.94     32.89     25.10      0.02      0.02      0.82 
   135.36     15.94     32.89     25.10      0.02      0.02      0.82 
   135.37     15.94     32.89     25.10      0.02      0.02      0.82 
   135.38     15.94     32.90     25.10      0.02      0.02      0.82 
   135.39     15.94     32.90     25.10      0.01      0.03      1.24 
   135.40     15.93     32.91     25.11      0.01      0.04      1.24 
   135.41     15.93     32.92     25.11      0.01      0.05      1.24 
   135.42     15.93     32.92     25.10      0.00      0.05      0.82 
   135.43     15.93     32.93     25.11     -0.00      0.06      1.24 
   135.44     15.93     32.93     25.11     -0.00      0.06      1.24 
   135.45     15.92     32.93     25.11     -0.00      0.06      1.24 
   135.46     15.92     32.94     25.11     -0.00      0.07      1.24 
   135.47     15.92     32.93     25.11     -0.01      0.07      1.24 
   135.48     15.92     32.93     25.11     -0.01      0.06      1.71 
   135.49     15.92     32.94     25.11     -0.01      0.07      2.12 
   135.50     15.92     32.93     25.11     -0.00      0.06      2.12 
   135.51     15.93     32.93     25.11     -0.00      0.06      2.12 
   135.52     15.93     32.93     25.11     -0.00      0.06      2.12 
   135.53     15.93     32.92     25.11     -0.00      0.05      2.12 
   135.54     15.93     32.92     25.11     -0.00      0.05      2.12 
   135.55     15.93     32.92     25.11     -0.00      0.05      2.12 
   135.56     15.93     32.92     25.11     -0.00      0.05      1.71 
   135.57     15.93     32.92     25.11     -0.00      0.05      1.71 
   135.58     15.93     32.92     25.11     -0.00      0.05      1.71 
   135.59     15.93     32.92     25.11     -0.00      0.06      2.12 
   135.60     15.93     32.92     25.11     -0.00      0.06      1.71 
   135.61     15.93     32.92     25.11     -0.01      0.06      1.71 
   135.62     15.93     32.93     25.11     -0.01      0.07      2.18 
   135.63     15.93     32.93     25.11     -0.01      0.06      2.18 
   135.64     15.93     32.94     25.12     -0.01      0.08      2.18 
   135.65     15.92     32.94     25.12     -0.01      0.08      2.12 
   135.66     15.92     32.94     25.12     -0.01      0.08      1.71 
   135.67     15.92     32.94     25.12     -0.01      0.08      1.71 
   135.68     15.92     32.94     25.12     -0.01      0.08      1.29 
   135.69     15.92     32.94     25.12     -0.01      0.07      1.29 
   135.70     15.92     32.94     25.12     -0.01      0.07      1.29 
   135.71     15.93     32.94     25.12     -0.00      0.06      1.29 
   135.72     15.93     32.94     25.12     -0.00      0.06      1.29 
   135.73     15.93     32.94     25.12     -0.00      0.06      1.29 
   135.74     15.93     32.94     25.12      0.00      0.05      1.29 
   135.75     15.93     32.94     25.12      0.00      0.05      1.71 
   135.76     15.93     32.94     25.12      0.00      0.04      1.29 
   135.77     15.93     32.94     25.12      0.01      0.04      1.29 
   135.78     15.93     32.94     25.12      0.01      0.03      1.29 
   135.79     15.93     32.94     25.12      0.01      0.04      0.82 
   135.80     15.93     32.94     25.12      0.00      0.04      0.82 
   135.81     15.93     32.95     25.12      0.00      0.05      1.24 
   135.82     15.93     32.95     25.12     -0.00      0.05      0.82 
   135.83     15.93     32.95     25.12     -0.00      0.06      0.82 
   135.84     15.93     32.94     25.12     -0.00      0.06      0.82 
   135.85     15.93     32.94     25.12     -0.00      0.06      0.82 
   135.86     15.93     32.93     25.12      0.00      0.05      0.82 
   135.87     15.94     32.93     25.12      0.00      0.05      0.82 
   135.88     15.94     32.92     25.12      0.00      0.04      0.82 
   135.89     15.94     32.92     25.12      0.00      0.04      1.24 
   135.90     15.94     32.92     25.12      0.01      0.04      1.24 
   135.91     15.94     32.92     25.12      0.01      0.04      1.24 
   135.92     15.94     32.92     25.12      0.01      0.03      0.82 
   135.93     15.94     32.92     25.13      0.01      0.03      1.24 
   135.94     15.94     32.92     25.13      0.01      0.04      1.24 
   135.95     15.94     32.92     25.12      0.01      0.03      1.24 
   135.96     15.94     32.92     25.12      0.01      0.03      1.24 
   135.97     15.94     32.92     25.12      0.01      0.04      1.24 
   135.98     15.94     32.93     25.13      0.00      0.04      0.82 
   135.99     15.94     32.93     25.13      0.00      0.04      1.24 
   136.00     15.94     32.93     25.13      0.00      0.04      1.24 
   136.01     15.94     32.92     25.13      0.00      0.04      1.65 
   136.02     15.94     32.93     25.13      0.00      0.04      1.65 
   136.03     15.94     32.93     25.13     -0.00      0.05      1.65 
   136.04     15.93     32.94     25.13     -0.00      0.05      1.65 
   136.05     15.93     32.94     25.13     -0.00      0.05      1.65 
   136.06     15.93     32.95     25.13     -0.00      0.06      2.06 
   136.07     15.93     32.95     25.13     -0.00      0.06      2.06 
   136.08     15.93     32.95     25.13     -0.00      0.06      2.06 
   136.09     15.93     32.95     25.13     -0.00      0.06      2.06 
   136.10     15.93     32.96     25.13     -0.01      0.06      1.65 
   136.11     15.92     32.96     25.13     -0.01      0.07      1.65 
   136.12     15.92     32.97     25.13     -0.01      0.07      1.65 
   136.13     15.92     32.97     25.13     -0.01      0.07      1.65 
   136.14     15.92     32.97     25.13     -0.01      0.07      1.65 
