#Written by Robertson Geologging WinLogger V1.0/370
~VERSION INFORMATION
#------------------------------------------------------------------------------
 VERS. 2.0 : CWLS LOG ASCII STANDARD - VERSION 2.0
 WRAP. NO  : ONE LINE PER DEPTH STEP
~WELL INFORMATION
#MNEM.UNIT         DATA                                DESCRIPTION OF MNEMONIC
#------------------------------------------------------------------------------
 STRT.M         74.0000                            :   START DEPTH
 STOP.M        380.0000                            :   STOP DEPTH
 STEP.M          0.0100                            :   STEP VALUE
 NULL.        -999.2500                            :   NULL VALUE
 COMP.    White Young Gteen                        :   COMPANY NAME
 WELL.    Horden Shaft                             :   WELL NAME
 FLD.     Horden                                   :   FIELD NAME
 LOC.     N/A                                      :   LOCATION
 PROV.    N/A                                      :   PROVINCE
 SRVC.    N/A                                      :   SERVICE COMPANY NAME
 DATE.    03 Oct 05                                :   DATE
 UWI.     N/A                                      :   UNIQUE WELL IDENTIFIER
~PARAMETER INFORMATION
#MNEMO.UNIT         VALUE                 DESCRIPTION OF MNEMONIC
#------------------------------------------------------------------------------
~OTHER INFORMATION SECTION
#------------------------------------------------------------------------------
 TCGS1365
~CURVE INFORMATION
#MNEMO.UNIT         API CODE              CURVE DESCRIPTION
#------------------------------------------------------------------------------
 DEPTH.M                                 :   0     Depth
 TEMP.DegC                               :   1     Temperature
 CN25.mS/cm                              :   2     Conductivity@25DegC
 COND.mS/cm                              :   3     Conductivity
 DELT.DegC                               :   4     Delta T
 DELC.mS/cm                              :   5     Delta C
 NGAM.CPS                                :   6     Natural Gamma
#------------------------------------------------------------------------------
~A  DEPTH     TEMP      CN25      COND      DELT      DELC      NGAM      
# ...
   338.42     18.50     78.00     68.45     -0.01      0.02      4.18 
   338.43     18.51     77.99     68.45     -0.00      0.01      3.88 
   338.44     18.51     77.98     68.45      0.00     -0.00      4.24 
   338.45     18.51     77.98     68.45      0.00     -0.02      6.29 
   338.46     18.51     77.98     68.45      0.00     -0.02      6.71 
   338.47     18.51     77.98     68.45      0.00     -0.02      7.06 
   338.48     18.51     77.98     68.45      0.00     -0.02      7.06 
   338.49     18.51     77.98     68.45      0.00     -0.02      7.47 
   338.50     18.51     77.98     68.45      0.01     -0.02      7.12 
   338.51     18.51     77.99     68.45      0.01     -0.02      6.71 
   338.52     18.50     78.00     68.45      0.01     -0.02      6.00 
   338.53     18.50     78.01     68.45      0.00     -0.01      6.00 
   338.54     18.50     78.01     68.45     -0.00      0.01      6.35 
   338.55     18.50     78.02     68.45     -0.01      0.03      6.35 
   338.56     18.50     78.02     68.45     -0.01      0.02      6.00 
   338.57     18.50     78.01     68.45     -0.01      0.02      6.00 
   338.58     18.50     78.01     68.45     -0.00      0.01      6.71 
   338.59     18.50     78.01     68.45     -0.00      0.01      6.29 
   338.60     18.50     78.01     68.46     -0.00      0.02      6.29 
   338.61     18.50     78.01     68.46     -0.00      0.01      7.00 
   338.62     18.50     78.00     68.45     -0.00      0.00      5.76 
   338.63     18.51     77.99     68.45      0.00     -0.01      4.94 
   338.64     18.51     77.99     68.45      0.01     -0.03      5.00 
   338.65     18.51     77.98     68.45      0.02     -0.05      4.59 
   338.66     18.51     77.97     68.45      0.02     -0.06      4.53 
   338.67     18.51     77.98     68.45      0.02     -0.05      4.94 
   338.68     18.51     77.97     68.45      0.02     -0.05      5.29 
   338.69     18.51     77.97     68.45      0.02     -0.05      5.71 
   338.70     18.52     77.97     68.45      0.02     -0.05      5.65 
   338.71     18.52     77.96     68.45      0.01     -0.05      5.29 
   338.72     18.52     77.95     68.45      0.01     -0.04      6.76 
   338.73     18.52     77.95     68.45      0.01     -0.03      8.00 
   338.74     18.52     77.95     68.45      0.01     -0.02      8.35 
   338.75     18.52     77.95     68.45      0.01     -0.02      8.06 
   338.76     18.52     77.96     68.45      0.01     -0.02      8.47 
   338.77     18.52     77.96     68.45      0.00     -0.02      8.41 
   338.78     18.52     77.96     68.45      0.01     -0.03      7.35 
   338.79     18.51     77.96     68.45      0.01     -0.03      6.88 
   338.80     18.51     77.97     68.45      0.01     -0.03      7.29 
   338.81     18.51     77.97     68.45      0.01     -0.04      7.24 
   338.82     18.51     77.97     68.45      0.02     -0.06      8.06 
   338.83     18.51     77.97     68.45      0.02     -0.06      7.71 
   338.84     18.51     77.97     68.45      0.02     -0.07      7.71 
   338.85     18.51     77.97     68.45      0.02     -0.08      7.71 
   338.86     18.51     77.98     68.45      0.02     -0.07      7.29 
   338.87     18.51     77.98     68.45      0.02     -0.07      7.29 
   338.88     18.51     77.98     68.45      0.02     -0.06      7.71 
   338.89     18.51     77.98     68.45      0.02     -0.06      6.94 
   338.90     18.51     77.97     68.45      0.02     -0.05      5.71 
   338.91     18.51     77.97     68.46      0.02     -0.05      7.18 
   338.92     18.51     77.97     68.46      0.01     -0.04      6.76 
   338.93     18.51     77.97     68.46      0.01     -0.03      6.35 
   338.94     18.52     77.97     68.45      0.01     -0.03      6.00 
   338.95     18.51     77.97     68.45      0.01     -0.03      6.00 
   338.96     18.51     77.97     68.45      0.01     -0.03      5.65 
   338.97     18.52     77.96     68.45      0.01     -0.03      5.65 
   338.98     18.52     77.97     68.46      0.01     -0.02      6.00 
   338.99     18.52     77.97     68.46      0.01     -0.02      5.59 
   339.00     18.52     77.97     68.46      0.00     -0.01      5.94 
   339.01     18.52     77.97     68.46      0.00     -0.02      5.53 
   339.02     18.52     77.96     68.45      0.00     -0.02      5.53 
   339.03     18.52     77.96     68.45      0.01     -0.02      5.53 
   339.04     18.52     77.96     68.45      0.01     -0.03      5.53 
   339.05     18.52     77.96     68.45      0.01     -0.04      5.53 
   339.06     18.52     77.96     68.45      0.01     -0.05      4.82 
   339.07     18.52     77.96     68.45      0.02     -0.05      5.53 
   339.08     18.52     77.96     68.45      0.02     -0.05      4.12 
   339.09     18.52     77.96     68.45      0.02     -0.06      4.12 
   339.10     18.52     77.96     68.45      0.02     -0.07      4.53 
   339.11     18.52     77.95     68.45      0.02     -0.08      4.53 
   339.12     18.52     77.95     68.45      0.03     -0.09      4.53 
   339.13     18.52     77.95     68.45      0.03     -0.10      4.94 
   339.14     18.52     77.95     68.45      0.03     -0.10      4.88 
   339.15     18.52     77.95     68.45      0.03     -0.09      4.18 
   339.16     18.52     77.96     68.45      0.03     -0.08      3.76 
   339.17     18.52     77.96     68.45      0.02     -0.08      3.41 
   339.18     18.52     77.96     68.45      0.02     -0.07      4.24 
   339.19     18.51     77.96     68.45      0.02     -0.07      3.88 
   339.20     18.51     77.97     68.45      0.02     -0.06      4.29 
   339.21     18.51     77.97     68.45      0.02     -0.05      3.94 
   339.22     18.51     77.97     68.45      0.01     -0.04      3.94 
   339.23     18.51     77.98     68.45      0.01     -0.03      4.76 
   339.24     18.51     77.99     68.45      0.01     -0.03      4.76 
   339.25     18.51     77.99     68.45      0.01     -0.02      4.76 
   339.26     18.51     77.99     68.45      0.01     -0.02      4.76 
   339.27     18.51     77.98     68.45      0.01     -0.02      5.18 
   339.28     18.51     77.97     68.45      0.01     -0.02      5.88 
   339.29     18.51     77.97     68.45      0.01     -0.03      5.88 
   339.30     18.52     77.96     68.45      0.01     -0.04      6.18 
   339.31     18.52     77.96     68.45      0.02     -0.05      6.24 
   339.32     18.52     77.96     68.45      0.02     -0.05      6.65 
   339.33     18.51     77.96     68.45      0.02     -0.05      8.12 
   339.34     18.51     77.97     68.45      0.01     -0.04      8.94 
   339.35     18.51     77.97     68.45      0.01     -0.04      8.82 
   339.36     18.51     77.97     68.45      0.01     -0.04      9.65 
   339.37     18.51     77.97     68.45      0.01     -0.04      9.24 
   339.38     18.51     77.97     68.45      0.01     -0.05      9.24 
   339.39     18.51     77.98     68.45      0.01     -0.04      9.24 
   339.40     18.51     77.99     68.45      0.01     -0.03      8.76 
   339.41     18.50     78.00     68.45      0.00     -0.00      9.71 
   339.42     18.50     78.00     68.45     -0.00      0.01      9.29 
   339.43     18.50     78.00     68.45     -0.01      0.02      9.65 
   339.44     18.50     78.00     68.45     -0.00      0.02      9.24 
   339.45     18.51     77.99     68.45     -0.00      0.00     10.00 
   339.46     18.51     77.98     68.45      0.00      0.00     10.00 
   339.47     18.51     77.99     68.45     -0.00      0.01      9.29 
   339.48     18.50     77.99     68.45     -0.00      0.01      8.88 
   339.49     18.50     78.00     68.46     -0.00      0.02      8.47 
   339.50     18.50     78.00     68.45     -0.00      0.01      7.35 
   339.51     18.50     78.00     68.46      0.00      0.00      6.94 
   339.52     18.51     77.99     68.45      0.00     -0.01      7.29 
   339.53     18.51     78.00     68.45      0.01     -0.02      6.82 
   339.54     18.50     78.00     68.45      0.01     -0.02      6.82 
