#Written by Robertson Geologging WinLogger V1.0/370
~VERSION INFORMATION
#------------------------------------------------------------------------------
 VERS. 2.0 : CWLS LOG ASCII STANDARD - VERSION 2.0
 WRAP. NO  : ONE LINE PER DEPTH STEP
~WELL INFORMATION
#MNEM.UNIT         DATA                                DESCRIPTION OF MNEMONIC
#------------------------------------------------------------------------------
 STRT.M         74.0000                            :   START DEPTH
 STOP.M        380.0000                            :   STOP DEPTH
 STEP.M          0.0100                            :   STEP VALUE
 NULL.        -999.2500                            :   NULL VALUE
 COMP.    White Young Gteen                        :   COMPANY NAME
 WELL.    Horden Shaft                             :   WELL NAME
 FLD.     Horden                                   :   FIELD NAME
 LOC.     N/A                                      :   LOCATION
 PROV.    N/A                                      :   PROVINCE
 SRVC.    N/A                                      :   SERVICE COMPANY NAME
 DATE.    03 Oct 05                                :   DATE
 UWI.     N/A                                      :   UNIQUE WELL IDENTIFIER
~PARAMETER INFORMATION
#MNEMO.UNIT         VALUE                 DESCRIPTION OF MNEMONIC
#------------------------------------------------------------------------------
~OTHER INFORMATION SECTION
#------------------------------------------------------------------------------
 TCGS1365
~CURVE INFORMATION
#MNEMO.UNIT         API CODE              CURVE DESCRIPTION
#------------------------------------------------------------------------------
 DEPTH.M                                 :   0     Depth
 TEMP.DegC                               :   1     Temperature
 CN25.mS/cm                              :   2     Conductivity@25DegC
 COND.mS/cm                              :   3     Conductivity
 DELT.DegC                               :   4     Delta T
 DELC.mS/cm                              :   5     Delta C
 NGAM.CPS                                :   6     Natural Gamma
#------------------------------------------------------------------------------
~A  DEPTH     TEMP      CN25      COND      DELT      DELC      NGAM      
# ...
   236.72     16.40     34.55     27.18     -0.00     -0.03      3.88 
   236.73     16.41     34.55     27.18     -0.00     -0.03      3.88 
   236.74     16.40     34.55     27.18     -0.01     -0.02      3.88 
   236.75     16.40     34.55     27.18     -0.00     -0.02      4.29 
   236.76     16.41     34.55     27.18     -0.00     -0.02      3.88 
   236.77     16.41     34.55     27.18     -0.01     -0.02      4.29 
   236.78     16.41     34.55     27.18     -0.01     -0.01      5.00 
   236.79     16.41     34.55     27.18     -0.01     -0.01      4.59 
   236.80     16.41     34.55     27.18     -0.01     -0.01      5.00 
   236.81     16.41     34.55     27.18     -0.01     -0.01      6.24 
   236.82     16.41     34.55     27.18     -0.01     -0.01      5.59 
   236.83     16.41     34.55     27.18     -0.01     -0.02      5.53 
   236.84     16.40     34.55     27.18     -0.01     -0.01      5.53 
   236.85     16.40     34.55     27.18     -0.01     -0.02      5.12 
   236.86     16.41     34.55     27.18     -0.01     -0.02      5.18 
   236.87     16.40     34.55     27.18     -0.01     -0.02      5.18 
   236.88     16.40     34.55     27.18     -0.01     -0.02      6.00 
   236.89     16.40     34.55     27.18     -0.00     -0.03      5.59 
   236.90     16.40     34.55     27.18     -0.00     -0.03      6.00 
   236.91     16.40     34.55     27.18     -0.00     -0.03      6.00 
   236.92     16.40     34.55     27.18     -0.00     -0.03      5.59 
   236.93     16.40     34.55     27.18     -0.01     -0.03      5.59 
   236.94     16.40     34.55     27.18     -0.01     -0.03      6.00 
   236.95     16.40     34.55     27.18     -0.00     -0.03      5.29 
   236.96     16.41     34.55     27.18     -0.00     -0.03      5.29 
   236.97     16.41     34.55     27.18     -0.00     -0.03      4.88 
   236.98     16.41     34.54     27.18     -0.00     -0.03      3.24 
   236.99     16.41     34.54     27.18     -0.00     -0.03      3.65 
   237.00     16.41     34.55     27.18     -0.00     -0.03      3.29 
   237.01     16.41     34.55     27.18     -0.00     -0.03      3.29 
   237.02     16.41     34.54     27.18     -0.00     -0.04      3.29 
   237.03     16.41     34.54     27.18      0.00     -0.04      3.29 
   237.04     16.41     34.54     27.18      0.00     -0.04      3.71 
   237.05     16.41     34.54     27.18      0.00     -0.04      3.29 
   237.06     16.41     34.55     27.18     -0.00     -0.03      3.65 
   237.07     16.41     34.55     27.18     -0.00     -0.03      3.24 
   237.08     16.41     34.55     27.18     -0.00     -0.03      3.24 
   237.09     16.41     34.55     27.19     -0.00     -0.03      3.24 
   237.10     16.41     34.55     27.19     -0.00     -0.03      4.47 
   237.11     16.41     34.55     27.19     -0.00     -0.03      4.00 
   237.12     16.41     34.55     27.18     -0.00     -0.03      4.82 
   237.13     16.41     34.55     27.19     -0.00     -0.03      4.82 
   237.14     16.41     34.55     27.19     -0.00     -0.03      5.88 
   237.15     16.41     34.55     27.19     -0.00     -0.03      6.29 
   237.16     16.41     34.55     27.19     -0.00     -0.02      5.88 
   237.17     16.41     34.55     27.19     -0.00     -0.03      6.29 
   237.18     16.41     34.55     27.19     -0.00     -0.02      6.65 
   237.19     16.41     34.55     27.19     -0.00     -0.02      7.06 
   237.20     16.41     34.55     27.19     -0.01     -0.02      6.65 
   237.21     16.41     34.55     27.19     -0.01     -0.02      6.65 
   237.22     16.41     34.55     27.19     -0.01     -0.02      6.59 
   237.23     16.41     34.56     27.19     -0.01     -0.01      6.24 
   237.24     16.41     34.56     27.19     -0.01     -0.01      6.24 
   237.25     16.40     34.56     27.19     -0.01     -0.01      6.65 
   237.26     16.40     34.56     27.19     -0.01     -0.02      6.65 
   237.27     16.41     34.55     27.19     -0.01     -0.02      6.24 
   237.28     16.40     34.56     27.19     -0.01     -0.01      5.88 
   237.29     16.40     34.56     27.19     -0.01     -0.01      5.47 
   237.30     16.40     34.56     27.19     -0.01     -0.02      5.47 
   237.31     16.40     34.56     27.19     -0.01     -0.02      4.82 
   237.32     16.40     34.56     27.19     -0.00     -0.02      5.65 
   237.33     16.40     34.56     27.19     -0.00     -0.02      5.65 
   237.34     16.40     34.56     27.19     -0.00     -0.02      5.65 
   237.35     16.40     34.56     27.19     -0.00     -0.02      5.65 
   237.36     16.40     34.56     27.19     -0.00     -0.02      5.65 
   237.37     16.40     34.56     27.19     -0.00     -0.02      5.65 
   237.38     16.40     34.56     27.19     -0.00     -0.01      5.65 
   237.39     16.40     34.56     27.19     -0.00     -0.01      6.12 
   237.40     16.40     34.56     27.19     -0.00     -0.01      6.53 
   237.41     16.40     34.56     27.19     -0.01     -0.00      6.53 
   237.42     16.40     34.57     27.19     -0.01      0.00      7.18 
   237.43     16.40     34.56     27.19     -0.01      0.00      7.18 
   237.44     16.40     34.56     27.19     -0.01      0.00      6.76 
   237.45     16.40     34.56     27.19     -0.01      0.02      7.18 
   237.46     16.40     34.57     27.19     -0.01      0.02      7.47 
   237.47     16.40     34.57     27.19     -0.01      0.03      7.88 
   237.48     16.40     34.57     27.19     -0.02      0.03      7.47 
   237.49     16.40     34.57     27.19     -0.01      0.02      6.24 
   237.50     16.40     34.56     27.19     -0.01      0.03      6.18 
   237.51     16.40     34.56     27.19     -0.01      0.02      6.18 
   237.52     16.40     34.56     27.19     -0.01      0.02      7.47 
   237.53     16.40     34.56     27.19     -0.01      0.02      7.76 
   237.54     16.40     34.56     27.19     -0.01      0.03      7.76 
   237.55     16.40     34.56     27.19     -0.02      0.04      7.76 
   237.56     16.40     34.56     27.19     -0.02      0.03      6.94 
   237.57     16.40     34.56     27.19     -0.02      0.04      6.88 
   237.58     16.40     34.56     27.19     -0.01      0.03      6.88 
   237.59     16.40     34.56     27.19     -0.01      0.03      6.24 
   237.60     16.40     34.57     27.19     -0.02      0.04      6.65 
   237.61     16.40     34.57     27.19     -0.01      0.03      7.29 
   237.62     16.40     34.57     27.19     -0.01      0.04      7.29 
   237.63     16.40     34.57     27.19     -0.01      0.03      7.82 
   237.64     16.40     34.57     27.19     -0.01      0.03      8.24 
   237.65     16.40     34.57     27.19     -0.01      0.03      8.59 
   237.66     16.40     34.57     27.19     -0.01      0.02      9.00 
   237.67     16.40     34.57     27.19     -0.01      0.02      9.06 
   237.68     16.40     34.57     27.19     -0.01      0.02      9.00 
   237.69     16.40     34.57     27.19     -0.00      0.02      7.35 
   237.70     16.40     34.57     27.19     -0.00      0.02      7.47 
   237.71     16.40     34.57     27.19     -0.00      0.02      7.47 
   237.72     16.40     34.56     27.19     -0.00      0.02      7.76 
   237.73     16.40     34.56     27.19     -0.00      0.01      7.76 
   237.74     16.40     34.57     27.19     -0.00      0.01      7.82 
   237.75     16.40     34.57     27.19     -0.00      0.02      8.65 
   237.76     16.40     34.57     27.19     -0.01      0.02      8.59 
   237.77     16.40     34.57     27.19     -0.00      0.02      8.18 
   237.78     16.40     34.56     27.19     -0.00      0.01      7.12 
   237.79     16.41     34.56     27.19     -0.00      0.01      7.12 
   237.80     16.41     34.56     27.19     -0.00      0.01      5.88 
   237.81     16.40     34.56     27.19     -0.00      0.01      5.06 
   237.82     16.40     34.56     27.19     -0.00      0.01      4.71 
   237.83     16.40     34.57     27.19     -0.00      0.02      5.12 
   237.84     16.40     34.57     27.19     -0.00      0.02      5.41 
