#Written by Robertson Geologging WinLogger V1.0/370
~VERSION INFORMATION
#------------------------------------------------------------------------------
 VERS. 2.0 : CWLS LOG ASCII STANDARD - VERSION 2.0
 WRAP. NO  : ONE LINE PER DEPTH STEP
~WELL INFORMATION
#MNEM.UNIT         DATA                                DESCRIPTION OF MNEMONIC
#------------------------------------------------------------------------------
 STRT.M         74.0000                            :   START DEPTH
 STOP.M        380.0000                            :   STOP DEPTH
 STEP.M          0.0100                            :   STEP VALUE
 NULL.        -999.2500                            :   NULL VALUE
 COMP.    White Young Gteen                        :   COMPANY NAME
 WELL.    Horden Shaft                             :   WELL NAME
 FLD.     Horden                                   :   FIELD NAME
 LOC.     N/A                                      :   LOCATION
 PROV.    N/A                                      :   PROVINCE
 SRVC.    N/A                                      :   SERVICE COMPANY NAME
 DATE.    03 Oct 05                                :   DATE
 UWI.     N/A                                      :   UNIQUE WELL IDENTIFIER
~PARAMETER INFORMATION
#MNEMO.UNIT         VALUE                 DESCRIPTION OF MNEMONIC
#------------------------------------------------------------------------------
~OTHER INFORMATION SECTION
#------------------------------------------------------------------------------
 TCGS1365
~CURVE INFORMATION
#MNEMO.UNIT         API CODE              CURVE DESCRIPTION
#------------------------------------------------------------------------------
 DEPTH.M                                 :   0     Depth
 TEMP.DegC                               :   1     Temperature
 CN25.mS/cm                              :   2     Conductivity@25DegC
 COND.mS/cm                              :   3     Conductivity
 DELT.DegC                               :   4     Delta T
 DELC.mS/cm                              :   5     Delta C
 NGAM.CPS                                :   6     Natural Gamma
#------------------------------------------------------------------------------
~A  DEPTH     TEMP      CN25      COND      DELT      DELC      NGAM      
# ...
   297.74     17.61     65.14     55.19     -0.01     -0.00      4.47 
   297.75     17.61     65.14     55.19     -0.01      0.00      6.12 
   297.76     17.61     65.14     55.19     -0.01      0.00      5.41 
   297.77     17.60     65.14     55.19     -0.01      0.00      6.24 
   297.78     17.60     65.14     55.19     -0.01     -0.00      5.53 
   297.79     17.60     65.14     55.19     -0.01      0.00      5.88 
   297.80     17.61     65.14     55.19     -0.01     -0.00      5.94 
   297.81     17.61     65.14     55.19     -0.01      0.00      5.94 
   297.82     17.60     65.14     55.19     -0.01      0.01      5.53 
   297.83     17.60     65.14     55.19     -0.01      0.01      5.88 
   297.84     17.60     65.14     55.19     -0.01      0.01      6.29 
   297.85     17.60     65.14     55.19     -0.01      0.01      6.29 
   297.86     17.60     65.14     55.19     -0.01      0.01      5.88 
   297.87     17.60     65.15     55.19     -0.02      0.02      5.53 
   297.88     17.60     65.15     55.19     -0.02      0.03      5.53 
   297.89     17.60     65.16     55.19     -0.02      0.04      5.88 
   297.90     17.60     65.16     55.19     -0.02      0.04      5.47 
   297.91     17.60     65.16     55.19     -0.03      0.04      5.82 
   297.92     17.60     65.17     55.19     -0.03      0.05      3.76 
   297.93     17.60     65.16     55.19     -0.02      0.04      4.18 
   297.94     17.60     65.16     55.19     -0.03      0.05      3.35 
   297.95     17.60     65.16     55.19     -0.03      0.05      3.35 
   297.96     17.60     65.16     55.19     -0.03      0.05      3.00 
   297.97     17.60     65.16     55.19     -0.03      0.06      3.41 
   297.98     17.60     65.16     55.19     -0.03      0.05      3.41 
   297.99     17.60     65.16     55.19     -0.03      0.05      3.82 
   298.00     17.60     65.15     55.19     -0.03      0.05      3.12 
   298.01     17.60     65.15     55.18     -0.03      0.05      2.71 
   298.02     17.60     65.14     55.18     -0.02      0.04      2.71 
   298.03     17.60     65.14     55.18     -0.02      0.04      2.71 
   298.04     17.60     65.13     55.18     -0.02      0.04      3.12 
   298.05     17.61     65.13     55.18     -0.02      0.03      3.47 
   298.06     17.61     65.13     55.19     -0.02      0.03      3.53 
   298.07     17.61     65.13     55.18     -0.02      0.02      3.88 
   298.08     17.61     65.13     55.18     -0.01      0.02      3.94 
   298.09     17.61     65.12     55.18     -0.01      0.01      3.94 
   298.10     17.61     65.12     55.18     -0.01      0.01      3.53 
   298.11     17.61     65.12     55.18     -0.01      0.01      3.94 
   298.12     17.61     65.12     55.18     -0.01      0.01      4.29 
   298.13     17.61     65.11     55.18     -0.01      0.01      4.29 
   298.14     17.61     65.12     55.18     -0.02      0.02      3.88 
   298.15     17.61     65.12     55.18     -0.02      0.03      4.94 
   298.16     17.61     65.13     55.18     -0.02      0.04      4.53 
   298.17     17.60     65.13     55.18     -0.03      0.04      4.59 
   298.18     17.60     65.13     55.18     -0.03      0.06      4.59 
   298.19     17.60     65.13     55.18     -0.03      0.06      4.59 
   298.20     17.60     65.13     55.18     -0.03      0.06      5.29 
   298.21     17.60     65.13     55.18     -0.03      0.06      5.29 
   298.22     17.60     65.14     55.18     -0.03      0.06      5.35 
   298.23     17.60     65.13     55.18     -0.03      0.05      5.29 
   298.24     17.60     65.14     55.18     -0.03      0.04      5.35 
   298.25     17.60     65.14     55.18     -0.02      0.04      5.29 
   298.26     17.60     65.13     55.18     -0.02      0.03      5.29 
   298.27     17.60     65.13     55.18     -0.02      0.03      5.29 
   298.28     17.60     65.13     55.18     -0.02      0.03      4.88 
   298.29     17.61     65.12     55.18     -0.02      0.02      4.88 
   298.30     17.61     65.12     55.18     -0.02      0.02      5.29 
   298.31     17.61     65.12     55.18     -0.02      0.01      5.71 
   298.32     17.61     65.12     55.18     -0.02      0.01      4.65 
   298.33     17.61     65.11     55.17     -0.02      0.02      5.06 
   298.34     17.61     65.12     55.18     -0.02      0.03      4.65 
   298.35     17.61     65.12     55.17     -0.02      0.03      5.00 
   298.36     17.61     65.12     55.17     -0.02      0.02      5.82 
   298.37     17.61     65.12     55.18     -0.02      0.02      5.47 
   298.38     17.61     65.12     55.17     -0.02      0.01      6.29 
   298.39     17.61     65.12     55.18     -0.02      0.01      5.88 
   298.40     17.60     65.12     55.17     -0.02      0.01      5.94 
   298.41     17.60     65.13     55.17     -0.02      0.01      5.88 
   298.42     17.60     65.13     55.17     -0.02      0.01      5.94 
   298.43     17.60     65.13     55.17     -0.02      0.01      6.29 
   298.44     17.60     65.13     55.17     -0.02      0.01      6.29 
   298.45     17.60     65.13     55.17     -0.02      0.01      7.00 
   298.46     17.60     65.14     55.17     -0.02      0.02      7.06 
   298.47     17.60     65.13     55.17     -0.02      0.01      7.35 
   298.48     17.60     65.14     55.17     -0.03      0.02      7.35 
   298.49     17.59     65.14     55.17     -0.03      0.03      7.76 
   298.50     17.59     65.15     55.17     -0.03      0.03      7.71 
   298.51     17.59     65.15     55.17     -0.03      0.03      7.71 
   298.52     17.59     65.15     55.16     -0.03      0.03      8.59 
   298.53     17.59     65.16     55.17     -0.03      0.03      8.12 
   298.54     17.59     65.16     55.16     -0.03      0.02      7.76 
   298.55     17.59     65.16     55.16     -0.02      0.01      6.53 
   298.56     17.59     65.16     55.16     -0.02      0.01      6.53 
   298.57     17.59     65.16     55.16     -0.02      0.01      6.94 
   298.58     17.59     65.16     55.17     -0.02      0.01      6.59 
   298.59     17.59     65.16     55.17     -0.02      0.01      6.18 
   298.60     17.59     65.15     55.17     -0.02      0.01      6.65 
   298.61     17.59     65.15     55.16     -0.02      0.01      6.65 
   298.62     17.59     65.15     55.17     -0.02      0.01      6.29 
   298.63     17.59     65.15     55.17     -0.02      0.02      6.29 
   298.64     17.59     65.15     55.16     -0.03      0.02      5.59 
   298.65     17.59     65.16     55.17     -0.03      0.04      5.18 
   298.66     17.59     65.16     55.17     -0.03      0.04      5.12 
   298.67     17.58     65.17     55.17     -0.03      0.05      4.76 
   298.68     17.58     65.18     55.17     -0.03      0.06      5.18 
   298.69     17.58     65.19     55.17     -0.04      0.06      3.94 
   298.70     17.58     65.19     55.17     -0.04      0.07      4.00 
   298.71     17.58     65.19     55.17     -0.03      0.06      4.00 
   298.72     17.58     65.19     55.17     -0.03      0.06      4.00 
   298.73     17.58     65.19     55.17     -0.03      0.05      4.41 
   298.74     17.58     65.18     55.17     -0.03      0.04      3.59 
   298.75     17.58     65.18     55.17     -0.03      0.04      4.41 
   298.76     17.58     65.18     55.17     -0.02      0.03      5.47 
   298.77     17.58     65.18     55.17     -0.02      0.04      5.06 
   298.78     17.58     65.17     55.16     -0.02      0.03      5.06 
   298.79     17.58     65.17     55.16     -0.02      0.04      5.76 
   298.80     17.58     65.18     55.17     -0.02      0.04      5.35 
   298.81     17.58     65.17     55.16     -0.02      0.03      5.71 
   298.82     17.58     65.18     55.16     -0.03      0.04      5.29 
   298.83     17.58     65.19     55.16     -0.03      0.04      4.94 
   298.84     17.57     65.18     55.16     -0.03      0.04      4.94 
   298.85     17.57     65.19     55.16     -0.03      0.05      5.59 
   298.86     17.57     65.20     55.16     -0.03      0.05      5.59 
