#Written by Robertson Geologging WinLogger V1.0/370
~VERSION INFORMATION
#------------------------------------------------------------------------------
 VERS. 2.0 : CWLS LOG ASCII STANDARD - VERSION 2.0
 WRAP. NO  : ONE LINE PER DEPTH STEP
~WELL INFORMATION
#MNEM.UNIT         DATA                                DESCRIPTION OF MNEMONIC
#------------------------------------------------------------------------------
 STRT.M         74.0000                            :   START DEPTH
 STOP.M        380.0000                            :   STOP DEPTH
 STEP.M          0.0100                            :   STEP VALUE
 NULL.        -999.2500                            :   NULL VALUE
 COMP.    White Young Gteen                        :   COMPANY NAME
 WELL.    Horden Shaft                             :   WELL NAME
 FLD.     Horden                                   :   FIELD NAME
 LOC.     N/A                                      :   LOCATION
 PROV.    N/A                                      :   PROVINCE
 SRVC.    N/A                                      :   SERVICE COMPANY NAME
 DATE.    03 Oct 05                                :   DATE
 UWI.     N/A                                      :   UNIQUE WELL IDENTIFIER
~PARAMETER INFORMATION
#MNEMO.UNIT         VALUE                 DESCRIPTION OF MNEMONIC
#------------------------------------------------------------------------------
~OTHER INFORMATION SECTION
#------------------------------------------------------------------------------
 TCGS1365
~CURVE INFORMATION
#MNEMO.UNIT         API CODE              CURVE DESCRIPTION
#------------------------------------------------------------------------------
 DEPTH.M                                 :   0     Depth
 TEMP.DegC                               :   1     Temperature
 CN25.mS/cm                              :   2     Conductivity@25DegC
 COND.mS/cm                              :   3     Conductivity
 DELT.DegC                               :   4     Delta T
 DELC.mS/cm                              :   5     Delta C
 NGAM.CPS                                :   6     Natural Gamma
#------------------------------------------------------------------------------
~A  DEPTH     TEMP      CN25      COND      DELT      DELC      NGAM      
# ...
   318.08     16.72     76.31     62.52      0.02      0.11      5.29 
   318.09     16.72     76.32     62.52      0.03      0.11      5.29 
   318.10     16.71     76.32     62.52      0.02      0.11      4.59 
   318.11     16.71     76.32     62.52      0.02      0.11      4.18 
   318.12     16.71     76.33     62.52      0.02      0.11      4.24 
   318.13     16.71     76.34     62.53      0.02      0.11      4.59 
   318.14     16.71     76.34     62.53      0.02      0.11      4.59 
   318.15     16.71     76.34     62.53      0.02      0.11      4.65 
   318.16     16.71     76.35     62.53      0.02      0.11      4.24 
   318.17     16.71     76.35     62.53      0.02      0.12      3.59 
   318.18     16.71     76.36     62.53      0.02      0.13      3.18 
   318.19     16.71     76.36     62.54      0.01      0.14      3.53 
   318.20     16.71     76.36     62.54      0.01      0.14      5.18 
   318.21     16.71     76.36     62.54      0.01      0.14      4.35 
   318.22     16.71     76.36     62.54      0.01      0.16      4.35 
   318.23     16.71     76.36     62.54      0.00      0.16      4.35 
   318.24     16.71     76.36     62.54      0.00      0.18      4.76 
   318.25     16.71     76.37     62.55     -0.00      0.20      5.12 
   318.26     16.71     76.37     62.55     -0.01      0.20      5.12 
   318.27     16.71     76.37     62.55     -0.01      0.20      5.53 
   318.28     16.71     76.37     62.55     -0.01      0.20      5.88 
   318.29     16.71     76.37     62.55     -0.01      0.20      6.29 
   318.30     16.71     76.38     62.56     -0.01      0.20      6.29 
   318.31     16.71     76.38     62.56     -0.01      0.20      6.29 
   318.32     16.71     76.38     62.56     -0.01      0.21      5.88 
   318.33     16.71     76.38     62.56     -0.01      0.20      6.29 
   318.34     16.71     76.38     62.56     -0.01      0.20      6.59 
   318.35     16.71     76.38     62.56     -0.01      0.20      6.59 
   318.36     16.71     76.37     62.56     -0.00      0.19      6.59 
   318.37     16.72     76.36     62.56     -0.00      0.18      5.76 
   318.38     16.72     76.37     62.56     -0.00      0.18      5.76 
   318.39     16.72     76.36     62.56      0.00      0.17      5.76 
   318.40     16.72     76.36     62.56      0.00      0.16      6.18 
   318.41     16.72     76.36     62.56      0.01      0.16      5.35 
   318.42     16.72     76.35     62.57      0.01      0.14      5.06 
   318.43     16.72     76.35     62.57      0.01      0.14      5.06 
   318.44     16.72     76.35     62.57      0.01      0.13      5.06 
   318.45     16.73     76.35     62.57      0.02      0.12      5.41 
   318.46     16.73     76.35     62.57      0.02      0.10      4.59 
   318.47     16.73     76.34     62.57      0.02      0.09      4.24 
   318.48     16.73     76.35     62.58      0.02      0.10      4.65 
   318.49     16.73     76.34     62.58      0.03      0.09      5.06 
   318.50     16.73     76.35     62.58      0.03      0.09      4.65 
   318.51     16.73     76.35     62.58      0.03      0.09      4.76 
   318.52     16.73     76.35     62.58      0.03      0.09      4.76 
   318.53     16.73     76.35     62.59      0.03      0.09      4.76 
   318.54     16.73     76.36     62.59      0.03      0.09      3.94 
   318.55     16.73     76.36     62.59      0.03      0.09      4.35 
   318.56     16.73     76.37     62.59      0.02      0.10      4.71 
   318.57     16.72     76.38     62.59      0.02      0.12      4.29 
   318.58     16.72     76.39     62.60      0.02      0.13      5.12 
   318.59     16.72     76.40     62.60      0.01      0.13      4.71 
   318.60     16.72     76.41     62.60      0.01      0.14      5.12 
   318.61     16.71     76.42     62.60      0.01      0.13      4.71 
   318.62     16.71     76.42     62.60      0.01      0.13      4.41 
   318.63     16.71     76.42     62.60      0.02      0.12      4.41 
   318.64     16.71     76.42     62.60      0.02      0.11      4.41 
   318.65     16.72     76.42     62.60      0.02      0.11      4.82 
   318.66     16.72     76.41     62.60      0.02      0.10      4.76 
   318.67     16.72     76.41     62.61      0.02      0.10      5.18 
   318.68     16.72     76.41     62.61      0.02      0.10      4.35 
   318.69     16.72     76.40     62.61      0.02      0.10      4.35 
   318.70     16.72     76.40     62.61      0.02      0.09      4.41 
   318.71     16.72     76.39     62.60      0.02      0.10      5.24 
   318.72     16.72     76.39     62.60      0.02      0.11      4.82 
   318.73     16.73     76.39     62.61      0.02      0.11      4.88 
   318.74     16.73     76.39     62.61      0.02      0.11      4.88 
   318.75     16.73     76.38     62.61      0.02      0.11      4.47 
   318.76     16.73     76.38     62.61      0.02      0.11      4.82 
   318.77     16.73     76.38     62.61      0.02      0.11      4.82 
   318.78     16.73     76.38     62.61      0.02      0.10      4.82 
   318.79     16.73     76.37     62.61      0.02      0.09      4.41 
   318.80     16.73     76.36     62.61      0.02      0.08      4.41 
   318.81     16.74     76.36     62.61      0.02      0.08      4.76 
   318.82     16.74     76.36     62.61      0.03      0.07      4.35 
   318.83     16.74     76.35     62.61      0.03      0.06      4.00 
   318.84     16.74     76.35     62.61      0.03      0.06      4.00 
   318.85     16.74     76.35     62.61      0.03      0.06      4.35 
   318.86     16.74     76.35     62.61      0.03      0.07      4.35 
   318.87     16.74     76.34     62.61      0.03      0.06      3.94 
   318.88     16.74     76.35     62.62      0.03      0.06      3.53 
   318.89     16.74     76.35     62.61      0.03      0.06      3.53 
   318.90     16.74     76.35     62.62      0.03      0.06      3.47 
   318.91     16.74     76.36     62.62      0.02      0.07      3.47 
   318.92     16.74     76.36     62.62      0.02      0.07      3.41 
   318.93     16.74     76.36     62.62      0.03      0.06      3.47 
   318.94     16.74     76.36     62.62      0.03      0.06      3.76 
   318.95     16.74     76.37     62.62      0.03      0.06      3.76 
   318.96     16.74     76.37     62.63      0.03      0.06      4.12 
   318.97     16.74     76.37     62.63      0.03      0.06      4.12 
   318.98     16.74     76.38     62.63      0.03      0.07      4.47 
   318.99     16.74     76.38     62.63      0.03      0.06      4.06 
   319.00     16.74     76.38     62.63      0.03      0.06      4.06 
   319.01     16.74     76.38     62.63      0.03      0.07      4.06 
   319.02     16.74     76.39     62.64      0.03      0.07      4.53 
   319.03     16.74     76.39     62.64      0.03      0.08      4.88 
   319.04     16.74     76.40     62.64      0.02      0.08      4.88 
   319.05     16.74     76.40     62.64      0.02      0.09      4.47 
   319.06     16.74     76.40     62.64      0.02      0.09      4.88 
   319.07     16.74     76.40     62.64      0.02      0.09      4.53 
   319.08     16.74     76.39     62.64      0.02      0.08      4.94 
   319.09     16.74     76.40     62.64      0.02      0.07      4.94 
   319.10     16.74     76.40     62.64      0.02      0.08      4.53 
   319.11     16.73     76.41     62.64      0.02      0.08      3.82 
   319.12     16.73     76.41     62.64      0.02      0.07      3.82 
   319.13     16.73     76.41     62.64      0.02      0.07      3.47 
   319.14     16.73     76.42     62.64      0.02      0.07      3.47 
   319.15     16.73     76.41     62.65      0.02      0.07      3.47 
   319.16     16.73     76.41     62.65      0.03      0.06      3.88 
   319.17     16.73     76.41     62.65      0.03      0.06      4.71 
   319.18     16.73     76.41     62.65      0.03      0.06      5.00 
   319.19     16.73     76.42     62.65      0.02      0.07      4.59 
   319.20     16.73     76.43     62.65      0.02      0.07      4.94 
