#Written by Robertson Geologging WinLogger V1.0/370
~VERSION INFORMATION
#------------------------------------------------------------------------------
 VERS. 2.0 : CWLS LOG ASCII STANDARD - VERSION 2.0
 WRAP. NO  : ONE LINE PER DEPTH STEP
~WELL INFORMATION
#MNEM.UNIT         DATA                                DESCRIPTION OF MNEMONIC
#------------------------------------------------------------------------------
 STRT.M         74.0000                            :   START DEPTH
 STOP.M        380.0000                            :   STOP DEPTH
 STEP.M          0.0100                            :   STEP VALUE
 NULL.        -999.2500                            :   NULL VALUE
 COMP.    White Young Gteen                        :   COMPANY NAME
 WELL.    Horden Shaft                             :   WELL NAME
 FLD.     Horden                                   :   FIELD NAME
 LOC.     N/A                                      :   LOCATION
 PROV.    N/A                                      :   PROVINCE
 SRVC.    N/A                                      :   SERVICE COMPANY NAME
 DATE.    03 Oct 05                                :   DATE
 UWI.     N/A                                      :   UNIQUE WELL IDENTIFIER
~PARAMETER INFORMATION
#MNEMO.UNIT         VALUE                 DESCRIPTION OF MNEMONIC
#------------------------------------------------------------------------------
~OTHER INFORMATION SECTION
#------------------------------------------------------------------------------
 TCGS1365
~CURVE INFORMATION
#MNEMO.UNIT         API CODE              CURVE DESCRIPTION
#------------------------------------------------------------------------------
 DEPTH.M                                 :   0     Depth
 TEMP.DegC                               :   1     Temperature
 CN25.mS/cm                              :   2     Conductivity@25DegC
 COND.mS/cm                              :   3     Conductivity
 DELT.DegC                               :   4     Delta T
 DELC.mS/cm                              :   5     Delta C
 NGAM.CPS                                :   6     Natural Gamma
#------------------------------------------------------------------------------
~A  DEPTH     TEMP      CN25      COND      DELT      DELC      NGAM      
# ...
   257.06     16.89     49.20     40.22      0.00      0.01      4.00 
   257.07     16.89     49.19     40.22      0.00      0.01      4.00 
   257.08     16.89     49.20     40.22      0.00      0.01      3.59 
   257.09     16.88     49.20     40.22      0.00      0.01      3.18 
   257.10     16.88     49.21     40.22     -0.00      0.02      2.82 
   257.11     16.88     49.22     40.22     -0.01      0.03      3.88 
   257.12     16.88     49.22     40.22     -0.01      0.03      3.88 
   257.13     16.88     49.22     40.22     -0.01      0.03      3.53 
   257.14     16.88     49.22     40.22     -0.01      0.04      3.94 
   257.15     16.88     49.22     40.22     -0.01      0.04      3.88 
   257.16     16.87     49.23     40.22     -0.01      0.04      3.88 
   257.17     16.87     49.23     40.22     -0.01      0.04      4.29 
   257.18     16.87     49.24     40.22     -0.01      0.05      3.88 
   257.19     16.87     49.23     40.22     -0.01      0.05      3.06 
   257.20     16.87     49.23     40.22     -0.01      0.05      3.06 
   257.21     16.88     49.22     40.22     -0.01      0.04      3.47 
   257.22     16.88     49.22     40.22     -0.01      0.04      3.82 
   257.23     16.88     49.22     40.22     -0.01      0.03      3.82 
   257.24     16.88     49.22     40.22     -0.01      0.04      4.24 
   257.25     16.88     49.22     40.22     -0.01      0.04      4.59 
   257.26     16.88     49.22     40.22     -0.01      0.03      5.00 
   257.27     16.88     49.23     40.22     -0.00      0.03      5.00 
   257.28     16.88     49.22     40.22     -0.00      0.02      3.94 
   257.29     16.87     49.22     40.22     -0.00      0.03      3.94 
   257.30     16.87     49.23     40.22     -0.00      0.02      5.18 
   257.31     16.87     49.22     40.22     -0.00      0.02      4.76 
   257.32     16.87     49.23     40.22      0.00      0.02      4.82 
   257.33     16.88     49.22     40.21      0.00      0.01      5.24 
   257.34     16.88     49.22     40.22      0.00      0.01      6.29 
   257.35     16.88     49.22     40.22      0.00      0.01      6.29 
   257.36     16.87     49.22     40.21     -0.00      0.02      7.12 
   257.37     16.87     49.23     40.22     -0.01      0.03      7.12 
   257.38     16.87     49.23     40.21     -0.01      0.04      7.06 
   257.39     16.87     49.24     40.22     -0.01      0.05      6.71 
   257.40     16.87     49.24     40.22     -0.01      0.04      6.71 
   257.41     16.87     49.23     40.21     -0.01      0.04      6.29 
   257.42     16.87     49.24     40.22     -0.01      0.05      6.35 
   257.43     16.87     49.24     40.22     -0.02      0.05      5.94 
   257.44     16.87     49.24     40.22     -0.02      0.05      5.94 
   257.45     16.87     49.24     40.22     -0.02      0.06      5.94 
   257.46     16.87     49.24     40.22     -0.02      0.06      5.94 
   257.47     16.87     49.23     40.22     -0.01      0.05      4.71 
   257.48     16.87     49.23     40.22     -0.01      0.04      5.12 
   257.49     16.88     49.23     40.22     -0.01      0.04      4.71 
   257.50     16.88     49.22     40.22     -0.01      0.03      4.29 
   257.51     16.88     49.21     40.22     -0.01      0.02      3.18 
   257.52     16.88     49.21     40.22     -0.00      0.03      4.00 
   257.53     16.88     49.21     40.22     -0.00      0.02      4.00 
   257.54     16.88     49.21     40.22      0.00      0.01      3.59 
   257.55     16.88     49.21     40.22      0.00      0.02      3.24 
   257.56     16.88     49.21     40.22      0.00      0.01      3.24 
   257.57     16.89     49.20     40.22      0.00      0.00      3.24 
   257.58     16.89     49.21     40.23      0.00      0.00      3.24 
   257.59     16.89     49.20     40.22      0.00      0.01      3.24 
   257.60     16.88     49.21     40.22      0.00      0.00      3.24 
   257.61     16.88     49.22     40.23     -0.00      0.02      3.24 
   257.62     16.88     49.22     40.22     -0.00      0.02      3.24 
   257.63     16.88     49.23     40.22     -0.01      0.02      3.65 
   257.64     16.87     49.23     40.22     -0.01      0.03      4.35 
   257.65     16.87     49.24     40.22     -0.01      0.03      3.94 
   257.66     16.87     49.24     40.22     -0.01      0.02      3.94 
   257.67     16.87     49.24     40.22     -0.01      0.03      3.94 
   257.68     16.87     49.25     40.22     -0.01      0.03      3.59 
   257.69     16.87     49.24     40.22     -0.01      0.03      2.76 
   257.70     16.87     49.25     40.22     -0.01      0.02      2.35 
   257.71     16.87     49.24     40.22     -0.00      0.02      2.35 
   257.72     16.87     49.23     40.22     -0.00      0.01      2.76 
   257.73     16.87     49.23     40.22     -0.00      0.02      2.76 
   257.74     16.88     49.23     40.22     -0.00      0.01      3.18 
   257.75     16.88     49.22     40.22      0.00      0.01      4.41 
   257.76     16.88     49.22     40.22      0.00      0.00      4.00 
   257.77     16.88     49.22     40.23      0.00      0.01      4.41 
   257.78     16.88     49.22     40.23      0.00     -0.00      4.82 
   257.79     16.88     49.21     40.22      0.00     -0.01      4.82 
   257.80     16.88     49.22     40.22      0.00      0.00      5.24 
   257.81     16.88     49.22     40.22      0.00      0.01      4.88 
   257.82     16.88     49.22     40.22     -0.00      0.01      4.88 
   257.83     16.88     49.23     40.23     -0.00      0.02      5.29 
   257.84     16.88     49.23     40.23     -0.00      0.02      4.88 
   257.85     16.88     49.22     40.22     -0.00      0.02      4.88 
   257.86     16.88     49.22     40.22     -0.00      0.02      4.88 
   257.87     16.88     49.22     40.22     -0.01      0.02      4.82 
   257.88     16.88     49.22     40.22     -0.01      0.03      4.82 
   257.89     16.88     49.22     40.22     -0.01      0.03      4.41 
   257.90     16.88     49.22     40.22     -0.01      0.03      4.41 
   257.91     16.88     49.22     40.22     -0.01      0.02      4.00 
   257.92     16.88     49.21     40.22     -0.01      0.02      3.59 
   257.93     16.88     49.21     40.22     -0.00      0.01      4.00 
   257.94     16.89     49.20     40.22      0.00      0.00      4.00 
   257.95     16.88     49.20     40.22      0.00      0.00      3.59 
   257.96     16.88     49.21     40.22      0.00      0.00      3.59 
   257.97     16.88     49.22     40.23      0.00      0.01      3.59 
   257.98     16.88     49.22     40.23      0.00      0.01      3.65 
   257.99     16.88     49.22     40.22      0.00      0.01      4.06 
   258.00     16.88     49.22     40.22      0.00      0.01      4.06 
   258.01     16.88     49.22     40.23     -0.00      0.01      4.06 
   258.02     16.88     49.23     40.23     -0.00      0.02      4.41 
   258.03     16.88     49.23     40.23     -0.01      0.02      4.82 
   258.04     16.88     49.23     40.22     -0.01      0.03      4.88 
   258.05     16.88     49.23     40.23     -0.01      0.03      5.29 
   258.06     16.88     49.23     40.23     -0.01      0.04      5.65 
   258.07     16.88     49.23     40.23     -0.01      0.03      6.47 
   258.08     16.88     49.23     40.23     -0.01      0.03      7.29 
   258.09     16.88     49.23     40.22     -0.00      0.02      6.47 
   258.10     16.88     49.23     40.23     -0.00      0.01      6.06 
   258.11     16.88     49.23     40.23      0.00      0.01      5.65 
   258.12     16.88     49.22     40.23      0.00      0.00      6.00 
   258.13     16.88     49.22     40.23      0.00      0.01      6.41 
   258.14     16.88     49.23     40.23      0.00      0.01      6.41 
   258.15     16.88     49.23     40.23      0.00      0.00      6.82 
   258.16     16.88     49.23     40.23      0.00      0.00      6.41 
   258.17     16.88     49.23     40.23      0.01     -0.01      6.00 
   258.18     16.88     49.23     40.23      0.00      0.00      6.00 
