#Written by Robertson Geologging WinLogger V1.0/370
~VERSION INFORMATION
#------------------------------------------------------------------------------
 VERS. 2.0 : CWLS LOG ASCII STANDARD - VERSION 2.0
 WRAP. NO  : ONE LINE PER DEPTH STEP
~WELL INFORMATION
#MNEM.UNIT         DATA                                DESCRIPTION OF MNEMONIC
#------------------------------------------------------------------------------
 STRT.M         74.0000                            :   START DEPTH
 STOP.M        380.0000                            :   STOP DEPTH
 STEP.M          0.0100                            :   STEP VALUE
 NULL.        -999.2500                            :   NULL VALUE
 COMP.    White Young Gteen                        :   COMPANY NAME
 WELL.    Horden Shaft                             :   WELL NAME
 FLD.     Horden                                   :   FIELD NAME
 LOC.     N/A                                      :   LOCATION
 PROV.    N/A                                      :   PROVINCE
 SRVC.    N/A                                      :   SERVICE COMPANY NAME
 DATE.    03 Oct 05                                :   DATE
 UWI.     N/A                                      :   UNIQUE WELL IDENTIFIER
~PARAMETER INFORMATION
#MNEMO.UNIT         VALUE                 DESCRIPTION OF MNEMONIC
#------------------------------------------------------------------------------
~OTHER INFORMATION SECTION
#------------------------------------------------------------------------------
 TCGS1365
~CURVE INFORMATION
#MNEMO.UNIT         API CODE              CURVE DESCRIPTION
#------------------------------------------------------------------------------
 DEPTH.M                                 :   0     Depth
 TEMP.DegC                               :   1     Temperature
 CN25.mS/cm                              :   2     Conductivity@25DegC
 COND.mS/cm                              :   3     Conductivity
 DELT.DegC                               :   4     Delta T
 DELC.mS/cm                              :   5     Delta C
 NGAM.CPS                                :   6     Natural Gamma
#------------------------------------------------------------------------------
~A  DEPTH     TEMP      CN25      COND      DELT      DELC      NGAM      
# ...
   358.76     18.55     77.76     68.38     -0.01      0.02      4.94 
   358.77     18.55     77.76     68.38     -0.01      0.02      5.29 
   358.78     18.55     77.76     68.38     -0.01      0.02      5.29 
   358.79     18.56     77.75     68.37     -0.00     -0.00      5.65 
   358.80     18.56     77.74     68.37      0.00     -0.01      5.94 
   358.81     18.56     77.74     68.38      0.00     -0.01      6.00 
   358.82     18.56     77.74     68.38      0.00     -0.01      5.18 
   358.83     18.56     77.74     68.37      0.00     -0.02      5.18 
   358.84     18.56     77.74     68.37      0.00     -0.02      6.00 
   358.85     18.56     77.74     68.37      0.00     -0.03      7.06 
   358.86     18.56     77.73     68.37      0.01     -0.03      7.06 
   358.87     18.57     77.72     68.37      0.01     -0.04      7.76 
   358.88     18.57     77.71     68.37      0.01     -0.05      7.76 
   358.89     18.57     77.71     68.37      0.01     -0.04      7.41 
   358.90     18.57     77.72     68.37      0.01     -0.03      7.41 
   358.91     18.56     77.73     68.38      0.00     -0.02      7.47 
   358.92     18.56     77.74     68.37      0.00     -0.01      7.00 
   358.93     18.56     77.74     68.37     -0.00      0.00      7.00 
   358.94     18.56     77.73     68.37     -0.00      0.00      6.71 
   358.95     18.56     77.73     68.37     -0.00      0.00      6.71 
   358.96     18.57     77.72     68.37     -0.00      0.00      7.59 
   358.97     18.57     77.72     68.37     -0.00     -0.00      6.88 
   358.98     18.57     77.73     68.37     -0.00     -0.00      7.18 
   358.99     18.57     77.73     68.37     -0.00     -0.00      7.18 
   359.00     18.57     77.73     68.37     -0.00     -0.00      7.53 
   359.01     18.57     77.72     68.37      0.00     -0.01      7.53 
   359.02     18.57     77.70     68.37      0.00     -0.02      6.41 
   359.03     18.57     77.70     68.37      0.01     -0.02      6.41 
   359.04     18.58     77.69     68.37      0.01     -0.03      6.53 
   359.05     18.57     77.70     68.37      0.01     -0.02      6.88 
   359.06     18.57     77.71     68.37      0.00     -0.01      7.35 
   359.07     18.57     77.72     68.37      0.00     -0.01      7.35 
   359.08     18.56     77.73     68.37     -0.00     -0.00      6.94 
   359.09     18.56     77.73     68.37     -0.01      0.00      7.29 
   359.10     18.56     77.74     68.37     -0.01      0.01      7.35 
   359.11     18.56     77.75     68.37     -0.01      0.01      7.29 
   359.12     18.55     77.76     68.37     -0.01      0.02      7.65 
   359.13     18.55     77.77     68.37     -0.01      0.02      6.41 
   359.14     18.54     77.78     68.37     -0.01      0.03      6.41 
   359.15     18.54     77.80     68.37     -0.02      0.04      6.06 
   359.16     18.54     77.80     68.37     -0.02      0.04      6.88 
   359.17     18.54     77.80     68.37     -0.02      0.04      6.53 
   359.18     18.54     77.79     68.37     -0.02      0.04      5.71 
   359.19     18.55     77.78     68.37     -0.01      0.04      6.59 
   359.20     18.55     77.77     68.37     -0.01      0.03      6.59 
   359.21     18.55     77.76     68.37     -0.01      0.01      6.12 
   359.22     18.55     77.76     68.37     -0.00      0.00      6.12 
   359.23     18.55     77.75     68.37     -0.00     -0.00      5.71 
   359.24     18.56     77.75     68.37      0.00     -0.00      6.06 
   359.25     18.56     77.74     68.37      0.00     -0.01      6.41 
   359.26     18.56     77.73     68.37      0.01     -0.02      5.71 
   359.27     18.56     77.73     68.37      0.01     -0.02      5.65 
   359.28     18.56     77.73     68.37      0.01     -0.02      5.71 
   359.29     18.56     77.74     68.37      0.01     -0.02      5.71 
   359.30     18.56     77.75     68.37      0.00     -0.02      6.41 
   359.31     18.55     77.76     68.37      0.00     -0.02      6.41 
   359.32     18.55     77.76     68.37      0.00     -0.02      6.06 
   359.33     18.56     77.75     68.37      0.00     -0.02      5.24 
   359.34     18.56     77.74     68.37      0.01     -0.02      5.24 
   359.35     18.56     77.73     68.37      0.01     -0.03      5.24 
   359.36     18.56     77.73     68.37      0.01     -0.03      4.00 
   359.37     18.56     77.73     68.37      0.01     -0.03      4.00 
   359.38     18.56     77.73     68.37      0.01     -0.03      4.06 
   359.39     18.56     77.73     68.37      0.01     -0.03      3.71 
   359.40     18.57     77.72     68.37      0.01     -0.04      3.65 
   359.41     18.57     77.72     68.37      0.01     -0.05      4.00 
   359.42     18.57     77.71     68.37      0.01     -0.05      3.65 
   359.43     18.57     77.71     68.37      0.01     -0.05      3.65 
   359.44     18.56     77.72     68.37      0.01     -0.03      4.00 
   359.45     18.56     77.73     68.37      0.00     -0.01      3.59 
   359.46     18.56     77.74     68.37     -0.01      0.01      3.94 
   359.47     18.56     77.75     68.37     -0.01      0.03      3.24 
   359.48     18.56     77.75     68.37     -0.01      0.04      3.24 
   359.49     18.56     77.75     68.37     -0.01      0.04      3.94 
   359.50     18.56     77.75     68.37     -0.01      0.04      4.29 
   359.51     18.56     77.75     68.37     -0.01      0.05      3.94 
   359.52     18.55     77.76     68.38     -0.02      0.05      4.29 
   359.53     18.55     77.76     68.37     -0.02      0.07      4.29 
   359.54     18.55     77.77     68.37     -0.02      0.07      4.29 
   359.55     18.55     77.77     68.37     -0.02      0.06      4.24 
   359.56     18.55     77.77     68.37     -0.02      0.05      4.24 
   359.57     18.55     77.75     68.37     -0.01      0.02      4.24 
   359.58     18.56     77.75     68.37     -0.00      0.00      3.88 
   359.59     18.56     77.74     68.37      0.00     -0.01      4.29 
   359.60     18.56     77.74     68.37      0.00     -0.01      4.29 
   359.61     18.56     77.73     68.37      0.01     -0.02      4.00 
   359.62     18.57     77.72     68.37      0.00     -0.02      5.47 
   359.63     18.57     77.71     68.37      0.01     -0.02      5.12 
   359.64     18.57     77.70     68.37      0.01     -0.04      5.94 
   359.65     18.58     77.69     68.37      0.02     -0.05      6.29 
   359.66     18.58     77.68     68.37      0.02     -0.06      6.41 
   359.67     18.58     77.68     68.37      0.02     -0.06      6.41 
   359.68     18.58     77.69     68.37      0.02     -0.06      6.41 
   359.69     18.58     77.69     68.37      0.02     -0.05      6.06 
   359.70     18.58     77.68     68.37      0.01     -0.05      6.06 
   359.71     18.58     77.68     68.37      0.01     -0.05      6.06 
   359.72     18.58     77.69     68.37      0.01     -0.04      6.06 
   359.73     18.57     77.70     68.37      0.01     -0.04      6.47 
   359.74     18.57     77.71     68.37      0.01     -0.04      6.47 
   359.75     18.57     77.72     68.37      0.01     -0.04      6.12 
   359.76     18.57     77.72     68.37      0.01     -0.04      6.06 
   359.77     18.56     77.72     68.37      0.01     -0.04      6.47 
   359.78     18.56     77.72     68.37      0.01     -0.03      6.06 
   359.79     18.56     77.73     68.37      0.00     -0.02      4.59 
   359.80     18.56     77.73     68.37      0.00     -0.01      4.59 
   359.81     18.56     77.74     68.37     -0.00     -0.00      4.47 
   359.82     18.56     77.73     68.37      0.00     -0.01      4.53 
   359.83     18.56     77.73     68.37      0.00     -0.01      3.71 
   359.84     18.57     77.71     68.37      0.01     -0.02      3.35 
   359.85     18.57     77.71     68.37      0.01     -0.02      3.35 
   359.86     18.57     77.70     68.37      0.00     -0.02      3.35 
   359.87     18.57     77.71     68.37      0.00     -0.00      3.35 
   359.88     18.57     77.71     68.37     -0.00      0.01      3.71 
