#Written by Robertson Geologging WinLogger V1.0/370
~VERSION INFORMATION
#------------------------------------------------------------------------------
 VERS. 2.0 : CWLS LOG ASCII STANDARD - VERSION 2.0
 WRAP. NO  : ONE LINE PER DEPTH STEP
~WELL INFORMATION
#MNEM.UNIT         DATA                                DESCRIPTION OF MNEMONIC
#------------------------------------------------------------------------------
 STRT.M         12.5800                            :   START DEPTH
 STOP.M        114.0100                            :   STOP DEPTH
 STEP.M          0.0100                            :   STEP VALUE
 NULL.        -999.2500                            :   NULL VALUE
 COMP.    White Young Green                        :   COMPANY NAME
 WELL.    Chatershaugh                             :   WELL NAME
 FLD.     Chatershaugh                             :   FIELD NAME
 LOC.     N/A                                      :   LOCATION
 PROV.    N/A                                      :   PROVINCE
 SRVC.    N/A                                      :   SERVICE COMPANY NAME
 DATE.    07 Oct 05                                :   DATE
 UWI.     N/A                                      :   UNIQUE WELL IDENTIFIER
~PARAMETER INFORMATION
#MNEMO.UNIT         VALUE                 DESCRIPTION OF MNEMONIC
#------------------------------------------------------------------------------
~OTHER INFORMATION SECTION
#------------------------------------------------------------------------------
 TCGS1365
~CURVE INFORMATION
#MNEMO.UNIT         API CODE              CURVE DESCRIPTION
#------------------------------------------------------------------------------
 DEPTH.M                                 :   0     Depth
 TEMP.DegC                               :   1     Temperature
 CN25.mS/cm                              :   2     Conductivity@25DegC
 COND.mS/cm                              :   3     Conductivity
 DELT.DegC                               :   4     Delta T
 DELC.mS/cm                              :   5     Delta C
 NGAM.CPS                                :   6     Natural Gamma
#------------------------------------------------------------------------------
~A  DEPTH     TEMP      CN25      COND      DELT      DELC      NGAM      
# ...
    92.81     15.90     13.76      9.39     -0.02      0.41      4.12 
    92.82     15.90     13.76      9.38     -0.02      0.41      4.53 
    92.83     15.90     13.76      9.39     -0.03      0.42      4.53 
    92.84     15.89     13.77      9.39     -0.03      0.42      4.12 
    92.85     15.89     13.77      9.39     -0.04      0.42      4.53 
    92.86     15.89     13.78      9.39     -0.04      0.43      4.12 
    92.87     15.89     13.79      9.39     -0.04      0.43      4.12 
    92.88     15.88     13.79      9.40     -0.04      0.44      4.53 
    92.89     15.88     13.80      9.40     -0.04      0.44      4.53 
    92.90     15.88     13.80      9.40     -0.05      0.44      4.53 
    92.91     15.88     13.80      9.40     -0.05      0.44      4.12 
    92.92     15.88     13.80      9.40     -0.04      0.43      4.53 
    92.93     15.88     13.81      9.41     -0.04      0.43      4.94 
    92.94     15.88     13.81      9.41     -0.04      0.43      4.53 
    92.95     15.88     13.81      9.41     -0.03      0.42      4.12 
    92.96     15.88     13.82      9.41     -0.03      0.42      4.12 
    92.97     15.88     13.82      9.41     -0.04      0.42      4.53 
    92.98     15.87     13.83      9.42     -0.04      0.42      3.71 
    92.99     15.87     13.83      9.42     -0.04      0.42      3.29 
    93.00     15.87     13.84      9.42     -0.04      0.42      4.12 
    93.01     15.86     13.85      9.42     -0.04      0.43      4.12 
    93.02     15.86     13.86      9.42     -0.05      0.43      3.71 
    93.03     15.85     13.87      9.42     -0.05      0.44      3.71 
    93.04     15.85     13.87      9.42     -0.06      0.44      3.71 
    93.05     15.85     13.88      9.43     -0.06      0.45      3.29 
    93.06     15.84     13.89      9.43     -0.07      0.46      2.88 
    93.07     15.84     13.89      9.43     -0.08      0.46      3.29 
    93.08     15.84     13.90      9.43     -0.08      0.48      3.29 
    93.09     15.83     13.91      9.43     -0.09      0.48      3.29 
    93.10     15.83     13.91      9.43     -0.09      0.48      2.88 
    93.11     15.83     13.91      9.43     -0.10      0.49      3.29 
    93.12     15.82     13.92      9.43     -0.10      0.50      3.29 
    93.13     15.82     13.92      9.43     -0.11      0.50      3.29 
    93.14     15.82     13.93      9.43     -0.11      0.51      3.29 
    93.15     15.82     13.93      9.44     -0.12      0.52      3.71 
    93.16     15.82     13.94      9.44     -0.12      0.52      4.12 
    93.17     15.81     13.94      9.44     -0.12      0.51      3.71 
    93.18     15.81     13.94      9.44     -0.13      0.52      4.12 
    93.19     15.81     13.94      9.44     -0.13      0.52      3.71 
    93.20     15.81     13.95      9.44     -0.13      0.52      4.12 
    93.21     15.81     13.95      9.44     -0.13      0.52      4.12 
    93.22     15.80     13.96      9.44     -0.13      0.53      4.53 
    93.23     15.80     13.96      9.44     -0.13      0.52      4.12 
    93.24     15.80     13.96      9.44     -0.13      0.52      3.71 
    93.25     15.80     13.97      9.44     -0.13      0.51      4.53 
    93.26     15.80     13.97      9.44     -0.13      0.51      4.12 
    93.27     15.79     13.97      9.44     -0.13      0.51      4.94 
    93.28     15.79     13.98      9.45     -0.13      0.51      4.94 
    93.29     15.79     13.98      9.45     -0.14      0.51      4.94 
    93.30     15.79     13.99      9.45     -0.14      0.51      5.35 
    93.31     15.78     13.99      9.45     -0.14      0.51      4.94 
    93.32     15.78     13.99      9.45     -0.14      0.51      4.53 
    93.33     15.78     14.00      9.45     -0.15      0.51      4.53 
    93.34     15.78     14.00      9.45     -0.15      0.52      4.53 
    93.35     15.77     14.00      9.45     -0.15      0.51      4.12 
    93.36     15.77     14.01      9.45     -0.16      0.51      4.12 
    93.37     15.77     14.01      9.45     -0.16      0.52      4.12 
    93.38     15.77     14.02      9.45     -0.16      0.51      4.53 
    93.39     15.77     14.02      9.45     -0.16      0.51      4.59 
    93.40     15.76     14.02      9.45     -0.16      0.50      4.59 
    93.41     15.76     14.03      9.45     -0.16      0.50      6.24 
    93.42     15.76     14.03      9.45     -0.17      0.50      5.41 
    93.43     15.75     14.04      9.45     -0.17      0.50      5.82 
    93.44     15.75     14.05      9.45     -0.17      0.49      5.41 
    93.45     15.75     14.05      9.45     -0.18      0.49      5.41 
    93.46     15.74     14.06      9.46     -0.18      0.50      5.82 
    93.47     15.74     14.07      9.46     -0.19      0.50      5.41 
    93.48     15.73     14.07      9.45     -0.19      0.49      5.41 
    93.49     15.73     14.07      9.45     -0.20      0.49      5.82 
    93.50     15.72     14.08      9.45     -0.20      0.50      5.41 
    93.51     15.72     14.09      9.46     -0.21      0.50      5.41 
    93.52     15.71     14.10      9.46     -0.21      0.50      5.82 
    93.53     15.71     14.10      9.46     -0.22      0.50      6.65 
    93.54     15.71     14.11      9.46     -0.22      0.50      6.24 
    93.55     15.71     14.11      9.46     -0.23      0.49      6.24 
    93.56     15.70     14.11      9.46     -0.23      0.49      6.59 
    93.57     15.70     14.12      9.46     -0.23      0.49      6.59 
    93.58     15.70     14.12      9.46     -0.23      0.49      4.94 
    93.59     15.69     14.13      9.46     -0.24      0.50      5.35 
    93.60     15.69     14.13      9.46     -0.24      0.49      5.35 
    93.61     15.69     14.14      9.46     -0.24      0.49      4.94 
    93.62     15.69     14.14      9.46     -0.25      0.49      4.53 
    93.63     15.69     14.15      9.46     -0.24      0.49      4.53 
    93.64     15.68     14.15      9.46     -0.24      0.48      4.53 
    93.65     15.68     14.15      9.46     -0.24      0.48      5.35 
    93.66     15.68     14.16      9.46     -0.24      0.47      4.94 
    93.67     15.67     14.16      9.46     -0.24      0.47      4.94 
    93.68     15.67     14.16      9.46     -0.24      0.46      4.53 
    93.69     15.67     14.16      9.46     -0.24      0.46      4.12 
    93.70     15.67     14.16      9.46     -0.24      0.45      3.71 
    93.71     15.67     14.17      9.46     -0.24      0.44      4.12 
    93.72     15.67     14.17      9.46     -0.24      0.44      4.12 
    93.73     15.67     14.17      9.47     -0.24      0.44      3.29 
    93.74     15.67     14.17      9.46     -0.24      0.44      3.71 
    93.75     15.67     14.17      9.46     -0.24      0.44      3.71 
    93.76     15.66     14.17      9.46     -0.24      0.43      3.71 
    93.77     15.66     14.18      9.46     -0.24      0.44      3.29 
    93.78     15.66     14.18      9.47     -0.24      0.44      4.53 
    93.79     15.66     14.19      9.47     -0.24      0.44      4.94 
    93.80     15.66     14.19      9.47     -0.24      0.43      4.53 
    93.81     15.65     14.19      9.47     -0.24      0.44      4.53 
    93.82     15.65     14.20      9.47     -0.24      0.43      3.71 
    93.83     15.65     14.20      9.47     -0.24      0.43      4.53 
    93.84     15.65     14.20      9.47     -0.24      0.43      4.94 
    93.85     15.65     14.20      9.47     -0.24      0.42      6.59 
    93.86     15.65     14.20      9.47     -0.24      0.42      7.82 
    93.87     15.65     14.20      9.47     -0.24      0.41      7.88 
    93.88     15.65     14.20      9.47     -0.23      0.40      8.29 
    93.89     15.65     14.20      9.47     -0.23      0.40      7.88 
    93.90     15.65     14.20      9.47     -0.23      0.40      7.88 
    93.91     15.65     14.20      9.47     -0.23      0.40      7.88 
    93.92     15.65     14.20      9.47     -0.23      0.39      7.88 
    93.93     15.65     14.20      9.47     -0.23      0.39      7.47 
