#Written by Robertson Geologging WinLogger V1.0/370
~VERSION INFORMATION
#------------------------------------------------------------------------------
 VERS. 2.0 : CWLS LOG ASCII STANDARD - VERSION 2.0
 WRAP. NO  : ONE LINE PER DEPTH STEP
~WELL INFORMATION
#MNEM.UNIT         DATA                                DESCRIPTION OF MNEMONIC
#------------------------------------------------------------------------------
 STRT.M         12.5800                            :   START DEPTH
 STOP.M        114.0100                            :   STOP DEPTH
 STEP.M          0.0100                            :   STEP VALUE
 NULL.        -999.2500                            :   NULL VALUE
 COMP.    White Young Green                        :   COMPANY NAME
 WELL.    Chatershaugh                             :   WELL NAME
 FLD.     Chatershaugh                             :   FIELD NAME
 LOC.     N/A                                      :   LOCATION
 PROV.    N/A                                      :   PROVINCE
 SRVC.    N/A                                      :   SERVICE COMPANY NAME
 DATE.    07 Oct 05                                :   DATE
 UWI.     N/A                                      :   UNIQUE WELL IDENTIFIER
~PARAMETER INFORMATION
#MNEMO.UNIT         VALUE                 DESCRIPTION OF MNEMONIC
#------------------------------------------------------------------------------
~OTHER INFORMATION SECTION
#------------------------------------------------------------------------------
 TCGS1365
~CURVE INFORMATION
#MNEMO.UNIT         API CODE              CURVE DESCRIPTION
#------------------------------------------------------------------------------
 DEPTH.M                                 :   0     Depth
 TEMP.DegC                               :   1     Temperature
 CN25.mS/cm                              :   2     Conductivity@25DegC
 COND.mS/cm                              :   3     Conductivity
 DELT.DegC                               :   4     Delta T
 DELC.mS/cm                              :   5     Delta C
 NGAM.CPS                                :   6     Natural Gamma
#------------------------------------------------------------------------------
~A  DEPTH     TEMP      CN25      COND      DELT      DELC      NGAM      
    12.58      0.00     15.89      0.00      0.00      0.00      0.00 
    12.59      0.00     15.89      0.00      0.00      0.00      0.00 
    12.60      0.00     15.89      0.00      0.00      0.00      0.00 
    12.61      0.00     15.89      0.00      0.00      0.00      0.00 
    12.62      0.00     15.89      0.00      0.00      0.00      0.00 
    12.63      0.00     15.89      0.00      0.00      0.00      0.00 
    12.64      0.00     15.89      0.00      0.00      0.00      0.00 
    12.65      0.00     15.89      0.00      0.00      0.00      0.00 
    12.66      0.00     15.89      0.00      0.00      0.00      0.00 
    12.67      0.00     15.89      0.00      0.00      0.00      0.00 
    12.68      0.00     15.89      0.00      0.00      0.00      0.00 
    12.69      0.00     15.89      0.00      0.00      0.00      0.00 
    12.70      0.00     15.89      0.00      0.00      0.00      0.00 
    12.71      0.00     15.89      0.00      0.00      0.00      0.00 
    12.72      0.00     15.89      0.00      0.00      0.00      0.00 
    12.73      0.00     15.89      0.00      0.00      0.00      0.00 
    12.74      0.00     15.89      0.00      0.00      0.00      0.00 
    12.75      0.00     15.89      0.00      0.00      0.00      0.00 
    12.76      0.00     15.89      0.00      0.00      0.00      0.00 
    12.77      0.00     15.89      0.00      0.00      0.00      0.00 
    12.78      0.00     15.89      0.00      0.00      0.00      0.00 
    12.79      0.00     15.89      0.00      0.00      0.00      0.00 
    12.80      0.00     15.89      0.00      0.00      0.00      0.00 
    12.81      0.00     15.89      0.00      0.00      0.00      0.00 
    12.82      0.00     15.89      0.00      0.00      0.00      0.00 
    12.83      0.00     15.89      0.00      0.00      0.00      0.00 
    12.84      0.00     15.89      0.00      0.00      0.00      0.00 
    12.85      0.00     15.89      0.00      0.00      0.00      0.00 
    12.86      0.00     15.89      0.00      0.00      0.00      0.00 
    12.87      0.00     15.89      0.00      0.00      0.00      0.00 
    12.88      0.00     15.89      0.00      0.00      0.00      0.00 
    12.89      0.00     15.89      0.00      0.00      0.00      0.00 
    12.90      0.00     15.89      0.00      0.00      0.00      0.00 
    12.91      0.00     15.89      0.00      0.00      0.00      0.00 
    12.92      0.00     15.89      0.00      0.00      0.00      0.00 
    12.93      0.00     15.89      0.00      0.00      0.00      0.00 
    12.94      0.00     15.89      0.00      0.00      0.00      0.00 
    12.95      0.00     15.89      0.00      0.00      0.00      0.00 
    12.96      0.00     15.89      0.00      0.00      0.00      0.00 
    12.97      0.00     15.89      0.00      0.00      0.00      0.00 
    12.98      0.00     15.89      0.00      0.00      0.00      0.00 
    12.99      0.00     15.89      0.00      0.00      0.00      0.00 
    13.00      0.00     15.89      0.00      0.00      0.00      0.00 
    13.01      0.00     15.89      0.00      0.00      0.00      0.00 
    13.02      0.00     15.89      0.00      0.00      0.00      0.00 
    13.03      0.00     15.89      0.00      0.00      0.00      0.00 
    13.04      0.00     15.89      0.00      0.00      0.00      0.00 
    13.05      0.00     15.89      0.00      0.00      0.00      0.00 
    13.06      0.00     15.89      0.00      0.00      0.00      0.00 
    13.07      0.00     15.89      0.00      0.00      0.00      0.00 
    13.08      0.00     15.89      0.00      0.00      0.00      0.00 
    13.09      0.00     15.89      0.00      0.00      0.00      0.00 
    13.10      0.00     15.89      0.00      0.00      0.00      0.00 
    13.11      0.00     15.89      0.00      0.00      0.00      0.00 
    13.12      0.00     15.89      0.00      0.00      0.00      0.00 
    13.13      0.00     15.89      0.00      0.00      0.00      0.00 
    13.14      0.00     15.89      0.00      0.00      0.00      0.00 
    13.15      0.00     15.89      0.00      0.00      0.00      0.00 
    13.16      0.00     15.89      0.00      0.00      0.00      0.00 
    13.17      0.00     15.89      0.00      0.00      0.00      0.00 
    13.18      0.00     15.89      0.00      0.00      0.00      0.00 
    13.19      0.00     15.89      0.00      0.00      0.00      0.00 
    13.20      0.00     15.89      0.00      0.00      0.00      0.00 
    13.21      0.00     15.89      0.00      0.00      0.00      0.00 
    13.22      0.00     15.89      0.00      0.00      0.00      0.00 
    13.23      0.00     15.89      0.00      0.00      0.00      0.00 
    13.24      0.00     15.89      0.00      0.00      0.00      0.00 
    13.25      0.00     15.89      0.00      0.00      0.00      0.00 
    13.26      0.00     15.89      0.00      0.00      0.00      0.00 
    13.27      0.00     15.89      0.00      0.00      0.00      0.00 
    13.28      0.00     15.89      0.00      0.00      0.00      0.00 
    13.29      0.00     15.89      0.00      0.00      0.00      0.00 
    13.30      0.00     15.89      0.00      0.00      0.00      0.00 
    13.31      0.00     15.89      0.00      0.00      0.00      0.00 
    13.32      0.00     15.89      0.00      0.00      0.00      0.00 
    13.33      0.00     15.89      0.00      0.00      0.00      0.00 
    13.34      0.00     15.89      0.00      0.00      0.00      0.00 
    13.35      0.00     15.89      0.00      0.00      0.00      0.00 
    13.36      0.00     15.89      0.00      0.00      0.00      0.00 
    13.37      0.00     15.89      0.00      0.00      0.00      0.00 
    13.38      0.00     15.89      0.00      0.00      0.00      0.00 
    13.39      0.00     15.89      0.00      0.00      0.00      0.00 
    13.40      0.00     15.89      0.00      0.00      0.00      0.00 
    13.41      0.00     15.89      0.00      0.00      0.00      0.00 
    13.42      0.00     15.89      0.00      0.00      0.00      0.00 
    13.43      0.00     15.89      0.00      0.00      0.00      0.00 
    13.44      0.00     15.89      0.00      0.00      0.00      0.00 
    13.45      0.00     15.89      0.00      0.00      0.00      0.00 
    13.46      0.00     15.89      0.00      0.00      0.00      0.00 
    13.47      0.00     15.89      0.00      0.00      0.00      0.00 
    13.48      0.00     15.89      0.00      0.00      0.00      0.00 
    13.49      0.00     15.89      0.00      0.00      0.00      0.00 
    13.50      0.00     15.89      0.00      0.00      0.00      0.00 
    13.51      0.00     15.89      0.00      0.00      0.00      0.00 
    13.52      0.00     15.89      0.00      0.00      0.00      0.00 
    13.53      0.00     15.89      0.00      0.00      0.00      0.00 
    13.54      0.00     15.89      0.00      0.00      0.00      0.00 
    13.55      0.00     15.89      0.00      0.00      0.00      0.00 
    13.56      0.00     15.89      0.00      0.00      0.00      0.00 
    13.57      0.00     15.89      0.00      0.00      0.00      0.00 
    13.58      0.00     15.89      0.00      0.00      0.00      0.00 
    13.59      0.00     15.89      0.00      0.00      0.00      0.00 
    13.60      0.00     15.89      0.00      0.00      0.00      0.00 
    13.61      0.00     15.89      0.00      0.00      0.00      0.00 
    13.62      0.00     15.89      0.00      0.00      0.00      0.00 
    13.63      0.00     15.89      0.00      0.00      0.00      0.00 
    13.64      0.00     15.89      0.00      0.00      0.00      0.00 
    13.65      0.00     15.89      0.00      0.00      0.00      0.00 
    13.66      0.00     15.89      0.00      0.00      0.00      0.00 
    13.67      0.00     15.89      0.00      0.00      0.00      0.00 
    13.68      0.00     15.89      0.00      0.00      0.00      0.00 
    13.69      0.00     15.89      0.00      0.00      0.00      0.00 
    13.70      0.00     15.89      0.00      0.00      0.00      0.00 
