#Written by Robertson Geologging WinLogger V1.0/370
~VERSION INFORMATION
#------------------------------------------------------------------------------
 VERS. 2.0 : CWLS LOG ASCII STANDARD - VERSION 2.0
 WRAP. NO  : ONE LINE PER DEPTH STEP
~WELL INFORMATION
#MNEM.UNIT         DATA                                DESCRIPTION OF MNEMONIC
#------------------------------------------------------------------------------
 STRT.M         12.5800                            :   START DEPTH
 STOP.M        114.0100                            :   STOP DEPTH
 STEP.M          0.0100                            :   STEP VALUE
 NULL.        -999.2500                            :   NULL VALUE
 COMP.    White Young Green                        :   COMPANY NAME
 WELL.    Chatershaugh                             :   WELL NAME
 FLD.     Chatershaugh                             :   FIELD NAME
 LOC.     N/A                                      :   LOCATION
 PROV.    N/A                                      :   PROVINCE
 SRVC.    N/A                                      :   SERVICE COMPANY NAME
 DATE.    07 Oct 05                                :   DATE
 UWI.     N/A                                      :   UNIQUE WELL IDENTIFIER
~PARAMETER INFORMATION
#MNEMO.UNIT         VALUE                 DESCRIPTION OF MNEMONIC
#------------------------------------------------------------------------------
~OTHER INFORMATION SECTION
#------------------------------------------------------------------------------
 TCGS1365
~CURVE INFORMATION
#MNEMO.UNIT         API CODE              CURVE DESCRIPTION
#------------------------------------------------------------------------------
 DEPTH.M                                 :   0     Depth
 TEMP.DegC                               :   1     Temperature
 CN25.mS/cm                              :   2     Conductivity@25DegC
 COND.mS/cm                              :   3     Conductivity
 DELT.DegC                               :   4     Delta T
 DELC.mS/cm                              :   5     Delta C
 NGAM.CPS                                :   6     Natural Gamma
#------------------------------------------------------------------------------
~A  DEPTH     TEMP      CN25      COND      DELT      DELC      NGAM      
# ...
    99.59     15.64     14.25      9.50      0.01     -0.02      4.94 
    99.60     15.64     14.25      9.50      0.02     -0.02      5.35 
    99.61     15.64     14.25      9.50      0.02     -0.03      5.76 
    99.62     15.64     14.25      9.50      0.02     -0.03      5.76 
    99.63     15.64     14.25      9.50      0.02     -0.02      5.82 
    99.64     15.64     14.25      9.50      0.02     -0.02      5.35 
    99.65     15.64     14.25      9.50      0.01     -0.02      5.76 
    99.66     15.64     14.26      9.50      0.01     -0.01      6.29 
    99.67     15.64     14.25      9.50      0.01     -0.01      6.71 
    99.68     15.64     14.25      9.50      0.01     -0.02      6.71 
    99.69     15.64     14.25      9.50      0.01     -0.01      8.35 
    99.70     15.64     14.25      9.50      0.01     -0.01      7.53 
    99.71     15.64     14.25      9.50      0.01     -0.01      7.12 
    99.72     15.64     14.25      9.50      0.01     -0.01      7.12 
    99.73     15.64     14.25      9.50      0.01     -0.02      7.12 
    99.74     15.64     14.25      9.50      0.02     -0.02      7.53 
    99.75     15.64     14.25      9.50      0.02     -0.02      6.71 
    99.76     15.65     14.24      9.50      0.02     -0.02      6.29 
    99.77     15.65     14.24      9.50      0.02     -0.02      6.29 
    99.78     15.65     14.24      9.50      0.02     -0.02      5.88 
    99.79     15.65     14.24      9.50      0.01     -0.02      6.71 
    99.80     15.65     14.24      9.50      0.01     -0.02      6.24 
    99.81     15.65     14.24      9.50      0.01     -0.02      5.88 
    99.82     15.64     14.25      9.50      0.01     -0.02      5.47 
    99.83     15.64     14.24      9.50      0.01     -0.02      5.35 
    99.84     15.64     14.25      9.50      0.01     -0.01      4.94 
    99.85     15.64     14.25      9.50      0.01     -0.01      5.35 
    99.86     15.65     14.24      9.50      0.01     -0.01      4.12 
    99.87     15.65     14.24      9.50      0.01     -0.00      5.06 
    99.88     15.65     14.24      9.50      0.01     -0.01      4.65 
    99.89     15.65     14.24      9.50      0.01     -0.01      4.65 
    99.90     15.65     14.24      9.50      0.01     -0.01      4.65 
    99.91     15.65     14.24      9.50      0.01     -0.01      4.65 
    99.92     15.65     14.24      9.50      0.01     -0.01      4.65 
    99.93     15.65     14.24      9.50      0.01     -0.01      5.06 
    99.94     15.65     14.25      9.50      0.01     -0.01      5.47 
    99.95     15.64     14.25      9.50      0.01     -0.01      5.88 
    99.96     15.64     14.25      9.50      0.01     -0.01      5.47 
    99.97     15.64     14.26      9.50      0.00      0.00      5.47 
    99.98     15.64     14.26      9.50     -0.00      0.00      5.47 
    99.99     15.63     14.26      9.50     -0.00      0.01      5.47 
   100.00     15.63     14.26      9.50     -0.01      0.01      4.65 
   100.01     15.64     14.26      9.50     -0.01      0.01      4.65 
   100.02     15.64     14.26      9.50     -0.00      0.01      4.24 
   100.03     15.64     14.25      9.50     -0.00      0.01      4.24 
   100.04     15.64     14.25      9.50      0.00      0.00      3.29 
   100.05     15.65     14.24      9.50      0.00      0.00      3.71 
   100.06     15.65     14.24      9.50      0.01     -0.01      3.71 
   100.07     15.65     14.23      9.50      0.01     -0.01      3.29 
   100.08     15.65     14.23      9.50      0.01     -0.01      3.29 
   100.09     15.65     14.23      9.50      0.01     -0.02      4.12 
   100.10     15.65     14.23      9.50      0.02     -0.02      4.18 
   100.11     15.65     14.23      9.50      0.02     -0.02      3.76 
   100.12     15.65     14.24      9.50      0.01     -0.02      4.06 
   100.13     15.65     14.23      9.50      0.01     -0.01      4.12 
   100.14     15.65     14.24      9.50      0.00     -0.00      4.47 
   100.15     15.64     14.25      9.50     -0.00      0.01      5.29 
   100.16     15.64     14.25      9.50     -0.01      0.01      5.29 
   100.17     15.64     14.26      9.50     -0.01      0.02      5.29 
   100.18     15.63     14.26      9.50     -0.02      0.02      5.29 
   100.19     15.63     14.26      9.50     -0.02      0.02      5.65 
   100.20     15.64     14.26      9.50     -0.02      0.02      5.71 
   100.21     15.64     14.26      9.50     -0.02      0.02      6.12 
   100.22     15.64     14.26      9.50     -0.01      0.02      6.12 
   100.23     15.64     14.25      9.50     -0.01      0.02      7.35 
   100.24     15.64     14.26      9.50     -0.01      0.01      7.35 
   100.25     15.64     14.25      9.50     -0.00      0.00      6.94 
   100.26     15.64     14.25      9.50      0.00      0.00      6.53 
   100.27     15.64     14.25      9.50      0.01     -0.01      7.00 
   100.28     15.64     14.25      9.50      0.01     -0.01      6.59 
   100.29     15.65     14.24      9.50      0.01     -0.02      6.29 
   100.30     15.65     14.24      9.50      0.01     -0.02      6.65 
   100.31     15.65     14.24      9.50      0.02     -0.02      6.29 
   100.32     15.65     14.24      9.50      0.01     -0.02      5.47 
   100.33     15.65     14.24      9.50      0.01     -0.02      5.47 
   100.34     15.65     14.24      9.50      0.01     -0.02      6.29 
   100.35     15.65     14.24      9.50      0.01     -0.02      6.29 
   100.36     15.65     14.24      9.50      0.01     -0.01      5.94 
   100.37     15.64     14.24      9.50      0.00     -0.01      6.29 
   100.38     15.64     14.25      9.50      0.00      0.00      6.71 
   100.39     15.64     14.26      9.50     -0.00      0.00      6.71 
   100.40     15.64     14.25      9.50     -0.00      0.01      5.94 
   100.41     15.63     14.26      9.50     -0.01      0.01      5.94 
   100.42     15.63     14.27      9.50     -0.01      0.01      6.35 
   100.43     15.63     14.26      9.50     -0.01      0.01      5.94 
   100.44     15.63     14.26      9.50     -0.01      0.01      5.41 
   100.45     15.63     14.27      9.50     -0.01      0.01      5.82 
   100.46     15.63     14.26      9.50     -0.01      0.01      5.82 
   100.47     15.63     14.26      9.50     -0.01      0.01      5.00 
   100.48     15.64     14.26      9.50     -0.00      0.01      5.00 
   100.49     15.64     14.25      9.50      0.00     -0.00      5.41 
   100.50     15.64     14.25      9.50      0.01     -0.01      5.41 
   100.51     15.65     14.25      9.50      0.01     -0.01      4.59 
   100.52     15.65     14.24      9.50      0.01     -0.01      4.59 
   100.53     15.65     14.24      9.50      0.01     -0.01      4.59 
   100.54     15.65     14.24      9.50      0.01     -0.01      4.18 
   100.55     15.65     14.24      9.50      0.01     -0.01      4.59 
   100.56     15.65     14.24      9.50      0.01     -0.02      4.59 
   100.57     15.65     14.24      9.50      0.01     -0.02      4.53 
   100.58     15.65     14.24      9.50      0.01     -0.01      6.18 
   100.59     15.65     14.24      9.50      0.01     -0.01      5.76 
   100.60     15.65     14.24      9.50      0.01     -0.01      6.18 
   100.61     15.64     14.25      9.50      0.00      0.00      5.76 
   100.62     15.64     14.25      9.50      0.00     -0.01      5.35 
   100.63     15.64     14.25      9.50      0.00     -0.01      4.94 
   100.64     15.65     14.25      9.50      0.01     -0.00      4.94 
   100.65     15.65     14.24      9.50      0.01     -0.01      4.94 
   100.66     15.64     14.25      9.50      0.01     -0.01      5.35 
   100.67     15.64     14.25      9.50      0.00     -0.00      5.35 
   100.68     15.64     14.25      9.50      0.00     -0.01      5.76 
   100.69     15.64     14.25      9.50      0.00     -0.01      5.76 
   100.70     15.64     14.25      9.50      0.01     -0.01      7.00 
   100.71     15.65     14.25      9.50      0.01     -0.01      6.59 
