#Written by Robertson Geologging WinLogger V1.0/370
~VERSION INFORMATION
#------------------------------------------------------------------------------
 VERS. 2.0 : CWLS LOG ASCII STANDARD - VERSION 2.0
 WRAP. NO  : ONE LINE PER DEPTH STEP
~WELL INFORMATION
#MNEM.UNIT         DATA                                DESCRIPTION OF MNEMONIC
#------------------------------------------------------------------------------
 STRT.M         12.5800                            :   START DEPTH
 STOP.M        114.0100                            :   STOP DEPTH
 STEP.M          0.0100                            :   STEP VALUE
 NULL.        -999.2500                            :   NULL VALUE
 COMP.    White Young Green                        :   COMPANY NAME
 WELL.    Chatershaugh                             :   WELL NAME
 FLD.     Chatershaugh                             :   FIELD NAME
 LOC.     N/A                                      :   LOCATION
 PROV.    N/A                                      :   PROVINCE
 SRVC.    N/A                                      :   SERVICE COMPANY NAME
 DATE.    07 Oct 05                                :   DATE
 UWI.     N/A                                      :   UNIQUE WELL IDENTIFIER
~PARAMETER INFORMATION
#MNEMO.UNIT         VALUE                 DESCRIPTION OF MNEMONIC
#------------------------------------------------------------------------------
~OTHER INFORMATION SECTION
#------------------------------------------------------------------------------
 TCGS1365
~CURVE INFORMATION
#MNEMO.UNIT         API CODE              CURVE DESCRIPTION
#------------------------------------------------------------------------------
 DEPTH.M                                 :   0     Depth
 TEMP.DegC                               :   1     Temperature
 CN25.mS/cm                              :   2     Conductivity@25DegC
 COND.mS/cm                              :   3     Conductivity
 DELT.DegC                               :   4     Delta T
 DELC.mS/cm                              :   5     Delta C
 NGAM.CPS                                :   6     Natural Gamma
#------------------------------------------------------------------------------
~A  DEPTH     TEMP      CN25      COND      DELT      DELC      NGAM      
# ...
    79.25     14.81     14.11      8.48      0.23     -0.03      4.94 
    79.26     14.81     14.11      8.48      0.23     -0.04      4.94 
    79.27     14.82     14.10      8.48      0.24     -0.04      6.18 
    79.28     14.82     14.10      8.49      0.25     -0.05      6.65 
    79.29     14.83     14.09      8.49      0.25     -0.05      7.06 
    79.30     14.84     14.08      8.49      0.26     -0.06      7.06 
    79.31     14.84     14.08      8.50      0.26     -0.06      6.65 
    79.32     14.85     14.08      8.50      0.26     -0.07      6.65 
    79.33     14.85     14.08      8.50      0.26     -0.06      7.88 
    79.34     14.85     14.08      8.50      0.27     -0.07      8.29 
    79.35     14.85     14.08      8.50      0.27     -0.08      7.47 
    79.36     14.86     14.08      8.51      0.28     -0.08      6.65 
    79.37     14.86     14.07      8.51      0.28     -0.09      6.65 
    79.38     14.87     14.07      8.51      0.29     -0.09      6.65 
    79.39     14.87     14.07      8.51      0.29     -0.09      6.24 
    79.40     14.87     14.07      8.51      0.29     -0.09      6.24 
    79.41     14.87     14.07      8.52      0.29     -0.09      5.41 
    79.42     14.88     14.06      8.52      0.29     -0.09      4.59 
    79.43     14.88     14.06      8.52      0.29     -0.10      5.41 
    79.44     14.89     14.05      8.52      0.30     -0.10      5.00 
    79.45     14.89     14.05      8.53      0.30     -0.11      4.94 
    79.46     14.90     14.05      8.53      0.30     -0.10      4.53 
    79.47     14.90     14.05      8.53      0.30     -0.11      4.94 
    79.48     14.90     14.05      8.53      0.31     -0.10      4.94 
    79.49     14.91     14.05      8.54      0.31     -0.11      5.41 
    79.50     14.91     14.05      8.54      0.31     -0.11      5.00 
    79.51     14.91     14.04      8.54      0.31     -0.11      5.41 
    79.52     14.91     14.04      8.54      0.31     -0.11      6.65 
    79.53     14.92     14.04      8.54      0.31     -0.11      7.06 
    79.54     14.92     14.04      8.55      0.32     -0.11      7.06 
    79.55     14.92     14.04      8.55      0.32     -0.11      8.29 
    79.56     14.93     14.04      8.55      0.32     -0.11      9.53 
    79.57     14.93     14.04      8.56      0.32     -0.11     10.35 
    79.58     14.93     14.04      8.56      0.32     -0.11     12.00 
    79.59     14.94     14.04      8.56      0.32     -0.11     12.82 
    79.60     14.94     14.04      8.56      0.33     -0.11     12.41 
    79.61     14.94     14.03      8.56      0.33     -0.12     12.00 
    79.62     14.95     14.03      8.57      0.34     -0.12     12.00 
    79.63     14.96     14.03      8.57      0.34     -0.12     12.41 
    79.64     14.96     14.02      8.57      0.34     -0.13     12.00 
    79.65     14.96     14.02      8.57      0.35     -0.13     12.41 
    79.66     14.97     14.02      8.58      0.35     -0.13     12.76 
    79.67     14.97     14.01      8.58      0.35     -0.14     11.94 
    79.68     14.98     14.01      8.58      0.35     -0.14     11.53 
    79.69     14.98     14.00      8.58      0.36     -0.15     10.71 
    79.70     14.99     13.99      8.58      0.37     -0.16     10.29 
    79.71     15.00     13.99      8.58      0.37     -0.17     11.12 
    79.72     15.00     13.98      8.58      0.38     -0.17     11.94 
    79.73     15.01     13.98      8.59      0.38     -0.18     11.12 
    79.74     15.01     13.97      8.59      0.38     -0.19     10.29 
    79.75     15.01     13.97      8.59      0.39     -0.20      9.06 
    79.76     15.02     13.96      8.59      0.40     -0.21      8.24 
    79.77     15.02     13.96      8.59      0.40     -0.22      8.65 
    79.78     15.03     13.95      8.59      0.41     -0.23      8.65 
    79.79     15.03     13.95      8.59      0.41     -0.24      9.47 
    79.80     15.04     13.94      8.59      0.42     -0.25      9.47 
    79.81     15.04     13.94      8.59      0.42     -0.26      9.06 
    79.82     15.05     13.93      8.59      0.43     -0.28      9.06 
    79.83     15.05     13.92      8.59      0.44     -0.29      9.47 
    79.84     15.06     13.92      8.59      0.44     -0.30     11.12 
    79.85     15.06     13.91      8.59      0.45     -0.31     10.29 
    79.86     15.07     13.91      8.60      0.45     -0.32      9.88 
    79.87     15.07     13.90      8.60      0.46     -0.33     10.71 
    79.88     15.08     13.89      8.60      0.46     -0.34     10.29 
    79.89     15.08     13.89      8.60      0.46     -0.35      9.47 
    79.90     15.08     13.89      8.60      0.46     -0.35      9.06 
    79.91     15.09     13.89      8.60      0.46     -0.35      9.06 
    79.92     15.09     13.88      8.60      0.46     -0.35      9.06 
    79.93     15.09     13.88      8.60      0.46     -0.35      9.47 
    79.94     15.09     13.88      8.60      0.45     -0.35      8.65 
    79.95     15.09     13.88      8.60      0.45     -0.35      8.71 
    79.96     15.09     13.88      8.60      0.45     -0.35      8.29 
    79.97     15.09     13.88      8.60      0.44     -0.35      8.29 
    79.98     15.09     13.89      8.61      0.44     -0.34      8.71 
    79.99     15.10     13.88      8.60      0.44     -0.35      8.71 
    80.00     15.10     13.88      8.61      0.43     -0.35      8.71 
    80.01     15.10     13.88      8.61      0.43     -0.34      8.29 
    80.02     15.10     13.88      8.61      0.42     -0.34      8.29 
    80.03     15.10     13.88      8.61      0.42     -0.33      9.53 
    80.04     15.10     13.87      8.61      0.42     -0.34      9.12 
    80.05     15.11     13.87      8.61      0.42     -0.34      9.12 
    80.06     15.11     13.87      8.61      0.41     -0.33      9.12 
    80.07     15.11     13.87      8.61      0.40     -0.33      9.12 
    80.08     15.11     13.87      8.61      0.40     -0.32     11.18 
    80.09     15.11     13.87      8.61      0.39     -0.31     11.18 
    80.10     15.11     13.88      8.61      0.38     -0.30     11.18 
    80.11     15.10     13.88      8.61      0.38     -0.30     12.82 
    80.12     15.10     13.88      8.61      0.37     -0.29     14.29 
    80.13     15.10     13.88      8.61      0.36     -0.29     13.82 
    80.14     15.10     13.88      8.61      0.36     -0.29     14.24 
    80.15     15.10     13.88      8.61      0.35     -0.28     13.82 
    80.16     15.10     13.88      8.61      0.35     -0.28     13.41 
    80.17     15.10     13.88      8.61      0.35     -0.27     12.65 
    80.18     15.11     13.88      8.61      0.34     -0.27     12.65 
    80.19     15.11     13.88      8.62      0.34     -0.27     13.06 
    80.20     15.11     13.87      8.62      0.34     -0.27     12.24 
    80.21     15.11     13.87      8.62      0.33     -0.26     12.65 
    80.22     15.11     13.87      8.62      0.32     -0.25     13.06 
    80.23     15.11     13.87      8.62      0.31     -0.24     11.82 
    80.24     15.11     13.87      8.62      0.31     -0.24     11.82 
    80.25     15.12     13.87      8.62      0.30     -0.24     11.41 
    80.26     15.12     13.87      8.62      0.30     -0.23     11.82 
    80.27     15.12     13.87      8.62      0.29     -0.23     12.65 
    80.28     15.12     13.87      8.62      0.29     -0.22     11.41 
    80.29     15.12     13.87      8.62      0.28     -0.21      9.88 
    80.30     15.12     13.87      8.62      0.28     -0.21     11.18 
    80.31     15.12     13.87      8.62      0.27     -0.21     10.76 
    80.32     15.12     13.86      8.62      0.27     -0.22     10.76 
    80.33     15.13     13.86      8.62      0.28     -0.22     11.47 
    80.34     15.13     13.86      8.62      0.28     -0.22     12.47 
    80.35     15.13     13.85      8.62      0.27     -0.22     12.47 
    80.36     15.13     13.85      8.62      0.27     -0.22     12.47 
    80.37     15.13     13.85      8.62      0.27     -0.22     12.88 
