#Written by Robertson Geologging WinLogger V1.0/370
~VERSION INFORMATION
#------------------------------------------------------------------------------
 VERS. 2.0 : CWLS LOG ASCII STANDARD - VERSION 2.0
 WRAP. NO  : ONE LINE PER DEPTH STEP
~WELL INFORMATION
#MNEM.UNIT         DATA                                DESCRIPTION OF MNEMONIC
#------------------------------------------------------------------------------
 STRT.M         12.5800                            :   START DEPTH
 STOP.M        114.0100                            :   STOP DEPTH
 STEP.M          0.0100                            :   STEP VALUE
 NULL.        -999.2500                            :   NULL VALUE
 COMP.    White Young Green                        :   COMPANY NAME
 WELL.    Chatershaugh                             :   WELL NAME
 FLD.     Chatershaugh                             :   FIELD NAME
 LOC.     N/A                                      :   LOCATION
 PROV.    N/A                                      :   PROVINCE
 SRVC.    N/A                                      :   SERVICE COMPANY NAME
 DATE.    07 Oct 05                                :   DATE
 UWI.     N/A                                      :   UNIQUE WELL IDENTIFIER
~PARAMETER INFORMATION
#MNEMO.UNIT         VALUE                 DESCRIPTION OF MNEMONIC
#------------------------------------------------------------------------------
~OTHER INFORMATION SECTION
#------------------------------------------------------------------------------
 TCGS1365
~CURVE INFORMATION
#MNEMO.UNIT         API CODE              CURVE DESCRIPTION
#------------------------------------------------------------------------------
 DEPTH.M                                 :   0     Depth
 TEMP.DegC                               :   1     Temperature
 CN25.mS/cm                              :   2     Conductivity@25DegC
 COND.mS/cm                              :   3     Conductivity
 DELT.DegC                               :   4     Delta T
 DELC.mS/cm                              :   5     Delta C
 NGAM.CPS                                :   6     Natural Gamma
#------------------------------------------------------------------------------
~A  DEPTH     TEMP      CN25      COND      DELT      DELC      NGAM      
# ...
   106.37     15.62     14.28      9.50     -0.02      0.02     10.35 
   106.38     15.62     14.28      9.50     -0.02      0.02     10.35 
   106.39     15.62     14.28      9.50     -0.01      0.02     10.76 
   106.40     15.62     14.27      9.50     -0.01      0.01     10.76 
   106.41     15.63     14.27      9.50     -0.00      0.01     10.76 
   106.42     15.63     14.27      9.50     -0.00      0.00      9.94 
   106.43     15.63     14.27      9.50     -0.00     -0.00      8.29 
   106.44     15.63     14.26      9.50      0.00      0.00      8.71 
   106.45     15.63     14.26      9.50      0.00     -0.00      8.82 
   106.46     15.63     14.26      9.50      0.00     -0.01      8.82 
   106.47     15.63     14.26      9.50      0.01     -0.01      9.65 
   106.48     15.63     14.26      9.50      0.01     -0.01      8.82 
   106.49     15.63     14.26      9.50      0.00     -0.01      8.82 
   106.50     15.63     14.26      9.50      0.00     -0.00      9.65 
   106.51     15.63     14.26      9.50     -0.00      0.01      9.65 
   106.52     15.63     14.26      9.50     -0.01      0.01     10.47 
   106.53     15.63     14.27      9.50     -0.01      0.01     10.06 
   106.54     15.62     14.27      9.50     -0.01      0.02     10.41 
   106.55     15.62     14.28      9.50     -0.01      0.02     10.82 
   106.56     15.62     14.28      9.50     -0.02      0.03     10.82 
   106.57     15.61     14.28      9.50     -0.02      0.03     11.29 
   106.58     15.61     14.29      9.50     -0.02      0.03     12.12 
   106.59     15.61     14.29      9.50     -0.02      0.03     13.35 
   106.60     15.61     14.29      9.50     -0.02      0.03     13.76 
   106.61     15.61     14.28      9.50     -0.02      0.02     12.94 
   106.62     15.61     14.28      9.50     -0.01      0.02     12.00 
   106.63     15.61     14.29      9.50     -0.01      0.02     12.00 
   106.64     15.61     14.28      9.50     -0.01      0.01     11.18 
   106.65     15.61     14.28      9.50     -0.01      0.01     11.59 
   106.66     15.62     14.29      9.50     -0.00      0.01     12.82 
   106.67     15.62     14.28      9.50      0.00     -0.00     12.00 
   106.68     15.62     14.28      9.50      0.00     -0.00     12.94 
   106.69     15.62     14.28      9.50      0.00     -0.00     11.71 
   106.70     15.61     14.29      9.50      0.00      0.00     12.12 
   106.71     15.61     14.28      9.50      0.00     -0.00     11.29 
   106.72     15.61     14.29      9.50      0.00      0.00     11.29 
   106.73     15.62     14.28      9.50      0.00      0.00     11.29 
   106.74     15.62     14.28      9.50     -0.00     -0.00     11.24 
   106.75     15.62     14.28      9.50     -0.00      0.00     10.82 
   106.76     15.62     14.28      9.50     -0.00      0.01     10.00 
   106.77     15.62     14.28      9.50     -0.01      0.01     10.00 
   106.78     15.62     14.28      9.50     -0.01      0.01     10.41 
   106.79     15.62     14.27      9.50     -0.01      0.01     10.82 
   106.80     15.62     14.27      9.50     -0.01      0.01     11.65 
   106.81     15.62     14.27      9.50     -0.01      0.01     11.24 
   106.82     15.63     14.27      9.50     -0.00      0.00     12.47 
   106.83     15.63     14.27      9.50     -0.00      0.00     10.41 
   106.84     15.63     14.27      9.50     -0.00      0.01     10.47 
   106.85     15.63     14.27      9.50     -0.00      0.00      9.94 
   106.86     15.63     14.27      9.50      0.00     -0.00      9.94 
   106.87     15.63     14.27      9.50      0.00      0.00      9.12 
   106.88     15.63     14.27      9.50      0.00     -0.00      9.53 
   106.89     15.62     14.27      9.50     -0.00     -0.00      8.29 
   106.90     15.62     14.27      9.50     -0.00      0.00      7.47 
   106.91     15.63     14.27      9.50     -0.00     -0.00      7.53 
   106.92     15.63     14.27      9.50     -0.00      0.00      8.35 
   106.93     15.63     14.27      9.50     -0.00      0.00      8.76 
   106.94     15.63     14.27      9.50      0.00     -0.00      9.18 
   106.95     15.63     14.26      9.50      0.00     -0.00      9.59 
   106.96     15.63     14.27      9.50      0.00     -0.00      9.18 
   106.97     15.63     14.27      9.50      0.00     -0.01      8.35 
   106.98     15.63     14.26      9.50      0.01     -0.01     10.29 
   106.99     15.63     14.27      9.50      0.01     -0.01      9.06 
   107.00     15.63     14.26      9.50      0.01     -0.01      9.47 
   107.01     15.63     14.27      9.50      0.00     -0.01      9.82 
   107.02     15.63     14.27      9.50      0.00     -0.00      9.82 
   107.03     15.63     14.27      9.50      0.00     -0.00     10.65 
   107.04     15.63     14.27      9.50      0.00     -0.00     10.65 
   107.05     15.63     14.27      9.50     -0.00      0.01     10.65 
   107.06     15.63     14.27      9.50     -0.00      0.00     11.88 
   107.07     15.63     14.27      9.50     -0.00      0.00     12.71 
   107.08     15.62     14.27      9.50     -0.01      0.01     12.71 
   107.09     15.63     14.27      9.50     -0.01      0.01     11.88 
   107.10     15.63     14.27      9.50     -0.00      0.00     11.76 
   107.11     15.63     14.27      9.50     -0.00      0.01     10.94 
   107.12     15.63     14.26      9.50      0.00     -0.00     10.12 
   107.13     15.63     14.26      9.50      0.00     -0.00     10.12 
   107.14     15.63     14.26      9.50      0.00     -0.00     10.94 
   107.15     15.63     14.26      9.50      0.00      0.00      9.00 
   107.16     15.63     14.26      9.50      0.00     -0.00      9.00 
   107.17     15.63     14.26      9.50      0.00     -0.00      8.59 
   107.18     15.63     14.26      9.50      0.00     -0.00      8.18 
   107.19     15.63     14.26      9.50      0.00     -0.01      7.76 
   107.20     15.63     14.26      9.50      0.01     -0.01      6.94 
   107.21     15.63     14.26      9.50      0.01     -0.01      6.94 
   107.22     15.64     14.26      9.50      0.01     -0.01      6.94 
   107.23     15.64     14.26      9.50      0.01     -0.01      5.71 
   107.24     15.64     14.26      9.50      0.01     -0.02      5.29 
   107.25     15.63     14.26      9.50      0.01     -0.01      5.24 
   107.26     15.63     14.26      9.50      0.01     -0.02      4.82 
   107.27     15.63     14.26      9.50      0.01     -0.02      4.53 
   107.28     15.63     14.26      9.50      0.02     -0.02      4.53 
   107.29     15.63     14.26      9.50      0.02     -0.02      6.18 
   107.30     15.63     14.26      9.50      0.02     -0.02      6.59 
   107.31     15.63     14.26      9.50      0.01     -0.02      5.35 
   107.32     15.63     14.26      9.50      0.01     -0.02      6.18 
   107.33     15.63     14.27      9.50      0.01     -0.01      6.18 
   107.34     15.63     14.27      9.50      0.01     -0.01      6.59 
   107.35     15.63     14.27      9.50      0.01     -0.01      6.18 
   107.36     15.63     14.27      9.50      0.01     -0.01      6.18 
   107.37     15.63     14.27      9.50      0.01     -0.01      6.53 
   107.38     15.63     14.27      9.50      0.01     -0.01      6.12 
   107.39     15.63     14.26      9.50      0.01     -0.01      5.71 
   107.40     15.63     14.27      9.50      0.00     -0.01      5.71 
   107.41     15.63     14.26      9.50      0.00     -0.00      5.71 
   107.42     15.63     14.27      9.50     -0.00      0.00      5.71 
   107.43     15.63     14.27      9.50     -0.00      0.01      5.71 
   107.44     15.63     14.27      9.50     -0.00      0.00      5.29 
   107.45     15.63     14.27      9.50     -0.00      0.01      5.29 
   107.46     15.63     14.27      9.50     -0.01      0.01      3.65 
   107.47     15.63     14.27      9.50     -0.01      0.01      3.24 
   107.48     15.63     14.27      9.50     -0.01      0.02      3.65 
   107.49     15.62     14.28      9.50     -0.01      0.02      2.82 
