#Written by Robertson Geologging WinLogger V1.0/370
~VERSION INFORMATION
#------------------------------------------------------------------------------
 VERS. 2.0 : CWLS LOG ASCII STANDARD - VERSION 2.0
 WRAP. NO  : ONE LINE PER DEPTH STEP
~WELL INFORMATION
#MNEM.UNIT         DATA                                DESCRIPTION OF MNEMONIC
#------------------------------------------------------------------------------
 STRT.M         12.5800                            :   START DEPTH
 STOP.M        114.0100                            :   STOP DEPTH
 STEP.M          0.0100                            :   STEP VALUE
 NULL.        -999.2500                            :   NULL VALUE
 COMP.    White Young Green                        :   COMPANY NAME
 WELL.    Chatershaugh                             :   WELL NAME
 FLD.     Chatershaugh                             :   FIELD NAME
 LOC.     N/A                                      :   LOCATION
 PROV.    N/A                                      :   PROVINCE
 SRVC.    N/A                                      :   SERVICE COMPANY NAME
 DATE.    07 Oct 05                                :   DATE
 UWI.     N/A                                      :   UNIQUE WELL IDENTIFIER
~PARAMETER INFORMATION
#MNEMO.UNIT         VALUE                 DESCRIPTION OF MNEMONIC
#------------------------------------------------------------------------------
~OTHER INFORMATION SECTION
#------------------------------------------------------------------------------
 TCGS1365
~CURVE INFORMATION
#MNEMO.UNIT         API CODE              CURVE DESCRIPTION
#------------------------------------------------------------------------------
 DEPTH.M                                 :   0     Depth
 TEMP.DegC                               :   1     Temperature
 CN25.mS/cm                              :   2     Conductivity@25DegC
 COND.mS/cm                              :   3     Conductivity
 DELT.DegC                               :   4     Delta T
 DELC.mS/cm                              :   5     Delta C
 NGAM.CPS                                :   6     Natural Gamma
#------------------------------------------------------------------------------
~A  DEPTH     TEMP      CN25      COND      DELT      DELC      NGAM      
# ...
    86.03     15.39     13.65      8.74     -0.01      0.01     11.76 
    86.04     15.39     13.65      8.74     -0.01      0.01     11.35 
    86.05     15.39     13.65      8.74     -0.01      0.02     11.76 
    86.06     15.39     13.65      8.74     -0.01      0.02     11.35 
    86.07     15.39     13.65      8.74     -0.01      0.02     10.53 
    86.08     15.40     13.65      8.74     -0.01      0.01      9.47 
    86.09     15.40     13.64      8.74     -0.00      0.01      9.47 
    86.10     15.40     13.64      8.74     -0.00      0.01      9.47 
    86.11     15.40     13.64      8.74     -0.00      0.01      9.88 
    86.12     15.40     13.64      8.74     -0.00      0.01      9.88 
    86.13     15.40     13.64      8.74     -0.00      0.01      8.24 
    86.14     15.40     13.64      8.74      0.00      0.00      8.65 
    86.15     15.40     13.64      8.74      0.00     -0.00      8.65 
    86.16     15.40     13.64      8.74      0.01     -0.01      7.82 
    86.17     15.40     13.64      8.74      0.01     -0.01      8.65 
    86.18     15.40     13.64      8.74      0.01     -0.01      8.24 
    86.19     15.40     13.64      8.74      0.01     -0.01      9.06 
    86.20     15.40     13.64      8.74      0.01     -0.01      8.24 
    86.21     15.40     13.64      8.74      0.01     -0.01      8.24 
    86.22     15.40     13.65      8.74      0.01     -0.01      7.82 
    86.23     15.39     13.65      8.74      0.01     -0.01      7.82 
    86.24     15.39     13.65      8.74      0.01     -0.00      7.82 
    86.25     15.39     13.66      8.74      0.01     -0.00      8.24 
    86.26     15.39     13.66      8.74      0.01     -0.00      7.82 
    86.27     15.39     13.66      8.74      0.01     -0.00      8.24 
    86.28     15.39     13.66      8.74      0.01     -0.00      7.82 
    86.29     15.39     13.66      8.74      0.01     -0.01      8.65 
    86.30     15.39     13.65      8.74      0.01     -0.01      9.06 
    86.31     15.39     13.65      8.74      0.01     -0.02      8.65 
    86.32     15.39     13.66      8.74      0.01     -0.01      9.47 
    86.33     15.39     13.65      8.74      0.01     -0.01      9.06 
    86.34     15.39     13.65      8.74      0.02     -0.02      8.65 
    86.35     15.39     13.65      8.74      0.02     -0.02      9.47 
    86.36     15.40     13.64      8.74      0.02     -0.02     10.29 
    86.37     15.40     13.64      8.74      0.02     -0.03     10.29 
    86.38     15.40     13.64      8.74      0.02     -0.03      9.88 
    86.39     15.40     13.64      8.74      0.02     -0.03     10.29 
    86.40     15.40     13.63      8.74      0.02     -0.03     10.29 
    86.41     15.41     13.63      8.74      0.02     -0.03     10.29 
    86.42     15.41     13.63      8.74      0.02     -0.03     10.29 
    86.43     15.41     13.62      8.74      0.02     -0.04     10.29 
    86.44     15.41     13.62      8.74      0.03     -0.04     10.29 
    86.45     15.41     13.62      8.74      0.03     -0.04     11.94 
    86.46     15.41     13.62      8.74      0.03     -0.04     11.12 
    86.47     15.41     13.62      8.74      0.03     -0.04     11.12 
    86.48     15.41     13.62      8.74      0.03     -0.04     11.12 
    86.49     15.41     13.62      8.74      0.03     -0.04     10.29 
    86.50     15.41     13.63      8.74      0.03     -0.03     11.12 
    86.51     15.41     13.63      8.74      0.03     -0.03     11.94 
    86.52     15.40     13.63      8.74      0.02     -0.03     11.12 
    86.53     15.40     13.64      8.74      0.02     -0.02      9.47 
    86.54     15.40     13.65      8.74      0.02     -0.02      8.65 
    86.55     15.39     13.65      8.74      0.01     -0.02      9.06 
    86.56     15.39     13.65      8.74      0.01     -0.02      8.65 
    86.57     15.39     13.65      8.74      0.01     -0.01      9.06 
    86.58     15.39     13.66      8.74      0.01     -0.01      9.06 
    86.59     15.38     13.66      8.74      0.01     -0.01      9.06 
    86.60     15.38     13.67      8.74      0.01     -0.01      9.47 
    86.61     15.38     13.67      8.74      0.01     -0.00      9.88 
    86.62     15.38     13.67      8.74      0.00     -0.00      8.24 
    86.63     15.38     13.67      8.74      0.00     -0.00      9.47 
    86.64     15.38     13.66      8.74      0.00     -0.00      9.88 
    86.65     15.39     13.66      8.74      0.00      0.00      9.47 
    86.66     15.39     13.66      8.74      0.00      0.00      9.06 
    86.67     15.39     13.66      8.74     -0.00      0.00      8.24 
    86.68     15.39     13.66      8.74     -0.00      0.00      7.41 
    86.69     15.39     13.65      8.74     -0.00      0.00      7.41 
    86.70     15.39     13.65      8.74     -0.00      0.00      9.06 
    86.71     15.39     13.65      8.74     -0.00      0.00      9.47 
    86.72     15.39     13.65      8.74     -0.00      0.00      9.06 
    86.73     15.39     13.65      8.74     -0.00      0.00      8.65 
    86.74     15.39     13.65      8.74     -0.00      0.01      9.06 
    86.75     15.39     13.66      8.74     -0.00      0.01      9.06 
    86.76     15.39     13.66      8.74     -0.00      0.01      8.65 
    86.77     15.39     13.66      8.74     -0.00      0.01      7.82 
    86.78     15.39     13.66      8.74     -0.00      0.01      6.59 
    86.79     15.39     13.65      8.74     -0.00      0.00      6.59 
    86.80     15.39     13.65      8.74      0.00      0.00      5.35 
    86.81     15.39     13.65      8.74      0.00     -0.00      5.47 
    86.82     15.39     13.65      8.74      0.01     -0.00      5.88 
    86.83     15.39     13.65      8.74      0.01     -0.01      6.29 
    86.84     15.39     13.65      8.74      0.01     -0.01      6.29 
    86.85     15.39     13.65      8.74      0.01     -0.01      6.29 
    86.86     15.39     13.65      8.74      0.01     -0.01      5.88 
    86.87     15.39     13.65      8.74      0.01     -0.01      4.24 
    86.88     15.39     13.66      8.74      0.01     -0.00      5.06 
    86.89     15.39     13.66      8.74      0.00     -0.00      5.47 
    86.90     15.38     13.66      8.74     -0.00      0.00      6.71 
    86.91     15.38     13.66      8.74     -0.01      0.01      6.29 
    86.92     15.38     13.66      8.74     -0.01      0.01      6.71 
    86.93     15.39     13.66      8.74     -0.01      0.01      6.71 
    86.94     15.39     13.66      8.74     -0.00      0.00      7.53 
    86.95     15.39     13.66      8.74     -0.00      0.00      9.18 
    86.96     15.39     13.66      8.74     -0.00      0.00     10.41 
    86.97     15.39     13.66      8.74      0.00      0.00     11.24 
    86.98     15.39     13.66      8.74      0.00      0.00     11.12 
    86.99     15.39     13.65      8.74      0.00     -0.00     10.71 
    87.00     15.40     13.64      8.74      0.01     -0.01     10.71 
    87.01     15.40     13.64      8.74      0.01     -0.01     11.12 
    87.02     15.40     13.64      8.74      0.01     -0.01     13.18 
    87.03     15.40     13.64      8.74      0.01     -0.02     13.59 
    87.04     15.40     13.64      8.74      0.01     -0.01     14.53 
    87.05     15.40     13.64      8.74      0.00     -0.01     13.71 
    87.06     15.40     13.65      8.74      0.00     -0.00     13.71 
    87.07     15.40     13.65      8.74      0.00      0.00     13.29 
    87.08     15.40     13.64      8.74     -0.00      0.00     13.71 
    87.09     15.40     13.65      8.74     -0.00      0.00     14.94 
    87.10     15.39     13.65      8.74     -0.00      0.00     14.94 
    87.11     15.39     13.65      8.74     -0.01      0.01     14.59 
    87.12     15.39     13.66      8.74     -0.01      0.01     12.94 
    87.13     15.39     13.66      8.74     -0.01      0.01     12.53 
    87.14     15.39     13.66      8.74     -0.01      0.02     12.12 
    87.15     15.39     13.66      8.74     -0.01      0.02     12.12 
