#Written by Robertson Geologging WinLogger V1.0/370
~VERSION INFORMATION
#------------------------------------------------------------------------------
 VERS. 2.0 : CWLS LOG ASCII STANDARD - VERSION 2.0
 WRAP. NO  : ONE LINE PER DEPTH STEP
~WELL INFORMATION
#MNEM.UNIT         DATA                                DESCRIPTION OF MNEMONIC
#------------------------------------------------------------------------------
 STRT.M         12.5800                            :   START DEPTH
 STOP.M        114.0100                            :   STOP DEPTH
 STEP.M          0.0100                            :   STEP VALUE
 NULL.        -999.2500                            :   NULL VALUE
 COMP.    White Young Green                        :   COMPANY NAME
 WELL.    Chatershaugh                             :   WELL NAME
 FLD.     Chatershaugh                             :   FIELD NAME
 LOC.     N/A                                      :   LOCATION
 PROV.    N/A                                      :   PROVINCE
 SRVC.    N/A                                      :   SERVICE COMPANY NAME
 DATE.    07 Oct 05                                :   DATE
 UWI.     N/A                                      :   UNIQUE WELL IDENTIFIER
~PARAMETER INFORMATION
#MNEMO.UNIT         VALUE                 DESCRIPTION OF MNEMONIC
#------------------------------------------------------------------------------
~OTHER INFORMATION SECTION
#------------------------------------------------------------------------------
 TCGS1365
~CURVE INFORMATION
#MNEMO.UNIT         API CODE              CURVE DESCRIPTION
#------------------------------------------------------------------------------
 DEPTH.M                                 :   0     Depth
 TEMP.DegC                               :   1     Temperature
 CN25.mS/cm                              :   2     Conductivity@25DegC
 COND.mS/cm                              :   3     Conductivity
 DELT.DegC                               :   4     Delta T
 DELC.mS/cm                              :   5     Delta C
 NGAM.CPS                                :   6     Natural Gamma
#------------------------------------------------------------------------------
~A  DEPTH     TEMP      CN25      COND      DELT      DELC      NGAM      
# ...
   113.15     15.64     14.26      9.50     -0.00      0.01      6.12 
   113.16     15.64     14.26      9.50     -0.00      0.01      6.53 
   113.17     15.63     14.26      9.50     -0.01      0.01      6.94 
   113.18     15.63     14.26      9.50     -0.01      0.02      7.29 
   113.19     15.63     14.27      9.50     -0.01      0.02      6.47 
   113.20     15.63     14.27      9.50     -0.01      0.02      5.65 
   113.21     15.63     14.27      9.50     -0.01      0.02      6.06 
   113.22     15.63     14.27      9.50     -0.01      0.02      6.06 
   113.23     15.63     14.27      9.50     -0.01      0.02      6.88 
   113.24     15.63     14.27      9.50     -0.01      0.02      6.41 
   113.25     15.63     14.27      9.50     -0.01      0.02      6.41 
   113.26     15.63     14.27      9.50     -0.00      0.01      6.41 
   113.27     15.63     14.26      9.50      0.00      0.00      6.41 
   113.28     15.64     14.26      9.50      0.01     -0.01      6.00 
   113.29     15.64     14.25      9.50      0.01     -0.01      6.41 
   113.30     15.64     14.25      9.50      0.01     -0.02      6.06 
   113.31     15.64     14.25      9.50      0.01     -0.01      6.47 
   113.32     15.64     14.25      9.50      0.01     -0.01      6.88 
   113.33     15.64     14.25      9.50      0.01     -0.01      6.88 
   113.34     15.64     14.25      9.50      0.01     -0.01      6.47 
   113.35     15.64     14.25      9.50      0.01     -0.02      6.12 
   113.36     15.64     14.24      9.50      0.01     -0.02      6.12 
   113.37     15.64     14.25      9.50      0.01     -0.01      6.12 
   113.38     15.64     14.25      9.50      0.00     -0.01      5.29 
   113.39     15.64     14.25      9.50      0.00     -0.01      5.29 
   113.40     15.64     14.25      9.50      0.00     -0.00      4.47 
   113.41     15.64     14.25      9.50      0.01     -0.01      4.12 
   113.42     15.64     14.25      9.50      0.01     -0.01      3.71 
   113.43     15.64     14.25      9.50      0.01     -0.01      3.71 
   113.44     15.64     14.25      9.50      0.00     -0.00      4.12 
   113.45     15.64     14.26      9.50      0.00     -0.00      4.12 
   113.46     15.63     14.26      9.50     -0.00      0.01      3.29 
   113.47     15.63     14.27      9.50     -0.00      0.01      3.71 
   113.48     15.63     14.27      9.50     -0.00      0.01      4.12 
   113.49     15.63     14.26      9.50     -0.00      0.01      4.12 
   113.50     15.63     14.27      9.50     -0.00      0.01      3.29 
   113.51     15.63     14.27      9.50     -0.00      0.00      3.29 
   113.52     15.63     14.28      9.50     -0.01      0.01      3.71 
   113.53     15.62     14.28      9.50     -0.01      0.01      3.71 
   113.54     15.63     14.27      9.50     -0.01      0.01      3.71 
   113.55     15.63     14.27      9.50     -0.01      0.01      3.71 
   113.56     15.63     14.27      9.50     -0.01      0.01      4.12 
   113.57     15.63     14.27      9.50     -0.01      0.01      4.12 
   113.58     15.63     14.27      9.50     -0.01      0.01      4.12 
   113.59     15.63     14.27      9.50     -0.01      0.01      4.12 
   113.60     15.63     14.27      9.50     -0.01      0.01      4.12 
   113.61     15.63     14.27      9.50     -0.01      0.02      4.12 
   113.62     15.63     14.27      9.50     -0.01      0.02      3.71 
   113.63     15.63     14.27      9.50     -0.01      0.01      3.71 
   113.64     15.62     14.27      9.50     -0.01      0.02      4.35 
   113.65     15.62     14.28      9.50     -0.01      0.01      3.94 
   113.66     15.62     14.28      9.50     -0.01      0.01      3.53 
   113.67     15.62     14.27      9.50     -0.00      0.00      3.94 
   113.68     15.63     14.27      9.50     -0.00     -0.00      3.94 
   113.69     15.63     14.27      9.50     -0.00      0.00      3.88 
   113.70     15.63     14.27      9.50     -0.00      0.00      3.47 
   113.71     15.62     14.28      9.50     -0.00      0.01      3.06 
   113.72     15.62     14.28      9.50     -0.01      0.00      3.06 
   113.73     15.62     14.27      9.50     -0.00      0.01      3.71 
   113.74     15.63     14.27      9.50     -0.01      0.01      4.12 
   113.75     15.63     14.27      9.50     -0.01      0.00      4.12 
   113.76     15.63     14.27      9.50     -0.00      0.01      4.12 
   113.77     15.64     14.26      9.50     -0.01      0.00      4.12 
   113.78     15.64     14.26      9.50     -0.00      0.01      4.06 
   113.79     15.64     14.26      9.50     -0.01      0.01      4.88 
   113.80     15.64     14.25      9.50     -0.01      0.00      4.88 
   113.81     15.64     14.25      9.50     -0.00      0.01      4.24 
   113.82     15.64     14.25      9.50     -0.00      0.01      4.18 
   113.83     15.64     14.25      9.50     -0.00      0.00      4.18 
   113.84     15.64     14.25      9.50     -0.00      0.00      3.76 
   113.85     15.65     14.25      9.50     -0.00      0.00      3.76 
   113.86     15.65     14.25      9.50     -0.00      0.00      3.41 
   113.87     15.64     14.25      9.50     -0.00      0.00      3.41 
   113.88     15.64     14.25      9.50     -0.00      0.01      3.41 
   113.89     15.64     14.26      9.50     -0.01      0.01      3.41 
   113.90     15.64     14.25      9.50     -0.01      0.01      2.35 
   113.91     15.64     14.26      9.50     -0.01      0.02      1.94 
   113.92     15.64     14.26      9.50     -0.01      0.01      1.94 
   113.93     15.64     14.26      9.50     -0.01      0.01      1.94 
   113.94     15.64     14.26      9.50     -0.01      0.01      2.35 
   113.95     15.64     14.26      9.50     -0.01      0.01      2.35 
   113.96     15.63     14.26      9.50     -0.00      0.01      1.53 
   113.97     15.63     14.26      9.50     -0.00      0.01      1.94 
   113.98     15.63     14.26      9.50     -0.00      0.01      1.53 
   113.99     15.63     14.26      9.50     -0.00      0.00      1.18 
   114.00     15.64     14.26      9.50     -0.00      0.00      1.18 
   114.01     15.64     14.26      9.50     -0.00      0.00      1.59 
