#Written by Robertson Geologging WinLogger V1.0/370
~VERSION INFORMATION
#------------------------------------------------------------------------------
 VERS. 2.0 : CWLS LOG ASCII STANDARD - VERSION 2.0
 WRAP. NO  : ONE LINE PER DEPTH STEP
~WELL INFORMATION
#MNEM.UNIT         DATA                                DESCRIPTION OF MNEMONIC
#------------------------------------------------------------------------------
 STRT.M         12.5800                            :   START DEPTH
 STOP.M        114.0100                            :   STOP DEPTH
 STEP.M          0.0100                            :   STEP VALUE
 NULL.        -999.2500                            :   NULL VALUE
 COMP.    White Young Green                        :   COMPANY NAME
 WELL.    Chatershaugh                             :   WELL NAME
 FLD.     Chatershaugh                             :   FIELD NAME
 LOC.     N/A                                      :   LOCATION
 PROV.    N/A                                      :   PROVINCE
 SRVC.    N/A                                      :   SERVICE COMPANY NAME
 DATE.    07 Oct 05                                :   DATE
 UWI.     N/A                                      :   UNIQUE WELL IDENTIFIER
~PARAMETER INFORMATION
#MNEMO.UNIT         VALUE                 DESCRIPTION OF MNEMONIC
#------------------------------------------------------------------------------
~OTHER INFORMATION SECTION
#------------------------------------------------------------------------------
 TCGS1365
~CURVE INFORMATION
#MNEMO.UNIT         API CODE              CURVE DESCRIPTION
#------------------------------------------------------------------------------
 DEPTH.M                                 :   0     Depth
 TEMP.DegC                               :   1     Temperature
 CN25.mS/cm                              :   2     Conductivity@25DegC
 COND.mS/cm                              :   3     Conductivity
 DELT.DegC                               :   4     Delta T
 DELC.mS/cm                              :   5     Delta C
 NGAM.CPS                                :   6     Natural Gamma
#------------------------------------------------------------------------------
~A  DEPTH     TEMP      CN25      COND      DELT      DELC      NGAM      
# ...
    65.69     14.01     12.74      6.60      0.04      0.58      4.65 
    65.70     14.01     12.75      6.60      0.04      0.58      3.41 
    65.71     14.02     12.75      6.60      0.04      0.57      2.47 
    65.72     14.02     12.75      6.61      0.04      0.57      2.47 
    65.73     14.02     12.75      6.61      0.04      0.56      2.88 
    65.74     14.02     12.76      6.62      0.05      0.56      2.47 
    65.75     14.02     12.76      6.63      0.05      0.56      2.88 
    65.76     14.03     12.77      6.63      0.05      0.55      2.88 
    65.77     14.03     12.77      6.63      0.05      0.55      3.29 
    65.78     14.03     12.77      6.64      0.06      0.54      3.29 
    65.79     14.03     12.77      6.64      0.06      0.54      3.29 
    65.80     14.03     12.78      6.65      0.06      0.54      3.29 
    65.81     14.04     12.77      6.65      0.06      0.53      3.29 
    65.82     14.04     12.78      6.65      0.06      0.52      3.29 
    65.83     14.04     12.78      6.65      0.06      0.52      3.71 
    65.84     14.04     12.79      6.66      0.06      0.52      3.71 
    65.85     14.04     12.79      6.66      0.06      0.51      4.12 
    65.86     14.03     12.80      6.66      0.05      0.51      4.12 
    65.87     14.03     12.80      6.66      0.05      0.51      4.12 
    65.88     14.03     12.81      6.67      0.05      0.51      4.53 
    65.89     14.03     12.81      6.67      0.05      0.50      4.94 
    65.90     14.03     12.82      6.67      0.05      0.50      5.35 
    65.91     14.03     12.82      6.67      0.05      0.49      6.18 
    65.92     14.03     12.83      6.68      0.05      0.49      5.76 
    65.93     14.03     12.83      6.68      0.05      0.49      8.24 
    65.94     14.02     12.84      6.68      0.05      0.48      7.82 
    65.95     14.02     12.84      6.69      0.05      0.48      7.88 
    65.96     14.02     12.84      6.69      0.05      0.47      8.71 
    65.97     14.03     12.85      6.69      0.05      0.47      9.94 
    65.98     14.03     12.85      6.70      0.05      0.47     10.76 
    65.99     14.03     12.85      6.70      0.05      0.47     10.76 
    66.00     14.03     12.86      6.70      0.05      0.47     10.35 
    66.01     14.03     12.86      6.71      0.04      0.47     10.35 
    66.02     14.03     12.87      6.71      0.04      0.47      9.53 
    66.03     14.03     12.87      6.72      0.04      0.46      9.12 
    66.04     14.04     12.87      6.72      0.05      0.46      9.12 
    66.05     14.04     12.87      6.72      0.05      0.46      9.12 
    66.06     14.04     12.88      6.73      0.05      0.46      9.53 
    66.07     14.04     12.88      6.73      0.04      0.46      9.94 
    66.08     14.04     12.89      6.74      0.04      0.47      9.53 
    66.09     14.04     12.89      6.74      0.04      0.46      9.53 
    66.10     14.04     12.90      6.75      0.04      0.47      7.47 
    66.11     14.04     12.91      6.75      0.04      0.47      7.88 
    66.12     14.04     12.91      6.75      0.04      0.47      8.24 
    66.13     14.04     12.92      6.76      0.03      0.47      8.65 
    66.14     14.03     12.93      6.76      0.03      0.48      7.82 
    66.15     14.03     12.94      6.77      0.03      0.48      7.41 
    66.16     14.03     12.94      6.77      0.03      0.48      7.82 
    66.17     14.03     12.95      6.77      0.03      0.48      8.24 
    66.18     14.03     12.95      6.78      0.03      0.47      8.65 
    66.19     14.03     12.95      6.78      0.04      0.47      8.65 
    66.20     14.04     12.95      6.79      0.04      0.46      8.65 
    66.21     14.04     12.95      6.79      0.04      0.46      9.06 
    66.22     14.04     12.95      6.79      0.05      0.45      9.06 
    66.23     14.04     12.95      6.79      0.05      0.45      7.82 
    66.24     14.05     12.95      6.80      0.05      0.45      7.82 
    66.25     14.05     12.95      6.80      0.05      0.44      7.41 
    66.26     14.05     12.96      6.80      0.05      0.44      8.24 
    66.27     14.05     12.96      6.80      0.05      0.44      7.82 
    66.28     14.05     12.96      6.81      0.05      0.44      7.41 
    66.29     14.05     12.97      6.81      0.05      0.44      7.41 
    66.30     14.05     12.97      6.81      0.05      0.44      6.59 
    66.31     14.05     12.97      6.81      0.05      0.43      7.00 
    66.32     14.05     12.97      6.82      0.05      0.43      7.41 
    66.33     14.05     12.98      6.82      0.06      0.43      6.59 
    66.34     14.06     12.97      6.82      0.06      0.42      7.41 
    66.35     14.06     12.98      6.82      0.06      0.42      7.41 
    66.36     14.06     12.98      6.83      0.05      0.43      7.41 
    66.37     14.06     12.98      6.83      0.05      0.41      7.41 
    66.38     14.06     12.98      6.83      0.05      0.42      7.41 
    66.39     14.06     12.98      6.84      0.05      0.41      7.82 
    66.40     14.06     12.98      6.84      0.05      0.41      9.88 
    66.41     14.07     12.98      6.84      0.05      0.41      8.65 
    66.42     14.07     12.99      6.84      0.05      0.41      8.65 
    66.43     14.07     12.99      6.85      0.05      0.41      9.47 
    66.44     14.07     12.99      6.85      0.05      0.40      9.88 
    66.45     14.07     13.00      6.85      0.04      0.40     10.71 
    66.46     14.07     13.00      6.85      0.04      0.40     10.71 
    66.47     14.07     13.00      6.86      0.04      0.40     10.71 
    66.48     14.07     13.01      6.86      0.04      0.40      9.88 
    66.49     14.07     13.01      6.86      0.04      0.39      9.88 
    66.50     14.07     13.02      6.86      0.05      0.39     10.29 
    66.51     14.07     13.02      6.87      0.05      0.39      9.06 
    66.52     14.07     13.02      6.87      0.04      0.38      9.88 
    66.53     14.06     13.03      6.87      0.04      0.38     11.12 
    66.54     14.06     13.04      6.88      0.04      0.38     12.35 
    66.55     14.06     13.04      6.88      0.04      0.38     11.94 
    66.56     14.06     13.05      6.88      0.04      0.38     11.53 
    66.57     14.06     13.05      6.88      0.04      0.37      9.88 
    66.58     14.06     13.06      6.89      0.04      0.37     10.71 
    66.59     14.06     13.06      6.89      0.04      0.36     11.94 
    66.60     14.06     13.06      6.89      0.05      0.36     10.71 
    66.61     14.06     13.06      6.89      0.05      0.35     11.53 
    66.62     14.06     13.06      6.90      0.05      0.35     10.71 
    66.63     14.06     13.07      6.90      0.05      0.35     10.71 
    66.64     14.06     13.07      6.90      0.05      0.34     11.00 
    66.65     14.07     13.07      6.90      0.06      0.34     11.94 
    66.66     14.07     13.07      6.91      0.06      0.33     11.94 
    66.67     14.07     13.06      6.91      0.06      0.32     11.94 
    66.68     14.08     13.06      6.91      0.06      0.32     11.94 
    66.69     14.08     13.06      6.91      0.06      0.32     11.53 
    66.70     14.08     13.06      6.91      0.06      0.31     10.29 
    66.71     14.08     13.07      6.92      0.06      0.31      9.88 
    66.72     14.08     13.06      6.92      0.06      0.31     10.71 
    66.73     14.08     13.07      6.92      0.06      0.31     10.29 
    66.74     14.08     13.07      6.92      0.06      0.31     10.29 
    66.75     14.08     13.07      6.93      0.06      0.31      9.88 
    66.76     14.08     13.08      6.93      0.06      0.31     10.71 
    66.77     14.09     13.07      6.93      0.05      0.30     11.12 
    66.78     14.09     13.08      6.93      0.05      0.31     10.29 
    66.79     14.09     13.08      6.93      0.05      0.30     11.12 
    66.80     14.09     13.08      6.93      0.05      0.31     10.29 
    66.81     14.09     13.08      6.94      0.05      0.30     10.00 
