#Written by Robertson Geologging WinLogger V1.0/370
~VERSION INFORMATION
#------------------------------------------------------------------------------
 VERS. 2.0 : CWLS LOG ASCII STANDARD - VERSION 2.0
 WRAP. NO  : ONE LINE PER DEPTH STEP
~WELL INFORMATION
#MNEM.UNIT         DATA                                DESCRIPTION OF MNEMONIC
#------------------------------------------------------------------------------
 STRT.M         12.5800                            :   START DEPTH
 STOP.M        114.0100                            :   STOP DEPTH
 STEP.M          0.0100                            :   STEP VALUE
 NULL.        -999.2500                            :   NULL VALUE
 COMP.    White Young Green                        :   COMPANY NAME
 WELL.    Chatershaugh                             :   WELL NAME
 FLD.     Chatershaugh                             :   FIELD NAME
 LOC.     N/A                                      :   LOCATION
 PROV.    N/A                                      :   PROVINCE
 SRVC.    N/A                                      :   SERVICE COMPANY NAME
 DATE.    07 Oct 05                                :   DATE
 UWI.     N/A                                      :   UNIQUE WELL IDENTIFIER
~PARAMETER INFORMATION
#MNEMO.UNIT         VALUE                 DESCRIPTION OF MNEMONIC
#------------------------------------------------------------------------------
~OTHER INFORMATION SECTION
#------------------------------------------------------------------------------
 TCGS1365
~CURVE INFORMATION
#MNEMO.UNIT         API CODE              CURVE DESCRIPTION
#------------------------------------------------------------------------------
 DEPTH.M                                 :   0     Depth
 TEMP.DegC                               :   1     Temperature
 CN25.mS/cm                              :   2     Conductivity@25DegC
 COND.mS/cm                              :   3     Conductivity
 DELT.DegC                               :   4     Delta T
 DELC.mS/cm                              :   5     Delta C
 NGAM.CPS                                :   6     Natural Gamma
#------------------------------------------------------------------------------
~A  DEPTH     TEMP      CN25      COND      DELT      DELC      NGAM      
# ...
    26.14     10.76     10.07      1.85     -0.01      0.01      9.65 
    26.15     10.76     10.07      1.85     -0.01      0.01     10.47 
    26.16     10.76     10.07      1.85     -0.01      0.01     10.94 
    26.17     10.76     10.07      1.85     -0.01      0.00      8.88 
    26.18     10.77     10.07      1.85     -0.00      0.01      8.88 
    26.19     10.77     10.06      1.85      0.00      0.00      8.88 
    26.20     10.77     10.06      1.85      0.00     -0.01      8.88 
    26.21     10.77     10.06      1.85      0.01     -0.01      9.29 
    26.22     10.78     10.05      1.85      0.01     -0.01     10.29 
    26.23     10.78     10.06      1.85      0.01     -0.01     10.65 
    26.24     10.77     10.06      1.85      0.01     -0.01      9.82 
    26.25     10.77     10.06      1.85      0.01     -0.01     10.24 
    26.26     10.77     10.06      1.85      0.01     -0.01     10.65 
    26.27     10.77     10.06      1.85      0.01     -0.00     10.53 
    26.28     10.77     10.06      1.85      0.00     -0.00      9.71 
    26.29     10.77     10.06      1.85      0.00     -0.01     10.18 
    26.30     10.77     10.06      1.85      0.00     -0.00      9.76 
    26.31     10.76     10.07      1.85     -0.00      0.01      9.35 
    26.32     10.76     10.07      1.85     -0.01      0.01      9.35 
    26.33     10.76     10.07      1.85     -0.01      0.01     10.12 
    26.34     10.75     10.08      1.85     -0.01      0.01     10.18 
    26.35     10.75     10.08      1.85     -0.01      0.02      9.76 
    26.36     10.75     10.07      1.85     -0.01      0.01      9.35 
    26.37     10.76     10.07      1.85     -0.01      0.01     11.00 
    26.38     10.76     10.08      1.85     -0.01      0.01     10.59 
    26.39     10.76     10.08      1.85     -0.01      0.01     10.06 
    26.40     10.76     10.07      1.85     -0.01      0.01     10.12 
    26.41     10.76     10.07      1.85     -0.01      0.01     10.53 
    26.42     10.76     10.07      1.85     -0.01      0.01     10.53 
    26.43     10.76     10.07      1.85     -0.01      0.00      9.71 
    26.44     10.76     10.07      1.85     -0.00      0.01     10.53 
    26.45     10.77     10.06      1.85     -0.00     -0.00     11.76 
    26.46     10.77     10.06      1.85     -0.00     -0.00     11.71 
    26.47     10.77     10.06      1.85     -0.00      0.00     11.76 
    26.48     10.77     10.06      1.85     -0.00      0.00     11.76 
    26.49     10.77     10.06      1.85      0.00     -0.00     11.35 
    26.50     10.77     10.06      1.85      0.00     -0.00     10.12 
    26.51     10.77     10.06      1.85      0.00     -0.00     10.59 
    26.52     10.77     10.06      1.85      0.00     -0.00     11.41 
    26.53     10.77     10.06      1.85      0.00     -0.00     11.41 
    26.54     10.77     10.06      1.85      0.01     -0.01      9.76 
    26.55     10.77     10.06      1.85      0.01     -0.01      9.76 
    26.56     10.77     10.06      1.85      0.01     -0.00      9.24 
    26.57     10.77     10.06      1.85      0.01     -0.01      9.29 
    26.58     10.77     10.06      1.85      0.01     -0.01      8.88 
    26.59     10.77     10.06      1.85      0.01     -0.01      8.06 
    26.60     10.77     10.06      1.85      0.01     -0.01      8.06 
    26.61     10.77     10.06      1.85      0.01     -0.01      6.82 
    26.62     10.77     10.06      1.85      0.01     -0.01      6.00 
    26.63     10.77     10.06      1.85      0.01     -0.01      6.53 
    26.64     10.77     10.06      1.85      0.01     -0.02      6.06 
    26.65     10.77     10.06      1.85      0.01     -0.01      5.65 
    26.66     10.77     10.06      1.85      0.01     -0.01      4.82 
    26.67     10.77     10.06      1.85      0.01     -0.02      5.76 
    26.68     10.77     10.06      1.85      0.01     -0.02      4.82 
    26.69     10.77     10.06      1.85      0.01     -0.01      4.00 
    26.70     10.78     10.06      1.85      0.01     -0.01      4.00 
    26.71     10.78     10.05      1.85      0.01     -0.02      4.00 
    26.72     10.77     10.05      1.85      0.01     -0.01      4.47 
    26.73     10.77     10.06      1.85      0.01     -0.00      4.47 
    26.74     10.77     10.06      1.85      0.00     -0.00      4.00 
    26.75     10.77     10.06      1.85      0.00     -0.00      4.41 
    26.76     10.77     10.06      1.85      0.00     -0.00      4.88 
    26.77     10.77     10.06      1.85     -0.00      0.00      4.88 
    26.78     10.77     10.06      1.85     -0.00     -0.00      4.88 
    26.79     10.77     10.06      1.85     -0.00      0.00      4.47 
    26.80     10.77     10.06      1.85     -0.01      0.01      4.00 
    26.81     10.77     10.06      1.85     -0.01      0.01      4.00 
    26.82     10.77     10.06      1.85     -0.00      0.00      3.59 
    26.83     10.77     10.06      1.85     -0.00      0.00      3.59 
    26.84     10.77     10.06      1.85     -0.00     -0.00      3.06 
    26.85     10.77     10.06      1.85      0.00     -0.00      3.06 
    26.86     10.77     10.06      1.85      0.00     -0.00      3.06 
    26.87     10.77     10.05      1.85      0.00     -0.01      3.06 
    26.88     10.77     10.06      1.85      0.00     -0.01      3.47 
    26.89     10.77     10.06      1.85      0.00     -0.00      3.82 
    26.90     10.77     10.06      1.85      0.01     -0.01      3.41 
    26.91     10.77     10.06      1.85      0.00     -0.00      3.41 
    26.92     10.77     10.06      1.85      0.00     -0.00      3.00 
    26.93     10.77     10.06      1.85      0.00      0.00      2.94 
    26.94     10.77     10.07      1.85     -0.00      0.01      3.35 
    26.95     10.77     10.06      1.85     -0.00      0.00      2.94 
    26.96     10.76     10.07      1.85     -0.00      0.00      2.94 
    26.97     10.76     10.07      1.85     -0.00      0.00      2.88 
    26.98     10.76     10.07      1.85     -0.00      0.01      2.88 
    26.99     10.76     10.07      1.85     -0.00      0.00      2.88 
    27.00     10.76     10.07      1.85     -0.00      0.00      2.88 
    27.01     10.76     10.07      1.85     -0.00      0.00      2.47 
    27.02     10.76     10.07      1.85     -0.00     -0.00      2.47 
    27.03     10.76     10.07      1.85      0.00     -0.00      2.47 
    27.04     10.76     10.07      1.85      0.00      0.00      2.47 
    27.05     10.76     10.07      1.85      0.00     -0.00      2.53 
    27.06     10.76     10.07      1.85      0.00     -0.00      2.12 
    27.07     10.76     10.07      1.85     -0.00      0.00      2.12 
    27.08     10.76     10.07      1.85      0.00      0.00      2.12 
    27.09     10.76     10.07      1.85      0.00     -0.00      2.12 
    27.10     10.76     10.07      1.85      0.00     -0.00      2.12 
    27.11     10.76     10.07      1.85      0.00      0.00      1.71 
    27.12     10.76     10.07      1.85      0.00     -0.00      1.71 
    27.13     10.77     10.06      1.85      0.00     -0.00      2.12 
    27.14     10.77     10.06      1.85      0.00     -0.00      1.71 
    27.15     10.77     10.06      1.85      0.00     -0.00      2.12 
    27.16     10.77     10.06      1.85      0.00     -0.00      2.12 
    27.17     10.77     10.06      1.85      0.00     -0.01      2.12 
    27.18     10.77     10.06      1.85      0.00     -0.00      2.12 
    27.19     10.77     10.06      1.85     -0.00      0.00      2.53 
    27.20     10.77     10.06      1.85     -0.00      0.01      2.53 
    27.21     10.77     10.06      1.85     -0.01      0.00      2.53 
    27.22     10.77     10.06      1.85     -0.01      0.01      2.88 
    27.23     10.77     10.06      1.85     -0.00      0.00      2.47 
    27.24     10.77     10.06      1.85     -0.00      0.00      2.88 
    27.25     10.77     10.06      1.85     -0.00     -0.00      2.88 
    27.26     10.77     10.06      1.85      0.00     -0.00      3.71 
