#Written by Robertson Geologging WinLogger V1.0/370
~VERSION INFORMATION
#------------------------------------------------------------------------------
 VERS. 2.0 : CWLS LOG ASCII STANDARD - VERSION 2.0
 WRAP. NO  : ONE LINE PER DEPTH STEP
~WELL INFORMATION
#MNEM.UNIT         DATA                                DESCRIPTION OF MNEMONIC
#------------------------------------------------------------------------------
 STRT.M         12.5800                            :   START DEPTH
 STOP.M        114.0100                            :   STOP DEPTH
 STEP.M          0.0100                            :   STEP VALUE
 NULL.        -999.2500                            :   NULL VALUE
 COMP.    White Young Green                        :   COMPANY NAME
 WELL.    Chatershaugh                             :   WELL NAME
 FLD.     Chatershaugh                             :   FIELD NAME
 LOC.     N/A                                      :   LOCATION
 PROV.    N/A                                      :   PROVINCE
 SRVC.    N/A                                      :   SERVICE COMPANY NAME
 DATE.    07 Oct 05                                :   DATE
 UWI.     N/A                                      :   UNIQUE WELL IDENTIFIER
~PARAMETER INFORMATION
#MNEMO.UNIT         VALUE                 DESCRIPTION OF MNEMONIC
#------------------------------------------------------------------------------
~OTHER INFORMATION SECTION
#------------------------------------------------------------------------------
 TCGS1365
~CURVE INFORMATION
#MNEMO.UNIT         API CODE              CURVE DESCRIPTION
#------------------------------------------------------------------------------
 DEPTH.M                                 :   0     Depth
 TEMP.DegC                               :   1     Temperature
 CN25.mS/cm                              :   2     Conductivity@25DegC
 COND.mS/cm                              :   3     Conductivity
 DELT.DegC                               :   4     Delta T
 DELC.mS/cm                              :   5     Delta C
 NGAM.CPS                                :   6     Natural Gamma
#------------------------------------------------------------------------------
~A  DEPTH     TEMP      CN25      COND      DELT      DELC      NGAM      
# ...
    32.92     11.18     10.09      2.17      0.06      0.11      7.71 
    32.93     11.18     10.09      2.17      0.06      0.11      8.12 
    32.94     11.19     10.09      2.18      0.06      0.10      7.71 
    32.95     11.19     10.09      2.18      0.07      0.10      7.71 
    32.96     11.19     10.09      2.18      0.07      0.10      7.29 
    32.97     11.19     10.08      2.18      0.07      0.10      7.29 
    32.98     11.20     10.08      2.18      0.08      0.10      6.88 
    32.99     11.20     10.08      2.18      0.08      0.10      5.82 
    33.00     11.20     10.08      2.18      0.08      0.10      5.41 
    33.01     11.21     10.09      2.19      0.08      0.10      6.24 
    33.02     11.21     10.08      2.19      0.09      0.10      6.65 
    33.03     11.21     10.08      2.19      0.09      0.09      7.06 
    33.04     11.21     10.09      2.20      0.09      0.09      7.06 
    33.05     11.22     10.08      2.20      0.09      0.09      6.59 
    33.06     11.22     10.09      2.20      0.10      0.10      6.18 
    33.07     11.22     10.08      2.20      0.10      0.09      5.76 
    33.08     11.22     10.09      2.20      0.10      0.09      5.35 
    33.09     11.23     10.09      2.21      0.10      0.09      5.76 
    33.10     11.23     10.09      2.21      0.11      0.10      5.35 
    33.11     11.23     10.09      2.21      0.11      0.09      5.35 
    33.12     11.23     10.09      2.21      0.11      0.09      5.35 
    33.13     11.23     10.09      2.21      0.11      0.08      5.76 
    33.14     11.23     10.09      2.21      0.12      0.09      6.18 
    33.15     11.24     10.09      2.21      0.12      0.08      6.18 
    33.16     11.24     10.09      2.22      0.12      0.08      7.24 
    33.17     11.24     10.09      2.22      0.12      0.07      7.24 
    33.18     11.24     10.09      2.22      0.12      0.08      7.24 
    33.19     11.25     10.09      2.22      0.13      0.07      8.06 
    33.20     11.25     10.08      2.22      0.13      0.06      7.24 
    33.21     11.26     10.08      2.22      0.14      0.05      7.24 
    33.22     11.26     10.07      2.22      0.14      0.05      7.24 
    33.23     11.27     10.07      2.23      0.14      0.04      7.24 
    33.24     11.27     10.07      2.23      0.15      0.04      8.06 
    33.25     11.28     10.06      2.23      0.16      0.03      8.47 
    33.26     11.29     10.05      2.23      0.17      0.02      8.59 
    33.27     11.30     10.05      2.23      0.17      0.01      9.00 
    33.28     11.30     10.04      2.23      0.18      0.00      9.00 
    33.29     11.31     10.03      2.23      0.19     -0.01      9.00 
    33.30     11.32     10.03      2.23      0.19     -0.02      9.12 
    33.31     11.32     10.02      2.23      0.20     -0.02      8.29 
    33.32     11.33     10.01      2.23      0.21     -0.04      8.71 
    33.33     11.34     10.01      2.23      0.22     -0.04      7.65 
    33.34     11.35     10.00      2.23      0.22     -0.06      7.65 
    33.35     11.35      9.99      2.23      0.23     -0.06      7.24 
    33.36     11.36      9.99      2.23      0.23     -0.06      6.00 
    33.37     11.37      9.98      2.23      0.24     -0.07      6.00 
    33.38     11.37      9.97      2.23      0.24     -0.08      6.00 
    33.39     11.38      9.97      2.23      0.25     -0.08      6.00 
    33.40     11.39      9.96      2.24      0.25     -0.09      6.00 
    33.41     11.39      9.96      2.24      0.25     -0.09      6.12 
    33.42     11.40      9.95      2.24      0.25     -0.09      5.71 
    33.43     11.40      9.95      2.24      0.26     -0.10      4.76 
    33.44     11.41      9.95      2.24      0.26     -0.10      5.59 
    33.45     11.41      9.95      2.24      0.26     -0.10      5.59 
    33.46     11.41      9.94      2.24      0.26     -0.10      6.00 
    33.47     11.41      9.95      2.24      0.26     -0.10      5.47 
    33.48     11.41      9.95      2.24      0.26     -0.10      5.47 
    33.49     11.41      9.94      2.24      0.26     -0.10      5.53 
    33.50     11.41      9.95      2.24      0.26     -0.10      6.35 
    33.51     11.41      9.95      2.24      0.26     -0.10      6.76 
    33.52     11.41      9.94      2.24      0.26     -0.11      6.76 
    33.53     11.41      9.94      2.24      0.26     -0.11      7.24 
    33.54     11.42      9.95      2.24      0.27     -0.11      7.24 
    33.55     11.42      9.94      2.24      0.27     -0.12      7.24 
    33.56     11.42      9.94      2.24      0.27     -0.12      7.24 
    33.57     11.42      9.94      2.25      0.27     -0.12      7.71 
    33.58     11.43      9.93      2.24      0.27     -0.12      6.76 
    33.59     11.43      9.94      2.25      0.28     -0.13      8.41 
    33.60     11.43      9.93      2.24      0.28     -0.13      8.41 
    33.61     11.43      9.93      2.25      0.28     -0.14      7.59 
    33.62     11.44      9.93      2.25      0.28     -0.14      7.59 
    33.63     11.44      9.93      2.25      0.28     -0.14      6.76 
    33.64     11.44      9.92      2.25      0.28     -0.15      6.76 
    33.65     11.44      9.92      2.25      0.28     -0.14      6.35 
    33.66     11.44      9.92      2.25      0.28     -0.15      6.29 
    33.67     11.44      9.93      2.25      0.28     -0.15      5.53 
    33.68     11.44      9.92      2.25      0.28     -0.15      5.12 
    33.69     11.44      9.92      2.25      0.28     -0.15      5.12 
    33.70     11.44      9.92      2.25      0.28     -0.16      5.06 
    33.71     11.44      9.92      2.25      0.28     -0.16      6.00 
    33.72     11.44      9.92      2.25      0.28     -0.16      6.41 
    33.73     11.45      9.92      2.25      0.28     -0.16      6.82 
    33.74     11.45      9.92      2.25      0.28     -0.16      6.35 
    33.75     11.45      9.92      2.25      0.28     -0.16      6.35 
    33.76     11.45      9.91      2.25      0.28     -0.17      4.71 
    33.77     11.46      9.91      2.25      0.29     -0.17      4.71 
    33.78     11.46      9.91      2.25      0.29     -0.18      4.29 
    33.79     11.46      9.90      2.25      0.29     -0.18      4.29 
    33.80     11.46      9.90      2.25      0.29     -0.18      4.29 
    33.81     11.47      9.90      2.25      0.30     -0.18      4.29 
    33.82     11.47      9.90      2.25      0.30     -0.18      4.29 
    33.83     11.47      9.90      2.25      0.30     -0.19      4.35 
    33.84     11.47      9.90      2.25      0.30     -0.19      4.29 
    33.85     11.47      9.90      2.25      0.30     -0.19      4.71 
    33.86     11.47      9.89      2.25      0.30     -0.20      4.29 
    33.87     11.47      9.90      2.26      0.30     -0.19      3.88 
    33.88     11.47      9.90      2.25      0.30     -0.20      3.76 
    33.89     11.47      9.90      2.25      0.30     -0.19      3.76 
    33.90     11.48      9.90      2.26      0.30     -0.19      3.35 
    33.91     11.48      9.90      2.25      0.30     -0.20      3.35 
    33.92     11.48      9.89      2.25      0.30     -0.20      3.76 
    33.93     11.48      9.90      2.26      0.29     -0.19      4.29 
    33.94     11.48      9.89      2.26      0.29     -0.19      5.12 
    33.95     11.48      9.89      2.25      0.29     -0.19      5.12 
    33.96     11.48      9.90      2.26      0.29     -0.19      5.12 
    33.97     11.48      9.90      2.26      0.28     -0.19      5.59 
    33.98     11.48      9.89      2.25      0.28     -0.19      5.18 
    33.99     11.48      9.90      2.26      0.28     -0.19      5.18 
    34.00     11.48      9.89      2.26      0.27     -0.19      4.71 
    34.01     11.48      9.89      2.25      0.27     -0.19      5.24 
    34.02     11.48      9.89      2.26      0.27     -0.19      5.24 
    34.03     11.48      9.89      2.26      0.27     -0.19      5.65 
    34.04     11.48      9.89      2.25      0.27     -0.20      5.65 
