#Written by Robertson Geologging WinLogger V1.0/370
~VERSION INFORMATION
#------------------------------------------------------------------------------
 VERS. 2.0 : CWLS LOG ASCII STANDARD - VERSION 2.0
 WRAP. NO  : ONE LINE PER DEPTH STEP
~WELL INFORMATION
#MNEM.UNIT         DATA                                DESCRIPTION OF MNEMONIC
#------------------------------------------------------------------------------
 STRT.M         12.5800                            :   START DEPTH
 STOP.M        114.0100                            :   STOP DEPTH
 STEP.M          0.0100                            :   STEP VALUE
 NULL.        -999.2500                            :   NULL VALUE
 COMP.    White Young Green                        :   COMPANY NAME
 WELL.    Chatershaugh                             :   WELL NAME
 FLD.     Chatershaugh                             :   FIELD NAME
 LOC.     N/A                                      :   LOCATION
 PROV.    N/A                                      :   PROVINCE
 SRVC.    N/A                                      :   SERVICE COMPANY NAME
 DATE.    07 Oct 05                                :   DATE
 UWI.     N/A                                      :   UNIQUE WELL IDENTIFIER
~PARAMETER INFORMATION
#MNEMO.UNIT         VALUE                 DESCRIPTION OF MNEMONIC
#------------------------------------------------------------------------------
~OTHER INFORMATION SECTION
#------------------------------------------------------------------------------
 TCGS1365
~CURVE INFORMATION
#MNEMO.UNIT         API CODE              CURVE DESCRIPTION
#------------------------------------------------------------------------------
 DEPTH.M                                 :   0     Depth
 TEMP.DegC                               :   1     Temperature
 CN25.mS/cm                              :   2     Conductivity@25DegC
 COND.mS/cm                              :   3     Conductivity
 DELT.DegC                               :   4     Delta T
 DELC.mS/cm                              :   5     Delta C
 NGAM.CPS                                :   6     Natural Gamma
#------------------------------------------------------------------------------
~A  DEPTH     TEMP      CN25      COND      DELT      DELC      NGAM      
# ...
    53.26     11.73      9.80      2.37      0.01      0.09      2.88 
    53.27     11.73      9.80      2.38      0.02      0.09      3.29 
    53.28     11.73      9.80      2.38      0.02      0.09      3.71 
    53.29     11.74      9.80      2.39      0.03      0.09      4.12 
    53.30     11.74      9.81      2.39      0.03      0.09      4.12 
    53.31     11.75      9.80      2.39      0.04      0.09      4.53 
    53.32     11.75      9.80      2.40      0.04      0.09      4.53 
    53.33     11.76      9.80      2.40      0.05      0.09      3.29 
    53.34     11.77      9.80      2.40      0.05      0.09      4.12 
    53.35     11.77      9.80      2.41      0.05      0.09      4.53 
    53.36     11.78      9.79      2.41      0.06      0.09      4.53 
    53.37     11.78      9.80      2.41      0.06      0.10      4.94 
    53.38     11.79      9.79      2.42      0.07      0.09      4.53 
    53.39     11.79      9.79      2.42      0.07      0.09      4.53 
    53.40     11.79      9.79      2.42      0.07      0.10      4.94 
    53.41     11.80      9.80      2.43      0.07      0.10      4.94 
    53.42     11.80      9.80      2.43      0.07      0.10      4.53 
    53.43     11.80      9.80      2.43      0.08      0.10      4.53 
    53.44     11.80      9.80      2.44      0.08      0.10      4.53 
    53.45     11.81      9.80      2.44      0.09      0.10      4.53 
    53.46     11.82      9.79      2.44      0.09      0.10      4.12 
    53.47     11.82      9.79      2.45      0.10      0.10      5.59 
    53.48     11.83      9.79      2.45      0.10      0.09      5.59 
    53.49     11.83      9.79      2.45      0.11      0.09      6.00 
    53.50     11.84      9.79      2.46      0.11      0.09      6.00 
    53.51     11.85      9.79      2.46      0.12      0.10      5.59 
    53.52     11.86      9.78      2.46      0.13      0.09      5.59 
    53.53     11.87      9.77      2.47      0.14      0.08      5.18 
    53.54     11.88      9.77      2.47      0.15      0.08      4.76 
    53.55     11.88      9.76      2.47      0.15      0.07      5.18 
    53.56     11.89      9.76      2.47      0.16      0.06      4.76 
    53.57     11.90      9.75      2.48      0.17      0.06      4.35 
    53.58     11.91      9.75      2.48      0.18      0.05      4.76 
    53.59     11.92      9.74      2.48      0.19      0.05      4.76 
    53.60     11.93      9.74      2.48      0.20      0.04      4.76 
    53.61     11.93      9.73      2.49      0.21      0.04      4.35 
    53.62     11.94      9.73      2.49      0.22      0.03      4.35 
    53.63     11.95      9.73      2.49      0.23      0.02      4.35 
    53.64     11.95      9.72      2.50      0.23      0.02      3.29 
    53.65     11.96      9.72      2.50      0.24      0.02      2.88 
    53.66     11.97      9.72      2.50      0.25      0.01      2.88 
    53.67     11.97      9.71      2.50      0.26      0.01      3.29 
    53.68     11.98      9.71      2.51      0.26      0.01      2.88 
    53.69     11.99      9.71      2.51      0.27      0.00      2.88 
    53.70     11.99      9.70      2.51      0.28     -0.00      4.12 
    53.71     12.00      9.70      2.51      0.29     -0.01      4.53 
    53.72     12.01      9.70      2.52      0.30     -0.02      4.53 
    53.73     12.01      9.69      2.52      0.30     -0.02      4.53 
    53.74     12.02      9.68      2.52      0.31     -0.03      4.53 
    53.75     12.03      9.68      2.52      0.32     -0.03      4.12 
    53.76     12.03      9.68      2.53      0.32     -0.03      4.12 
    53.77     12.04      9.68      2.53      0.33     -0.04      4.12 
    53.78     12.05      9.67      2.53      0.34     -0.04      4.12 
    53.79     12.05      9.67      2.53      0.34     -0.05      4.12 
    53.80     12.06      9.66      2.53      0.35     -0.05      4.12 
    53.81     12.07      9.66      2.53      0.36     -0.06      3.71 
    53.82     12.07      9.66      2.54      0.36     -0.05      3.71 
    53.83     12.08      9.65      2.54      0.37     -0.06      4.12 
    53.84     12.09      9.65      2.54      0.37     -0.06      4.12 
    53.85     12.09      9.64      2.55      0.38     -0.06      4.53 
    53.86     12.10      9.63      2.55      0.38     -0.07      4.12 
    53.87     12.11      9.63      2.55      0.39     -0.07      2.88 
    53.88     12.11      9.63      2.55      0.39     -0.07      2.47 
    53.89     12.12      9.62      2.55      0.40     -0.08      2.06 
    53.90     12.12      9.62      2.55      0.40     -0.08      2.06 
    53.91     12.13      9.62      2.56      0.41     -0.09      2.47 
    53.92     12.13      9.62      2.56      0.42     -0.09      2.47 
    53.93     12.14      9.61      2.56      0.42     -0.09      2.47 
    53.94     12.14      9.61      2.56      0.43     -0.09      2.88 
    53.95     12.15      9.61      2.56      0.43     -0.10      3.29 
    53.96     12.16      9.60      2.56      0.44     -0.10      3.29 
    53.97     12.16      9.60      2.57      0.45     -0.11      3.29 
    53.98     12.17      9.59      2.57      0.45     -0.11      3.29 
    53.99     12.17      9.59      2.57      0.46     -0.12      3.29 
    54.00     12.18      9.58      2.57      0.46     -0.12      2.47 
    54.01     12.18      9.58      2.57      0.47     -0.13      2.47 
    54.02     12.19      9.57      2.57      0.47     -0.14      2.88 
    54.03     12.20      9.57      2.57      0.48     -0.15      3.82 
    54.04     12.20      9.56      2.57      0.49     -0.15      4.24 
    54.05     12.21      9.56      2.58      0.49     -0.16      4.24 
    54.06     12.22      9.55      2.58      0.50     -0.17      4.24 
    54.07     12.22      9.55      2.58      0.51     -0.18      4.24 
    54.08     12.23      9.54      2.58      0.51     -0.19      4.24 
    54.09     12.23      9.54      2.58      0.52     -0.20      4.24 
    54.10     12.24      9.54      2.58      0.52     -0.20      4.24 
    54.11     12.24      9.54      2.59      0.53     -0.21      3.82 
    54.12     12.25      9.53      2.59      0.54     -0.22      3.41 
    54.13     12.26      9.53      2.59      0.54     -0.23      3.00 
    54.14     12.26      9.53      2.59      0.54     -0.23      4.24 
    54.15     12.27      9.52      2.59      0.55     -0.24      4.24 
    54.16     12.27      9.52      2.59      0.55     -0.25      4.24 
    54.17     12.27      9.52      2.59      0.55     -0.25      4.24 
    54.18     12.28      9.51      2.59      0.56     -0.26      3.82 
    54.19     12.28      9.51      2.60      0.56     -0.27      3.00 
    54.20     12.29      9.51      2.60      0.56     -0.27      2.06 
    54.21     12.29      9.51      2.60      0.57     -0.28      1.65 
    54.22     12.29      9.50      2.60      0.57     -0.29      2.06 
    54.23     12.30      9.50      2.60      0.57     -0.29      2.47 
    54.24     12.30      9.50      2.60      0.57     -0.30      2.88 
    54.25     12.30      9.49      2.60      0.58     -0.30      2.47 
    54.26     12.31      9.49      2.61      0.58     -0.30      2.47 
    54.27     12.31      9.49      2.61      0.58     -0.31      2.47 
    54.28     12.31      9.49      2.61      0.58     -0.31      2.88 
    54.29     12.32      9.49      2.61      0.58     -0.32      2.88 
    54.30     12.32      9.49      2.61      0.58     -0.31      2.88 
    54.31     12.33      9.48      2.61      0.58     -0.32      1.65 
    54.32     12.34      9.47      2.61      0.58     -0.33      2.06 
    54.33     12.34      9.47      2.62      0.57     -0.32      2.06 
    54.34     12.35      9.47      2.62      0.57     -0.33      2.06 
    54.35     12.35      9.47      2.62      0.57     -0.33      2.06 
    54.36     12.35      9.46      2.62      0.57     -0.33      2.06 
    54.37     12.36      9.46      2.62      0.57     -0.33      2.47 
    54.38     12.36      9.46      2.62      0.57     -0.33      3.29 
