#Written by Robertson Geologging WinLogger V1.0/370
~VERSION INFORMATION
#------------------------------------------------------------------------------
 VERS. 2.0 : CWLS LOG ASCII STANDARD - VERSION 2.0
 WRAP. NO  : ONE LINE PER DEPTH STEP
~WELL INFORMATION
#MNEM.UNIT         DATA                                DESCRIPTION OF MNEMONIC
#------------------------------------------------------------------------------
 STRT.M         12.5800                            :   START DEPTH
 STOP.M        114.0100                            :   STOP DEPTH
 STEP.M          0.0100                            :   STEP VALUE
 NULL.        -999.2500                            :   NULL VALUE
 COMP.    White Young Green                        :   COMPANY NAME
 WELL.    Chatershaugh                             :   WELL NAME
 FLD.     Chatershaugh                             :   FIELD NAME
 LOC.     N/A                                      :   LOCATION
 PROV.    N/A                                      :   PROVINCE
 SRVC.    N/A                                      :   SERVICE COMPANY NAME
 DATE.    07 Oct 05                                :   DATE
 UWI.     N/A                                      :   UNIQUE WELL IDENTIFIER
~PARAMETER INFORMATION
#MNEMO.UNIT         VALUE                 DESCRIPTION OF MNEMONIC
#------------------------------------------------------------------------------
~OTHER INFORMATION SECTION
#------------------------------------------------------------------------------
 TCGS1365
~CURVE INFORMATION
#MNEMO.UNIT         API CODE              CURVE DESCRIPTION
#------------------------------------------------------------------------------
 DEPTH.M                                 :   0     Depth
 TEMP.DegC                               :   1     Temperature
 CN25.mS/cm                              :   2     Conductivity@25DegC
 COND.mS/cm                              :   3     Conductivity
 DELT.DegC                               :   4     Delta T
 DELC.mS/cm                              :   5     Delta C
 NGAM.CPS                                :   6     Natural Gamma
#------------------------------------------------------------------------------
~A  DEPTH     TEMP      CN25      COND      DELT      DELC      NGAM      
# ...
    19.36     10.77     10.05      1.85      0.00     -0.00      5.06 
    19.37     10.77     10.06      1.85      0.00      0.00      5.47 
    19.38     10.77     10.06      1.85      0.00     -0.00      5.94 
    19.39     10.77     10.06      1.85     -0.00     -0.00      5.12 
    19.40     10.78     10.05      1.85     -0.00     -0.00      5.06 
    19.41     10.78     10.06      1.85     -0.00      0.00      5.47 
    19.42     10.78     10.05      1.85     -0.00     -0.00      5.47 
    19.43     10.78     10.05      1.85     -0.00      0.00      5.94 
    19.44     10.78     10.06      1.85     -0.00      0.01      5.94 
    19.45     10.78     10.05      1.85     -0.00      0.00      5.12 
    19.46     10.78     10.05      1.85     -0.01      0.00      6.76 
    19.47     10.78     10.06      1.85     -0.00      0.01      6.82 
    19.48     10.78     10.05      1.85     -0.00      0.00      7.24 
    19.49     10.78     10.06      1.85     -0.01      0.01      8.06 
    19.50     10.77     10.06      1.85     -0.01      0.01      7.59 
    19.51     10.77     10.06      1.85     -0.01      0.01      8.82 
    19.52     10.77     10.06      1.85     -0.01      0.01      9.24 
    19.53     10.77     10.06      1.85     -0.00      0.01      9.35 
    19.54     10.78     10.05      1.85      0.00      0.00      9.76 
    19.55     10.78     10.05      1.85      0.00     -0.01     10.12 
    19.56     10.78     10.05      1.85      0.00     -0.01     10.12 
    19.57     10.78     10.06      1.85      0.00     -0.00      9.71 
    19.58     10.78     10.06      1.85      0.00     -0.00      9.29 
    19.59     10.78     10.05      1.85      0.01     -0.01     10.12 
    19.60     10.78     10.05      1.85      0.01     -0.01     10.12 
    19.61     10.78     10.05      1.85      0.01     -0.01     10.12 
    19.62     10.78     10.05      1.85      0.01     -0.01     10.53 
    19.63     10.78     10.05      1.85      0.01     -0.01      9.71 
    19.64     10.78     10.05      1.85      0.00     -0.00      9.24 
    19.65     10.78     10.06      1.85      0.00     -0.00      8.82 
    19.66     10.78     10.05      1.85      0.00     -0.00      8.41 
    19.67     10.78     10.05      1.85      0.00      0.00      8.41 
    19.68     10.78     10.05      1.85      0.00     -0.00      8.12 
    19.69     10.78     10.05      1.85      0.00     -0.00      7.29 
    19.70     10.78     10.05      1.85      0.00     -0.00      6.35 
    19.71     10.78     10.05      1.85      0.00     -0.00      6.47 
    19.72     10.78     10.05      1.85      0.00     -0.00      7.29 
    19.73     10.78     10.05      1.85      0.00     -0.00      7.71 
    19.74     10.78     10.05      1.85      0.00     -0.01      7.71 
    19.75     10.78     10.05      1.85      0.00     -0.00      7.76 
    19.76     10.78     10.05      1.85      0.00     -0.00      7.76 
    19.77     10.78     10.05      1.85      0.00     -0.00      9.76 
    19.78     10.78     10.05      1.85      0.00     -0.01     10.18 
    19.79     10.78     10.06      1.85      0.00     -0.00     10.59 
    19.80     10.77     10.06      1.85      0.00     -0.01     10.24 
    19.81     10.77     10.06      1.85      0.01     -0.01     10.65 
    19.82     10.77     10.06      1.85      0.01     -0.01     10.24 
    19.83     10.78     10.05      1.85      0.01     -0.01      9.82 
    19.84     10.78     10.05      1.85      0.01     -0.02     11.76 
    19.85     10.78     10.05      1.85      0.01     -0.01     11.24 
    19.86     10.78     10.05      1.85      0.01     -0.01     12.06 
    19.87     10.78     10.05      1.85      0.01     -0.02     12.06 
    19.88     10.78     10.05      1.85      0.01     -0.01     11.59 
    19.89     10.78     10.05      1.85      0.01     -0.01      9.94 
    19.90     10.78     10.05      1.85      0.01     -0.01     10.35 
    19.91     10.78     10.05      1.85      0.01     -0.01     12.41 
    19.92     10.78     10.05      1.85      0.01     -0.01     11.94 
    19.93     10.78     10.05      1.85      0.00     -0.00     11.94 
    19.94     10.78     10.06      1.85     -0.00      0.00     10.41 
    19.95     10.78     10.05      1.85     -0.01      0.01     10.41 
    19.96     10.77     10.06      1.85     -0.01      0.01     10.00 
    19.97     10.77     10.06      1.85     -0.01      0.01      9.53 
    19.98     10.77     10.06      1.85     -0.01      0.01      9.53 
    19.99     10.77     10.06      1.85     -0.01      0.01      9.53 
    20.00     10.77     10.06      1.85     -0.01      0.01     10.35 
    20.01     10.77     10.06      1.85     -0.01      0.01      9.24 
    20.02     10.77     10.07      1.85     -0.01      0.01      8.82 
    20.03     10.77     10.07      1.85     -0.01      0.01      8.00 
    20.04     10.77     10.06      1.85     -0.00      0.00      8.82 
    20.05     10.77     10.06      1.85     -0.00     -0.00      8.76 
    20.06     10.77     10.06      1.85      0.00     -0.00      8.76 
    20.07     10.77     10.06      1.85      0.01     -0.01      7.94 
    20.08     10.77     10.06      1.85      0.01     -0.01      5.88 
    20.09     10.77     10.06      1.85      0.01     -0.01      6.71 
    20.10     10.77     10.06      1.85      0.01     -0.01      5.88 
    20.11     10.78     10.05      1.85      0.01     -0.01      5.35 
    20.12     10.78     10.05      1.85      0.01     -0.01      5.76 
    20.13     10.78     10.06      1.85      0.01     -0.01      5.35 
    20.14     10.78     10.06      1.85      0.00     -0.00      5.76 
    20.15     10.77     10.05      1.85     -0.00     -0.00      5.35 
    20.16     10.77     10.06      1.85     -0.00      0.01      5.35 
    20.17     10.77     10.06      1.85     -0.01      0.01      4.94 
    20.18     10.77     10.06      1.85     -0.01      0.01      4.53 
    20.19     10.77     10.06      1.85     -0.01      0.02      5.76 
    20.20     10.77     10.06      1.85     -0.02      0.02      5.76 
    20.21     10.77     10.06      1.85     -0.02      0.01      5.35 
    20.22     10.77     10.06      1.85     -0.02      0.02      6.18 
    20.23     10.77     10.06      1.85     -0.02      0.02      6.65 
    20.24     10.77     10.06      1.85     -0.02      0.02      8.71 
    20.25     10.77     10.06      1.85     -0.02      0.02      8.71 
    20.26     10.77     10.06      1.85     -0.02      0.02      7.88 
    20.27     10.77     10.06      1.85     -0.02      0.01      7.88 
    20.28     10.77     10.06      1.85     -0.01      0.01      7.47 
    20.29     10.77     10.06      1.85     -0.01      0.01      7.06 
    20.30     10.77     10.06      1.85     -0.01      0.01      7.06 
    20.31     10.77     10.06      1.85     -0.01      0.01      7.59 
    20.32     10.77     10.06      1.85     -0.01      0.01      7.59 
    20.33     10.77     10.06      1.85     -0.01      0.01      8.00 
    20.34     10.77     10.06      1.85     -0.00      0.00      9.06 
    20.35     10.77     10.06      1.85     -0.00      0.00      9.06 
    20.36     10.77     10.06      1.85     -0.00      0.00      7.82 
    20.37     10.77     10.06      1.85     -0.00      0.00      8.24 
    20.38     10.77     10.06      1.85     -0.00      0.00      8.76 
    20.39     10.77     10.06      1.85     -0.00      0.01      7.53 
    20.40     10.77     10.06      1.85     -0.00      0.00      7.88 
    20.41     10.77     10.06      1.85     -0.00      0.00      6.29 
    20.42     10.77     10.06      1.85     -0.00      0.00      6.71 
    20.43     10.77     10.06      1.85     -0.00     -0.00      6.71 
    20.44     10.77     10.06      1.85     -0.00      0.00      7.65 
    20.45     10.77     10.06      1.85     -0.01      0.01      8.06 
    20.46     10.77     10.06      1.85     -0.01      0.01      7.65 
    20.47     10.77     10.06      1.85     -0.01      0.01      8.47 
    20.48     10.77     10.06      1.85     -0.01      0.01      8.00 
