#Written by Robertson Geologging WinLogger V1.0/370
~VERSION INFORMATION
#------------------------------------------------------------------------------
 VERS. 2.0 : CWLS LOG ASCII STANDARD - VERSION 2.0
 WRAP. NO  : ONE LINE PER DEPTH STEP
~WELL INFORMATION
#MNEM.UNIT         DATA                                DESCRIPTION OF MNEMONIC
#------------------------------------------------------------------------------
 STRT.M         12.5800                            :   START DEPTH
 STOP.M        114.0100                            :   STOP DEPTH
 STEP.M          0.0100                            :   STEP VALUE
 NULL.        -999.2500                            :   NULL VALUE
 COMP.    White Young Green                        :   COMPANY NAME
 WELL.    Chatershaugh                             :   WELL NAME
 FLD.     Chatershaugh                             :   FIELD NAME
 LOC.     N/A                                      :   LOCATION
 PROV.    N/A                                      :   PROVINCE
 SRVC.    N/A                                      :   SERVICE COMPANY NAME
 DATE.    07 Oct 05                                :   DATE
 UWI.     N/A                                      :   UNIQUE WELL IDENTIFIER
~PARAMETER INFORMATION
#MNEMO.UNIT         VALUE                 DESCRIPTION OF MNEMONIC
#------------------------------------------------------------------------------
~OTHER INFORMATION SECTION
#------------------------------------------------------------------------------
 TCGS1365
~CURVE INFORMATION
#MNEMO.UNIT         API CODE              CURVE DESCRIPTION
#------------------------------------------------------------------------------
 DEPTH.M                                 :   0     Depth
 TEMP.DegC                               :   1     Temperature
 CN25.mS/cm                              :   2     Conductivity@25DegC
 COND.mS/cm                              :   3     Conductivity
 DELT.DegC                               :   4     Delta T
 DELC.mS/cm                              :   5     Delta C
 NGAM.CPS                                :   6     Natural Gamma
#------------------------------------------------------------------------------
~A  DEPTH     TEMP      CN25      COND      DELT      DELC      NGAM      
# ...
    72.47     14.18     13.14      7.08      0.00      0.02      8.41 
    72.48     14.18     13.14      7.08      0.00      0.02      8.82 
    72.49     14.18     13.14      7.08      0.00      0.02      8.41 
    72.50     14.18     13.14      7.08      0.01      0.02      9.18 
    72.51     14.18     13.14      7.08      0.01      0.01      8.76 
    72.52     14.18     13.14      7.08      0.01      0.01      7.53 
    72.53     14.18     13.14      7.08      0.02      0.00      8.35 
    72.54     14.18     13.14      7.08      0.02     -0.00      9.29 
    72.55     14.18     13.14      7.08      0.02     -0.00      9.29 
    72.56     14.18     13.14      7.08      0.02     -0.01      9.71 
    72.57     14.18     13.14      7.08      0.02     -0.01      9.71 
    72.58     14.18     13.14      7.08      0.02     -0.01      9.71 
    72.59     14.18     13.14      7.08      0.03     -0.01      9.71 
    72.60     14.18     13.14      7.08      0.02     -0.00      9.76 
    72.61     14.18     13.15      7.08      0.02     -0.00     10.18 
    72.62     14.18     13.15      7.08      0.02      0.00     11.00 
    72.63     14.18     13.15      7.08      0.01      0.00     11.00 
    72.64     14.18     13.15      7.08      0.01      0.01     10.06 
    72.65     14.18     13.15      7.08      0.01      0.01      9.24 
    72.66     14.17     13.15      7.08      0.01      0.01      8.00 
    72.67     14.17     13.16      7.08      0.01      0.01      7.59 
    72.68     14.17     13.16      7.08      0.01      0.01      8.00 
    72.69     14.18     13.15      7.08      0.01      0.01      8.41 
    72.70     14.18     13.15      7.08      0.01      0.01      8.41 
    72.71     14.18     13.15      7.08      0.02      0.01      9.12 
    72.72     14.18     13.15      7.08      0.02      0.00      9.53 
    72.73     14.18     13.15      7.08      0.02      0.01      9.53 
    72.74     14.18     13.15      7.08      0.02     -0.00     10.76 
    72.75     14.18     13.15      7.08      0.02     -0.00     10.76 
    72.76     14.19     13.15      7.08      0.02     -0.00     10.35 
    72.77     14.19     13.14      7.08      0.03     -0.01     11.53 
    72.78     14.19     13.14      7.08      0.03     -0.01     11.12 
    72.79     14.19     13.14      7.08      0.03     -0.01     11.12 
    72.80     14.19     13.15      7.08      0.03     -0.01     11.12 
    72.81     14.18     13.15      7.08      0.03     -0.01     11.53 
    72.82     14.18     13.15      7.08      0.03     -0.01     12.35 
    72.83     14.19     13.15      7.08      0.03     -0.01     12.76 
    72.84     14.19     13.14      7.08      0.03     -0.02     12.35 
    72.85     14.19     13.14      7.08      0.04     -0.02     13.18 
    72.86     14.19     13.14      7.08      0.04     -0.02     13.18 
    72.87     14.19     13.14      7.08      0.04     -0.02     13.18 
    72.88     14.19     13.14      7.08      0.04     -0.02     11.53 
    72.89     14.19     13.14      7.09      0.04     -0.02     11.53 
    72.90     14.19     13.14      7.09      0.04     -0.02     11.12 
    72.91     14.19     13.14      7.08      0.04     -0.03      9.88 
    72.92     14.19     13.14      7.08      0.04     -0.03     10.29 
    72.93     14.19     13.14      7.08      0.03     -0.02     11.94 
    72.94     14.19     13.14      7.08      0.03     -0.02     10.71 
    72.95     14.19     13.14      7.08      0.03     -0.02     12.76 
    72.96     14.19     13.14      7.09      0.02     -0.01     11.94 
    72.97     14.19     13.14      7.09      0.02     -0.00     12.35 
    72.98     14.19     13.14      7.09      0.02     -0.00     13.59 
    72.99     14.19     13.14      7.08      0.02     -0.01     13.18 
    73.00     14.19     13.14      7.08      0.02     -0.00     14.00 
    73.01     14.19     13.14      7.08      0.02     -0.00     14.41 
    73.02     14.19     13.14      7.09      0.02      0.01     14.00 
    73.03     14.19     13.14      7.09      0.01      0.01     14.00 
    73.04     14.19     13.14      7.09      0.01      0.01     12.76 
    73.05     14.19     13.14      7.09      0.01      0.01     12.76 
    73.06     14.19     13.14      7.09      0.01      0.02     12.76 
    73.07     14.19     13.14      7.09      0.01      0.02     13.18 
    73.08     14.19     13.14      7.09      0.01      0.02     13.59 
    73.09     14.19     13.14      7.09      0.01      0.02     12.76 
    73.10     14.19     13.15      7.09      0.01      0.02     11.53 
    73.11     14.19     13.15      7.09      0.01      0.02     13.18 
    73.12     14.19     13.15      7.09      0.01      0.02     10.71 
    73.13     14.19     13.15      7.09      0.01      0.02     11.53 
    73.14     14.18     13.15      7.09      0.01      0.01     11.12 
    73.15     14.18     13.16      7.09      0.01      0.01     10.71 
    73.16     14.18     13.16      7.09      0.01      0.01     10.71 
    73.17     14.18     13.16      7.09      0.01      0.01     10.71 
    73.18     14.18     13.16      7.09      0.02      0.01     10.71 
    73.19     14.18     13.16      7.09      0.02      0.01      9.47 
    73.20     14.18     13.16      7.09      0.02      0.00      9.06 
    73.21     14.18     13.16      7.09      0.02      0.00      9.88 
    73.22     14.18     13.16      7.09      0.02      0.00     11.53 
    73.23     14.18     13.16      7.09      0.02      0.00     11.94 
    73.24     14.18     13.16      7.09      0.02      0.00     11.59 
    73.25     14.19     13.16      7.09      0.02     -0.00     11.59 
    73.26     14.19     13.16      7.09      0.02      0.00     11.59 
    73.27     14.19     13.16      7.09      0.02     -0.00     11.59 
    73.28     14.19     13.15      7.09      0.03     -0.01      9.94 
    73.29     14.19     13.15      7.09      0.03     -0.01      9.94 
    73.30     14.19     13.15      7.09      0.02     -0.01      9.12 
    73.31     14.19     13.15      7.09      0.02     -0.01     10.76 
    73.32     14.19     13.15      7.09      0.02     -0.00      9.94 
    73.33     14.19     13.15      7.09      0.02     -0.00     10.35 
    73.34     14.19     13.15      7.09      0.02     -0.00      9.94 
    73.35     14.19     13.15      7.09      0.02     -0.00      9.53 
    73.36     14.20     13.15      7.09      0.02     -0.00      9.94 
    73.37     14.20     13.14      7.09      0.02     -0.01     10.76 
    73.38     14.20     13.14      7.09      0.02     -0.01     10.76 
    73.39     14.20     13.13      7.09      0.02     -0.01      9.12 
    73.40     14.21     13.13      7.09      0.03     -0.00      8.71 
    73.41     14.21     13.13      7.09      0.03     -0.01     11.18 
    73.42     14.21     13.13      7.09      0.03     -0.01     11.18 
    73.43     14.21     13.13      7.09      0.03     -0.02     11.59 
    73.44     14.21     13.12      7.09      0.03     -0.02     11.59 
    73.45     14.21     13.12      7.09      0.03     -0.02     12.41 
    73.46     14.21     13.12      7.09      0.04     -0.02     12.82 
    73.47     14.21     13.12      7.09      0.03     -0.02     13.35 
    73.48     14.21     13.13      7.10      0.03     -0.01     12.12 
    73.49     14.21     13.13      7.10      0.03     -0.02     12.12 
    73.50     14.21     13.13      7.10      0.03     -0.01     12.94 
    73.51     14.21     13.13      7.10      0.03     -0.01     12.53 
    73.52     14.21     13.13      7.10      0.03     -0.01     12.12 
    73.53     14.21     13.13      7.10      0.02     -0.01     12.53 
    73.54     14.21     13.14      7.10      0.02     -0.00     12.12 
    73.55     14.21     13.14      7.10      0.02      0.00     12.94 
    73.56     14.20     13.14      7.10      0.02     -0.00     14.18 
    73.57     14.20     13.14      7.10      0.02      0.00     14.18 
    73.58     14.20     13.15      7.10      0.02      0.00     11.71 
    73.59     14.20     13.14      7.10      0.02      0.00     12.12 
