#Written by Robertson Geologging WinLogger V1.0/370
~VERSION INFORMATION
#------------------------------------------------------------------------------
 VERS. 2.0 : CWLS LOG ASCII STANDARD - VERSION 2.0
 WRAP. NO  : ONE LINE PER DEPTH STEP
~WELL INFORMATION
#MNEM.UNIT         DATA                                DESCRIPTION OF MNEMONIC
#------------------------------------------------------------------------------
 STRT.M         12.5800                            :   START DEPTH
 STOP.M        114.0100                            :   STOP DEPTH
 STEP.M          0.0100                            :   STEP VALUE
 NULL.        -999.2500                            :   NULL VALUE
 COMP.    White Young Green                        :   COMPANY NAME
 WELL.    Chatershaugh                             :   WELL NAME
 FLD.     Chatershaugh                             :   FIELD NAME
 LOC.     N/A                                      :   LOCATION
 PROV.    N/A                                      :   PROVINCE
 SRVC.    N/A                                      :   SERVICE COMPANY NAME
 DATE.    07 Oct 05                                :   DATE
 UWI.     N/A                                      :   UNIQUE WELL IDENTIFIER
~PARAMETER INFORMATION
#MNEMO.UNIT         VALUE                 DESCRIPTION OF MNEMONIC
#------------------------------------------------------------------------------
~OTHER INFORMATION SECTION
#------------------------------------------------------------------------------
 TCGS1365
~CURVE INFORMATION
#MNEMO.UNIT         API CODE              CURVE DESCRIPTION
#------------------------------------------------------------------------------
 DEPTH.M                                 :   0     Depth
 TEMP.DegC                               :   1     Temperature
 CN25.mS/cm                              :   2     Conductivity@25DegC
 COND.mS/cm                              :   3     Conductivity
 DELT.DegC                               :   4     Delta T
 DELC.mS/cm                              :   5     Delta C
 NGAM.CPS                                :   6     Natural Gamma
#------------------------------------------------------------------------------
~A  DEPTH     TEMP      CN25      COND      DELT      DELC      NGAM      
# ...
    60.04     13.54      9.84      3.91      0.17      0.24      7.76 
    60.05     13.54      9.84      3.91      0.17      0.23      7.76 
    60.06     13.54      9.84      3.91      0.17      0.23      7.35 
    60.07     13.55      9.85      3.92      0.17      0.24      6.94 
    60.08     13.55      9.85      3.92      0.17      0.24      6.94 
    60.09     13.55      9.85      3.92      0.17      0.24      6.12 
    60.10     13.55      9.86      3.93      0.16      0.25      5.82 
    60.11     13.55      9.86      3.93      0.16      0.25      5.35 
    60.12     13.55      9.87      3.93      0.16      0.25      5.76 
    60.13     13.55      9.87      3.94      0.16      0.26      5.76 
    60.14     13.55      9.88      3.94      0.16      0.26      5.71 
    60.15     13.55      9.88      3.95      0.16      0.26      4.88 
    60.16     13.55      9.89      3.95      0.15      0.27      5.76 
    60.17     13.55      9.89      3.95      0.15      0.27      5.76 
    60.18     13.55      9.89      3.96      0.15      0.28      6.24 
    60.19     13.55      9.89      3.96      0.15      0.28      5.82 
    60.20     13.56      9.90      3.97      0.15      0.28      5.35 
    60.21     13.56      9.90      3.97      0.15      0.27      5.76 
    60.22     13.56      9.90      3.97      0.15      0.28      5.76 
    60.23     13.56      9.90      3.98      0.16      0.27      5.76 
    60.24     13.57      9.90      3.98      0.16      0.27      5.76 
    60.25     13.57      9.90      3.98      0.16      0.27      4.94 
    60.26     13.57      9.91      3.99      0.16      0.27      5.35 
    60.27     13.57      9.91      3.99      0.16      0.27      4.94 
    60.28     13.57      9.91      3.99      0.16      0.28      4.94 
    60.29     13.57      9.92      4.00      0.16      0.27      4.94 
    60.30     13.57      9.92      4.00      0.16      0.27      4.53 
    60.31     13.58      9.93      4.00      0.16      0.28      4.53 
    60.32     13.58      9.93      4.01      0.16      0.28      4.94 
    60.33     13.58      9.93      4.01      0.15      0.28      4.53 
    60.34     13.58      9.93      4.01      0.15      0.28      4.53 
    60.35     13.58      9.94      4.02      0.15      0.29      4.18 
    60.36     13.58      9.94      4.03      0.15      0.29      4.18 
    60.37     13.59      9.94      4.03      0.15      0.29      4.59 
    60.38     13.59      9.94      4.03      0.15      0.28      4.18 
    60.39     13.59      9.95      4.04      0.15      0.29      5.00 
    60.40     13.59      9.95      4.04      0.15      0.29      4.59 
    60.41     13.60      9.95      4.04      0.15      0.29      4.59 
    60.42     13.60      9.95      4.05      0.15      0.29      5.41 
    60.43     13.60      9.95      4.05      0.15      0.29      5.00 
    60.44     13.60      9.96      4.05      0.15      0.29      5.41 
    60.45     13.61      9.96      4.06      0.15      0.30      5.82 
    60.46     13.61      9.96      4.06      0.15      0.30      5.82 
    60.47     13.61      9.97      4.07      0.15      0.29      5.41 
    60.48     13.61      9.97      4.07      0.15      0.29      6.24 
    60.49     13.61      9.98      4.08      0.16      0.30      5.82 
    60.50     13.61      9.97      4.08      0.16      0.29      5.82 
    60.51     13.61      9.98      4.08      0.16      0.29      6.24 
    60.52     13.61      9.99      4.09      0.16      0.29      6.18 
    60.53     13.61      9.99      4.09      0.16      0.29      6.59 
    60.54     13.61     10.00      4.09      0.16      0.29      6.18 
    60.55     13.61     10.00      4.10      0.16      0.29      6.18 
    60.56     13.61     10.01      4.10      0.16      0.29      5.76 
    60.57     13.61     10.01      4.10      0.16      0.29      5.76 
    60.58     13.61     10.02      4.11      0.15      0.30      5.76 
    60.59     13.61     10.03      4.11      0.15      0.31      4.94 
    60.60     13.61     10.03      4.11      0.14      0.31      5.35 
    60.61     13.61     10.04      4.12      0.13      0.32      4.94 
    60.62     13.61     10.04      4.12      0.13      0.32      4.53 
    60.63     13.61     10.04      4.13      0.13      0.33      4.53 
    60.64     13.61     10.05      4.13      0.13      0.34      4.94 
    60.65     13.62     10.05      4.14      0.12      0.34      3.71 
    60.66     13.62     10.06      4.14      0.12      0.34      4.53 
    60.67     13.62     10.06      4.14      0.12      0.34      3.71 
    60.68     13.62     10.07      4.15      0.12      0.35      3.71 
    60.69     13.63     10.06      4.16      0.12      0.35      3.71 
    60.70     13.63     10.06      4.16      0.13      0.34      4.12 
    60.71     13.63     10.06      4.16      0.13      0.34      4.94 
    60.72     13.64     10.07      4.17      0.13      0.34      4.94 
    60.73     13.64     10.07      4.18      0.13      0.34      4.53 
    60.74     13.64     10.07      4.18      0.13      0.34      4.53 
    60.75     13.65     10.07      4.18      0.13      0.34      4.53 
    60.76     13.65     10.08      4.19      0.14      0.34      4.53 
    60.77     13.65     10.08      4.19      0.14      0.34      4.94 
    60.78     13.66     10.08      4.20      0.14      0.33      4.94 
    60.79     13.66     10.08      4.20      0.14      0.33      5.35 
    60.80     13.66     10.09      4.20      0.14      0.33      6.59 
    60.81     13.66     10.09      4.21      0.14      0.33      6.59 
    60.82     13.66     10.10      4.21      0.14      0.33      7.41 
    60.83     13.66     10.10      4.22      0.14      0.33      7.41 
    60.84     13.66     10.11      4.22      0.14      0.34      9.06 
    60.85     13.67     10.10      4.22      0.15      0.33      9.06 
    60.86     13.67     10.11      4.23      0.15      0.33      8.65 
    60.87     13.67     10.11      4.23      0.15      0.32      7.82 
    60.88     13.68     10.11      4.24      0.15      0.32      7.41 
    60.89     13.68     10.11      4.24      0.15      0.32      8.24 
    60.90     13.68     10.12      4.25      0.16      0.32      9.47 
    60.91     13.68     10.12      4.25      0.16      0.33      9.47 
    60.92     13.68     10.12      4.26      0.16      0.32      9.47 
    60.93     13.69     10.12      4.26      0.16      0.32      9.88 
    60.94     13.69     10.13      4.26      0.16      0.32      9.06 
    60.95     13.69     10.13      4.26      0.16      0.32     10.29 
    60.96     13.69     10.14      4.27      0.16      0.32      9.88 
    60.97     13.69     10.14      4.27      0.16      0.32      8.24 
    60.98     13.69     10.15      4.28      0.15      0.33      7.82 
    60.99     13.69     10.15      4.28      0.15      0.33      7.00 
    61.00     13.69     10.16      4.28      0.15      0.33      6.18 
    61.01     13.69     10.16      4.29      0.15      0.33      4.53 
    61.02     13.69     10.16      4.29      0.16      0.32      4.12 
    61.03     13.70     10.16      4.29      0.16      0.32      4.94 
    61.04     13.70     10.16      4.30      0.16      0.32      5.35 
    61.05     13.70     10.17      4.30      0.16      0.32      4.94 
    61.06     13.70     10.17      4.30      0.15      0.32      4.12 
    61.07     13.70     10.17      4.31      0.15      0.32      3.29 
    61.08     13.70     10.18      4.31      0.16      0.32      3.29 
    61.09     13.71     10.18      4.32      0.16      0.32      3.71 
    61.10     13.71     10.18      4.32      0.16      0.32      3.71 
    61.11     13.71     10.18      4.33      0.16      0.32      4.12 
    61.12     13.71     10.19      4.33      0.17      0.31      3.29 
    61.13     13.71     10.19      4.33      0.17      0.31      3.71 
    61.14     13.71     10.20      4.34      0.17      0.32      5.35 
    61.15     13.72     10.21      4.35      0.17      0.32      5.35 
    61.16     13.72     10.21      4.35      0.17      0.32      5.76 
