#Written by Robertson Geologging WinLogger V1.0/370
~VERSION INFORMATION
#------------------------------------------------------------------------------
 VERS. 2.0 : CWLS LOG ASCII STANDARD - VERSION 2.0
 WRAP. NO  : ONE LINE PER DEPTH STEP
~WELL INFORMATION
#MNEM.UNIT         DATA                                DESCRIPTION OF MNEMONIC
#------------------------------------------------------------------------------
 STRT.M         12.5800                            :   START DEPTH
 STOP.M        114.0100                            :   STOP DEPTH
 STEP.M          0.0100                            :   STEP VALUE
 NULL.        -999.2500                            :   NULL VALUE
 COMP.    White Young Green                        :   COMPANY NAME
 WELL.    Chatershaugh                             :   WELL NAME
 FLD.     Chatershaugh                             :   FIELD NAME
 LOC.     N/A                                      :   LOCATION
 PROV.    N/A                                      :   PROVINCE
 SRVC.    N/A                                      :   SERVICE COMPANY NAME
 DATE.    07 Oct 05                                :   DATE
 UWI.     N/A                                      :   UNIQUE WELL IDENTIFIER
~PARAMETER INFORMATION
#MNEMO.UNIT         VALUE                 DESCRIPTION OF MNEMONIC
#------------------------------------------------------------------------------
~OTHER INFORMATION SECTION
#------------------------------------------------------------------------------
 TCGS1365
~CURVE INFORMATION
#MNEMO.UNIT         API CODE              CURVE DESCRIPTION
#------------------------------------------------------------------------------
 DEPTH.M                                 :   0     Depth
 TEMP.DegC                               :   1     Temperature
 CN25.mS/cm                              :   2     Conductivity@25DegC
 COND.mS/cm                              :   3     Conductivity
 DELT.DegC                               :   4     Delta T
 DELC.mS/cm                              :   5     Delta C
 NGAM.CPS                                :   6     Natural Gamma
#------------------------------------------------------------------------------
~A  DEPTH     TEMP      CN25      COND      DELT      DELC      NGAM      
# ...
    46.48     11.70      9.72      2.30      0.00     -0.00     11.59 
    46.49     11.70      9.72      2.30      0.00     -0.00     10.76 
    46.50     11.70      9.72      2.30     -0.00      0.00     11.59 
    46.51     11.70      9.72      2.30     -0.00      0.00     11.59 
    46.52     11.70      9.72      2.30     -0.00      0.00     11.12 
    46.53     11.70      9.72      2.30     -0.00      0.01     11.12 
    46.54     11.70      9.72      2.30     -0.00      0.00     12.35 
    46.55     11.70      9.72      2.30     -0.00      0.01     12.35 
    46.56     11.70      9.72      2.30     -0.00      0.00     12.47 
    46.57     11.70      9.72      2.30     -0.01      0.01     10.94 
    46.58     11.70      9.72      2.30     -0.00      0.00     10.53 
    46.59     11.70      9.72      2.30     -0.00      0.00     10.53 
    46.60     11.71      9.72      2.30      0.00      0.00      9.29 
    46.61     11.71      9.71      2.30      0.00     -0.00      8.47 
    46.62     11.71      9.71      2.30      0.01     -0.01      7.94 
    46.63     11.71      9.71      2.30      0.01     -0.00      7.12 
    46.64     11.71      9.71      2.30      0.01     -0.01      7.53 
    46.65     11.71      9.71      2.30      0.01     -0.01      8.76 
    46.66     11.71      9.71      2.30      0.01     -0.01     10.00 
    46.67     11.71      9.71      2.30      0.01     -0.01      9.24 
    46.68     11.71      9.71      2.30      0.01     -0.01     10.06 
    46.69     11.71      9.71      2.30      0.01     -0.01     10.47 
    46.70     11.71      9.72      2.30      0.00      0.00     10.06 
    46.71     11.71      9.71      2.30      0.00     -0.00      8.88 
    46.72     11.71      9.71      2.30      0.00     -0.00      8.06 
    46.73     11.71      9.71      2.30      0.00     -0.01      7.12 
    46.74     11.71      9.71      2.30      0.01     -0.00      9.18 
    46.75     11.71      9.71      2.30      0.01     -0.01     10.82 
    46.76     11.71      9.71      2.30      0.01     -0.01     10.41 
    46.77     11.71      9.71      2.30      0.01     -0.00     10.00 
    46.78     11.71      9.71      2.30      0.01     -0.00     10.00 
    46.79     11.71      9.71      2.30      0.01     -0.01     11.65 
    46.80     11.71      9.71      2.30      0.01     -0.01     12.47 
    46.81     11.71      9.71      2.30      0.01     -0.01     13.71 
    46.82     11.71      9.71      2.30      0.01     -0.00     13.29 
    46.83     11.71      9.71      2.30      0.01     -0.01     12.53 
    46.84     11.71      9.71      2.30      0.00     -0.00     12.47 
    46.85     11.71      9.71      2.30      0.00     -0.00     12.47 
    46.86     11.71      9.71      2.30      0.00     -0.00     12.06 
    46.87     11.71      9.71      2.30      0.00     -0.00     12.47 
    46.88     11.71      9.71      2.30      0.00     -0.00     12.82 
    46.89     11.71      9.71      2.30     -0.00      0.00     13.76 
    46.90     11.71      9.71      2.30     -0.00      0.00     14.59 
    46.91     11.71      9.71      2.30      0.00      0.00     13.35 
    46.92     11.71      9.71      2.30     -0.00     -0.00     12.94 
    46.93     11.71      9.71      2.30     -0.00      0.00     13.88 
    46.94     11.71      9.71      2.30     -0.00      0.00     14.29 
    46.95     11.71      9.71      2.30     -0.00      0.00     14.71 
    46.96     11.71      9.71      2.30     -0.00     -0.00     13.47 
    46.97     11.71      9.71      2.30     -0.00      0.01     13.12 
    46.98     11.71      9.71      2.30      0.00      0.00     11.47 
    46.99     11.71      9.71      2.30      0.00      0.00     10.65 
    47.00     11.71      9.71      2.30      0.00     -0.00     10.18 
    47.01     11.71      9.71      2.30      0.00      0.00     11.41 
    47.02     11.71      9.71      2.30      0.00      0.00     10.59 
    47.03     11.71      9.71      2.30      0.00     -0.00     11.00 
    47.04     11.71      9.71      2.30      0.01     -0.01     10.18 
    47.05     11.72      9.71      2.30      0.01     -0.01      9.76 
    47.06     11.72      9.70      2.30      0.01     -0.01      8.82 
    47.07     11.72      9.70      2.30      0.01     -0.01      8.41 
    47.08     11.72      9.70      2.30      0.01     -0.01      8.41 
    47.09     11.72      9.71      2.30      0.01     -0.01      7.65 
    47.10     11.72      9.70      2.30      0.02     -0.02      6.71 
    47.11     11.72      9.70      2.30      0.02     -0.02      6.29 
    47.12     11.72      9.71      2.30      0.02     -0.02      7.12 
    47.13     11.72      9.71      2.30      0.01     -0.01      7.53 
    47.14     11.71      9.71      2.30      0.01     -0.01      7.53 
    47.15     11.71      9.71      2.30      0.01     -0.01      8.35 
    47.16     11.71      9.71      2.30      0.01     -0.01      8.76 
    47.17     11.71      9.71      2.30      0.01     -0.00      8.76 
    47.18     11.71      9.71      2.30      0.00     -0.01      7.59 
    47.19     11.71      9.71      2.30      0.00     -0.00      8.41 
    47.20     11.71      9.71      2.30     -0.00      0.00      8.41 
    47.21     11.71      9.72      2.30     -0.01      0.01     10.06 
    47.22     11.71      9.71      2.30     -0.01      0.01      9.65 
    47.23     11.71      9.71      2.30     -0.01      0.01      9.65 
    47.24     11.71      9.71      2.30     -0.01      0.01      9.24 
    47.25     11.71      9.72      2.30     -0.01      0.01      8.00 
    47.26     11.71      9.71      2.30     -0.01      0.01      8.00 
    47.27     11.71      9.71      2.30     -0.01      0.01      8.41 
    47.28     11.71      9.71      2.30     -0.00      0.00      8.82 
    47.29     11.71      9.71      2.30     -0.00      0.01      7.59 
    47.30     11.71      9.71      2.30      0.00     -0.00      6.35 
    47.31     11.71      9.71      2.30      0.00     -0.00      6.71 
    47.32     11.71      9.71      2.30      0.01     -0.01      6.35 
    47.33     11.71      9.71      2.30      0.01     -0.00      7.59 
    47.34     11.71      9.71      2.30      0.01     -0.01      8.41 
    47.35     11.71      9.71      2.30      0.01     -0.01      8.76 
    47.36     11.71      9.71      2.30      0.01     -0.01      8.88 
    47.37     11.71      9.71      2.30      0.01     -0.01      8.47 
    47.38     11.71      9.71      2.30      0.01     -0.01      6.82 
    47.39     11.71      9.71      2.30      0.01     -0.01      8.29 
    47.40     11.71      9.71      2.30      0.02     -0.02      9.53 
    47.41     11.71      9.71      2.30      0.02     -0.01      9.53 
    47.42     11.72      9.71      2.30      0.02     -0.02      9.53 
    47.43     11.72      9.70      2.30      0.02     -0.02      9.47 
    47.44     11.72      9.70      2.30      0.02     -0.02      9.88 
    47.45     11.72      9.70      2.30      0.02     -0.01     10.41 
    47.46     11.72      9.70      2.30      0.02     -0.02     12.47 
    47.47     11.72      9.70      2.30      0.02     -0.02     12.88 
    47.48     11.72      9.70      2.30      0.01     -0.01     12.53 
    47.49     11.72      9.70      2.30      0.01     -0.01     12.88 
    47.50     11.72      9.71      2.30      0.01     -0.01     11.24 
    47.51     11.71      9.71      2.30      0.01     -0.01     10.88 
    47.52     11.71      9.71      2.30      0.01     -0.01     10.88 
    47.53     11.71      9.71      2.30      0.01     -0.01     10.35 
    47.54     11.71      9.71      2.30      0.01     -0.01     10.35 
    47.55     11.71      9.71      2.30      0.01     -0.01     10.76 
    47.56     11.71      9.71      2.30      0.01     -0.01      9.71 
    47.57     11.71      9.71      2.30      0.01     -0.01      8.94 
    47.58     11.71      9.72      2.30      0.01     -0.00      8.94 
    47.59     11.71      9.71      2.30      0.01     -0.01      9.76 
    47.60     11.71      9.71      2.30      0.01     -0.01      9.76 
