#Written by Robertson Geologging WinLogger V1.0/370
~VERSION INFORMATION
#------------------------------------------------------------------------------
 VERS. 2.0 : CWLS LOG ASCII STANDARD - VERSION 2.0
 WRAP. NO  : ONE LINE PER DEPTH STEP
~WELL INFORMATION
#MNEM.UNIT         DATA                                DESCRIPTION OF MNEMONIC
#------------------------------------------------------------------------------
 STRT.M         12.5800                            :   START DEPTH
 STOP.M        114.0100                            :   STOP DEPTH
 STEP.M          0.0100                            :   STEP VALUE
 NULL.        -999.2500                            :   NULL VALUE
 COMP.    White Young Green                        :   COMPANY NAME
 WELL.    Chatershaugh                             :   WELL NAME
 FLD.     Chatershaugh                             :   FIELD NAME
 LOC.     N/A                                      :   LOCATION
 PROV.    N/A                                      :   PROVINCE
 SRVC.    N/A                                      :   SERVICE COMPANY NAME
 DATE.    07 Oct 05                                :   DATE
 UWI.     N/A                                      :   UNIQUE WELL IDENTIFIER
~PARAMETER INFORMATION
#MNEMO.UNIT         VALUE                 DESCRIPTION OF MNEMONIC
#------------------------------------------------------------------------------
~OTHER INFORMATION SECTION
#------------------------------------------------------------------------------
 TCGS1365
~CURVE INFORMATION
#MNEMO.UNIT         API CODE              CURVE DESCRIPTION
#------------------------------------------------------------------------------
 DEPTH.M                                 :   0     Depth
 TEMP.DegC                               :   1     Temperature
 CN25.mS/cm                              :   2     Conductivity@25DegC
 COND.mS/cm                              :   3     Conductivity
 DELT.DegC                               :   4     Delta T
 DELC.mS/cm                              :   5     Delta C
 NGAM.CPS                                :   6     Natural Gamma
#------------------------------------------------------------------------------
~A  DEPTH     TEMP      CN25      COND      DELT      DELC      NGAM      
# ...
    39.70     11.59      9.81      2.28     -0.00      0.00      2.06 
    39.71     11.59      9.81      2.28     -0.00      0.00      2.47 
    39.72     11.59      9.81      2.28     -0.00      0.00      2.06 
    39.73     11.59      9.81      2.28     -0.00      0.00      1.24 
    39.74     11.60      9.81      2.28      0.00     -0.00      1.24 
    39.75     11.60      9.81      2.29      0.00      0.00      1.24 
    39.76     11.60      9.81      2.28      0.01     -0.00      1.24 
    39.77     11.60      9.80      2.28      0.01     -0.01      0.82 
    39.78     11.60      9.80      2.28      0.01     -0.01      0.82 
    39.79     11.60      9.80      2.28      0.01     -0.01      1.24 
    39.80     11.60      9.80      2.28      0.02     -0.01      1.24 
    39.81     11.60      9.80      2.28      0.02     -0.02      1.24 
    39.82     11.60      9.81      2.29      0.02     -0.02      0.82 
    39.83     11.61      9.80      2.28      0.02     -0.02      0.82 
    39.84     11.60      9.80      2.28      0.02     -0.02      1.24 
    39.85     11.60      9.80      2.28      0.02     -0.02      1.65 
    39.86     11.60      9.80      2.28      0.02     -0.02      1.65 
    39.87     11.60      9.81      2.28      0.02     -0.02      1.65 
    39.88     11.60      9.81      2.28      0.02     -0.02      1.24 
    39.89     11.60      9.81      2.29      0.02     -0.01      1.71 
    39.90     11.60      9.81      2.28      0.02     -0.02      1.71 
    39.91     11.60      9.81      2.28      0.01     -0.02      1.71 
    39.92     11.60      9.81      2.28      0.01     -0.01      2.53 
    39.93     11.59      9.81      2.28      0.01     -0.01      2.53 
    39.94     11.59      9.82      2.28      0.01     -0.00      3.00 
    39.95     11.59      9.82      2.28      0.01     -0.01      3.00 
    39.96     11.59      9.82      2.28      0.01     -0.00      2.59 
    39.97     11.59      9.81      2.28      0.00     -0.01      3.00 
    39.98     11.59      9.82      2.28      0.00     -0.00      3.00 
    39.99     11.59      9.82      2.28      0.00     -0.00      3.00 
    40.00     11.59      9.81      2.28      0.00     -0.01      3.00 
    40.01     11.59      9.81      2.28      0.00     -0.01      3.00 
    40.02     11.59      9.82      2.28      0.01     -0.00      2.59 
    40.03     11.59      9.81      2.28      0.01     -0.00      2.59 
    40.04     11.60      9.81      2.28      0.01     -0.00      2.59 
    40.05     11.60      9.81      2.28      0.01     -0.01      2.59 
    40.06     11.60      9.81      2.28      0.01     -0.00      2.12 
    40.07     11.60      9.81      2.28      0.01     -0.00      2.53 
    40.08     11.60      9.81      2.28      0.00      0.00      2.53 
    40.09     11.59      9.81      2.28      0.00     -0.00      1.71 
    40.10     11.59      9.81      2.28      0.00     -0.00      1.71 
    40.11     11.59      9.81      2.28     -0.00      0.00      1.24 
    40.12     11.59      9.82      2.28     -0.00      0.01      1.24 
    40.13     11.59      9.81      2.28     -0.00      0.00      1.24 
    40.14     11.59      9.81      2.28      0.00     -0.00      0.82 
    40.15     11.59      9.82      2.28      0.00     -0.00      0.82 
    40.16     11.59      9.82      2.28      0.00      0.00      0.82 
    40.17     11.59      9.81      2.28      0.01     -0.00      1.76 
    40.18     11.59      9.81      2.28      0.01     -0.01      1.35 
    40.19     11.60      9.81      2.28      0.01     -0.02      1.35 
    40.20     11.60      9.81      2.28      0.02     -0.02      1.35 
    40.21     11.60      9.80      2.28      0.02     -0.02      1.35 
    40.22     11.60      9.80      2.28      0.02     -0.02      1.76 
    40.23     11.60      9.80      2.28      0.02     -0.03      1.76 
    40.24     11.60      9.81      2.28      0.02     -0.02      1.35 
    40.25     11.60      9.81      2.28      0.02     -0.02      1.35 
    40.26     11.60      9.80      2.28      0.02     -0.02      1.35 
    40.27     11.60      9.81      2.28      0.02     -0.02      1.76 
    40.28     11.60      9.81      2.28      0.02     -0.02      2.18 
    40.29     11.60      9.81      2.28      0.02     -0.02      2.18 
    40.30     11.60      9.81      2.28      0.02     -0.01      2.18 
    40.31     11.60      9.81      2.28      0.01     -0.01      2.18 
    40.32     11.60      9.81      2.28      0.01     -0.01      2.18 
    40.33     11.60      9.81      2.28      0.01     -0.01      2.18 
    40.34     11.60      9.81      2.29      0.01     -0.00      1.65 
    40.35     11.60      9.81      2.28      0.01     -0.01      1.65 
    40.36     11.60      9.81      2.28      0.01     -0.01      2.06 
    40.37     11.60      9.81      2.29      0.01     -0.00      2.06 
    40.38     11.60      9.81      2.28      0.01     -0.00      2.47 
    40.39     11.60      9.81      2.28      0.00     -0.01      2.47 
    40.40     11.60      9.81      2.29      0.00     -0.00      2.88 
    40.41     11.60      9.81      2.29      0.00     -0.00      2.88 
    40.42     11.60      9.81      2.28      0.00     -0.00      2.88 
    40.43     11.60      9.81      2.29      0.00      0.00      2.88 
    40.44     11.60      9.81      2.29      0.00     -0.00      2.47 
    40.45     11.60      9.81      2.28      0.00     -0.01      2.06 
    40.46     11.60      9.81      2.29      0.01     -0.01      2.06 
    40.47     11.60      9.81      2.29      0.01     -0.00      2.06 
    40.48     11.60      9.81      2.29      0.01     -0.01      2.06 
    40.49     11.60      9.81      2.29      0.01     -0.01      2.06 
    40.50     11.60      9.81      2.29      0.01     -0.01      2.06 
    40.51     11.60      9.81      2.29      0.01     -0.00      1.65 
    40.52     11.60      9.81      2.29      0.01     -0.01      1.65 
    40.53     11.60      9.82      2.29      0.01     -0.00      1.24 
    40.54     11.60      9.81      2.29      0.01     -0.00      1.24 
    40.55     11.60      9.81      2.29      0.00     -0.00      1.29 
    40.56     11.60      9.82      2.29      0.00      0.00      1.29 
    40.57     11.60      9.81      2.29     -0.00      0.00      1.29 
    40.58     11.59      9.82      2.29     -0.00      0.01      1.29 
    40.59     11.59      9.82      2.29     -0.00      0.01      1.29 
    40.60     11.59      9.82      2.29     -0.00      0.01      1.29 
    40.61     11.59      9.82      2.29     -0.00      0.01      1.29 
    40.62     11.60      9.82      2.29     -0.00      0.01      1.71 
    40.63     11.60      9.82      2.29      0.00      0.01      2.12 
    40.64     11.60      9.82      2.29      0.00      0.00      2.12 
    40.65     11.60      9.81      2.29      0.01      0.00      2.12 
    40.66     11.60      9.82      2.29      0.01      0.00      2.94 
    40.67     11.60      9.81      2.29      0.01     -0.00      3.41 
    40.68     11.61      9.81      2.29      0.01     -0.00      3.82 
    40.69     11.61      9.81      2.29      0.02     -0.01      3.82 
    40.70     11.61      9.81      2.29      0.02     -0.01      3.82 
    40.71     11.62      9.80      2.29      0.02     -0.01      3.82 
    40.72     11.62      9.80      2.29      0.03     -0.01      3.35 
    40.73     11.62      9.79      2.29      0.03     -0.02      2.94 
    40.74     11.63      9.79      2.29      0.03     -0.02      2.94 
    40.75     11.63      9.79      2.29      0.03     -0.02      2.94 
    40.76     11.63      9.79      2.29      0.03     -0.02      2.94 
    40.77     11.63      9.79      2.29      0.03     -0.02      3.41 
    40.78     11.63      9.79      2.29      0.03     -0.02      3.41 
    40.79     11.63      9.79      2.29      0.03     -0.02      3.00 
    40.80     11.63      9.79      2.29      0.03     -0.01      2.59 
    40.81     11.63      9.78      2.29      0.03     -0.02      2.59 
    40.82     11.63      9.79      2.29      0.03     -0.01      2.59 
