#Written by Robertson Geologging WinLogger V1.0/406
~VERSION INFORMATION
#------------------------------------------------------------------------------
 VERS. 2.0 : CWLS LOG ASCII STANDARD - VERSION 2.0
 WRAP. NO  : ONE LINE PER DEPTH STEP
~WELL INFORMATION
#MNEM.UNIT         DATA                                DESCRIPTION OF MNEMONIC
#------------------------------------------------------------------------------
 STRT.M         15.0700                            :   START DEPTH
 STOP.M        131.0000                            :   STOP DEPTH
 STEP.M          0.0100                            :   STEP VALUE
 NULL.        -999.2500                            :   NULL VALUE
 COMP.    Coal Authority                           :   COMPANY NAME
 WELL.    Chatershaugh                             :   WELL NAME
 FLD.     N/A                                      :   FIELD NAME
 LOC.     N/A                                      :   LOCATION
 PROV.    N/A                                      :   PROVINCE
 SRVC.    N/A                                      :   SERVICE COMPANY NAME
 DATE.    01 Oct 08                                :   DATE
 UWI.     N/A                                      :   UNIQUE WELL IDENTIFIER
~PARAMETER INFORMATION
#MNEMO.UNIT         VALUE                 DESCRIPTION OF MNEMONIC
#------------------------------------------------------------------------------
~OTHER INFORMATION SECTION
#------------------------------------------------------------------------------
 TCGS2822
~CURVE INFORMATION
#MNEMO.UNIT         API CODE              CURVE DESCRIPTION
#------------------------------------------------------------------------------
 DEPTH.M                                 :   0     Depth
 TEMP.DegC                               :   1     Temperature
 COND.uS/cm                              :   2     Conductivity
 DELT.DegC                               :   3     Delta T
 DELC.uS/cm                              :   4     Delta C
 NGAM.CPS                                :   5     Natural Gamma
#------------------------------------------------------------------------------
~A  DEPTH     TEMP      COND      DELT      DELC      NGAM      
# ...
    37.51     11.16   1344.76     -0.05      0.00      0.00 
    37.52     11.15   1337.61     -0.05     -7.15      0.00 
    37.53     11.16   1344.76     -0.02      0.00      0.00 
    37.54     11.15   1344.76     -0.02      0.00      0.00 
    37.55     11.16   1344.76     -0.01      0.00      0.00 
    37.56     11.19   1344.76      0.01      0.00      0.00 
    37.57     11.18   1344.76      0.01      7.15      0.00 
    37.58     11.20   1344.76      0.04      0.00      0.00 
    37.59     11.18   1344.76      0.02      0.00      0.00 
    37.60     11.15   1337.61     -0.01     -7.15      0.00 
    37.61     11.16   1344.76      0.00      0.00      0.00 
    37.62     11.13   1344.76     -0.05      0.00      0.00 
    37.63     11.13   1344.76     -0.03      0.00      7.00 
    37.64     11.14   1344.76     -0.04      7.15      0.00 
    37.65     11.13   1344.76     -0.05      0.00      0.00 
    37.66     11.15   1344.76      0.00      0.00      0.00 
    37.67     11.15   1344.76     -0.00      0.00      0.00 
    37.68     11.17   1344.76      0.02      0.00      0.00 
    37.69     11.19   1337.61      0.04     -7.15      0.00 
    37.70     11.18   1344.76      0.00      0.00      0.00 
    37.71     11.17   1344.76      0.00      0.00      8.00 
    37.72     11.17   1344.76      0.00      7.15      0.00 
    37.73     11.16   1344.76      0.00      0.00      0.00 
    37.74     11.14   1344.76      0.01      0.00      0.00 
    37.75     11.15   1344.76      0.01      0.00      0.00 
    37.76     11.15   1344.76      0.01      0.00      0.00 
    37.77     11.16   1344.76      0.03      0.00      0.00 
    37.78     11.17   1336.72      0.03     -8.04      0.00 
    37.79     11.19   1344.76      0.03      0.00      0.00 
    37.80     11.19   1344.76      0.04      0.00      0.00 
    37.81     11.17   1344.76      0.02      8.04      0.00 
    37.82     11.20   1344.76      0.05      0.00      7.00 
    37.83     11.19   1344.76      0.06      0.00      0.00 
    37.84     11.18   1344.76      0.04      0.00      0.00 
    37.85     11.18   1344.76      0.02      0.00      0.00 
    37.86     11.17   1344.76      0.02      0.00      0.00 
    37.87     11.16   1344.76      0.00      0.00      0.00 
    37.88     11.15   1337.61     -0.02     -7.15      0.00 
    37.89     11.16   1344.76     -0.00      0.00      0.00 
    37.90     11.15   1344.76     -0.03      8.04      7.00 
    37.91     11.15   1344.76     -0.02      0.00      0.00 
    37.92     11.15   1344.76     -0.00      0.00      0.00 
    37.93     11.14   1344.76     -0.02      0.00      0.00 
    37.94     11.14   1344.76     -0.02      0.00      7.00 
    37.95     11.15   1344.76     -0.02      0.00      0.00 
    37.96     11.16   1344.76     -0.01      0.00      0.00 
    37.97     11.17   1344.76      0.01      0.00      0.00 
    37.98     11.16   1344.76     -0.00      0.00      0.00 
    37.99     11.16   1337.61     -0.02      0.89      0.00 
    38.00     11.15   1344.76     -0.04      0.00      0.00 
    38.01     11.17   1344.76     -0.03      0.00      0.00 
    38.02     11.18   1344.76     -0.00      0.00      0.00 
    38.03     11.16   1344.76     -0.00      0.00      0.00 
    38.04     11.15   1351.01     -0.00      6.25      0.00 
    38.05     11.12   1344.76     -0.03      0.00      0.00 
    38.06     11.12   1344.76     -0.03      0.00      0.00 
    38.07     11.15   1351.01     -0.00     13.40      0.00 
    38.08     11.18   1351.01      0.01      6.25      0.00 
    38.09     11.20   1344.76      0.02      0.00      7.00 
    38.10     11.19   1351.01      0.01      6.25      0.00 
    38.11     11.16   1351.90      0.00      7.15      0.00 
    38.12     11.16   1344.76      0.00      0.00      7.00 
    38.13     11.17   1351.01      0.02      6.25      7.00 
    38.14     11.19   1344.76      0.02      0.00      0.00 
    38.15     11.22   1344.76      0.05      0.00      0.00 
    38.16     11.20   1351.01      0.04     13.40      7.00 
    38.17     11.20   1344.76      0.03      0.00      0.00 
    38.18     11.19   1351.01      0.03      6.25      0.00 
    38.19     11.17   1351.01      0.02      6.25      0.00 
    38.20     11.17   1351.90      0.02      7.15      0.00 
    38.21     11.16   1357.26      0.02     12.51      0.00 
    38.22     11.15   1357.26     -0.00     12.51      0.00 
    38.23     11.17   1363.52      0.00     18.76      0.00 
    38.24     11.18   1359.05     -0.02     14.29      0.00 
    38.25     11.19   1363.52     -0.01     25.91      0.00 
    38.26     11.21   1357.26      0.01     12.51      0.00 
    38.27     11.18   1363.52     -0.00     18.76      0.00 
    38.28     11.18   1357.26      0.00     12.51      0.00 
    38.29     11.16   1363.52      0.01     18.76      7.00 
    38.30     11.16   1357.26      0.01     12.51      0.00 
    38.31     11.18   1363.52      0.02     18.76      0.00 
    38.32     11.17   1363.52      0.04     18.76      0.00 
    38.33     11.17   1363.52      0.04     18.76      7.00 
    38.34     11.17   1363.52      0.06     25.91      0.00 
    38.35     11.16   1369.77      0.02     25.01      0.00 
    38.36     11.15   1369.77      0.00     25.01      0.00 
    38.37     11.17   1369.77      0.00     25.01      0.00 
    38.38     11.16   1367.09     -0.03     22.33      0.00 
    38.39     11.16   1372.45      0.00     27.69      0.00 
    38.40     11.18   1374.24      0.00     29.48      0.00 
    38.41     11.16   1369.77     -0.00     25.01      0.00 
    38.42     11.16   1369.77     -0.01     32.16      0.00 
    38.43     11.16   1369.77     -0.01     25.01      0.00 
    38.44     11.16   1363.52      0.00     18.76      0.00 
    38.45     11.18   1369.77      0.02     25.01      0.00 
    38.46     11.17   1369.77      0.03     25.01      0.00 
    38.47     11.16   1376.02      0.00     31.27      0.00 
    38.48     11.16   1369.77      0.01     25.01      0.00 
    38.49     11.16   1382.28     -0.00     37.52      0.00 
    38.50     11.17   1376.02      0.00     31.27      0.00 
    38.51     11.19   1382.28      0.04     44.67      7.00 
    38.52     11.18   1382.28      0.02     37.52      0.00 
    38.53     11.19   1376.02      0.04     31.27      0.00 
    38.54     11.18   1382.28      0.01     37.52      0.00 
    38.55     11.18   1382.28     -0.00     37.52      0.00 
    38.56     11.19   1377.81      0.01     33.05      0.00 
    38.57     11.18   1376.02     -0.02     31.27      0.00 
    38.58     11.19   1376.02      0.01     31.27      0.00 
    38.59     11.18   1381.39      0.03     43.77      0.00 
    38.60     11.18   1376.02      0.02     31.27      0.00 
    38.61     11.17   1382.28      0.04     37.52      0.00 
    38.62     11.16   1382.28      0.03     37.52      0.00 
    38.63     11.17   1382.28      0.03     37.52      0.00 
    38.64     11.17   1389.43      0.04     44.67      7.00 
    38.65     11.20   1389.43      0.04     44.67      0.00 
    38.66     11.20   1389.43      0.05     44.67      0.00 
    38.67     11.19   1389.43      0.02     44.67      0.00 
    38.68     11.19   1395.68      0.00     58.07      0.00 
    38.69     11.18   1395.68     -0.00     50.93      0.00 
    38.70     11.17   1395.68     -0.00     50.93      0.00 
    38.71     11.17   1395.68      0.00     50.93      0.00 
    38.72     11.19   1395.68      0.03     50.93      0.00 
    38.73     11.20   1395.68      0.06     50.93      0.00 
    38.74     11.21   1395.68      0.06     50.93      0.00 
    38.75     11.20   1395.68      0.05     50.93      0.00 
    38.76     11.18   1401.94      0.01     57.18      0.00 
    38.77     11.16   1401.94     -0.01     65.22      7.00 
    38.78     11.16   1401.94     -0.03     57.18      0.00 
    38.79     11.16   1408.19     -0.03     63.44      7.00 
    38.80     11.18   1408.19      0.00     63.44      0.00 
    38.81     11.19   1403.73     -0.00     58.97      0.00 
    38.82     11.19   1414.45      0.00     69.69      0.00 
