#Written by Robertson Geologging WinLogger V1.0/406
~VERSION INFORMATION
#------------------------------------------------------------------------------
 VERS. 2.0 : CWLS LOG ASCII STANDARD - VERSION 2.0
 WRAP. NO  : ONE LINE PER DEPTH STEP
~WELL INFORMATION
#MNEM.UNIT         DATA                                DESCRIPTION OF MNEMONIC
#------------------------------------------------------------------------------
 STRT.M         15.0700                            :   START DEPTH
 STOP.M        131.0000                            :   STOP DEPTH
 STEP.M          0.0100                            :   STEP VALUE
 NULL.        -999.2500                            :   NULL VALUE
 COMP.    Coal Authority                           :   COMPANY NAME
 WELL.    Chatershaugh                             :   WELL NAME
 FLD.     N/A                                      :   FIELD NAME
 LOC.     N/A                                      :   LOCATION
 PROV.    N/A                                      :   PROVINCE
 SRVC.    N/A                                      :   SERVICE COMPANY NAME
 DATE.    01 Oct 08                                :   DATE
 UWI.     N/A                                      :   UNIQUE WELL IDENTIFIER
~PARAMETER INFORMATION
#MNEMO.UNIT         VALUE                 DESCRIPTION OF MNEMONIC
#------------------------------------------------------------------------------
~OTHER INFORMATION SECTION
#------------------------------------------------------------------------------
 TCGS2822
~CURVE INFORMATION
#MNEMO.UNIT         API CODE              CURVE DESCRIPTION
#------------------------------------------------------------------------------
 DEPTH.M                                 :   0     Depth
 TEMP.DegC                               :   1     Temperature
 COND.uS/cm                              :   2     Conductivity
 DELT.DegC                               :   3     Delta T
 DELC.uS/cm                              :   4     Delta C
 NGAM.CPS                                :   5     Natural Gamma
#------------------------------------------------------------------------------
~A  DEPTH     TEMP      COND      DELT      DELC      NGAM      
# ...
    45.43     11.62   1485.08      0.02      6.26      0.00 
    45.44     11.61   1478.82      0.01      0.00      0.00 
    45.45     11.61   1478.82      0.01      0.00      0.00 
    45.46     11.61   1478.82      0.01      0.00      0.00 
    45.47     11.63   1478.82      0.00      0.00      0.00 
    45.48     11.65   1485.08      0.00      6.26      0.00 
    45.49     11.65   1478.82      0.00      0.00      0.00 
    45.50     11.65   1478.82      0.00      0.00      0.00 
    45.51     11.64   1478.82      0.00      0.00      0.00 
    45.52     11.62   1478.82     -0.02      0.00      0.00 
    45.53     11.63   1478.82     -0.00     -6.26      0.00 
    45.54     11.63   1478.82     -0.03      0.00      0.00 
    45.55     11.63   1485.08     -0.02      6.26      0.00 
    45.56     11.64   1478.82      0.00      0.00      0.00 
    45.57     11.63   1478.82     -0.02      0.00      0.00 
    45.58     11.64   1478.82      0.00      0.00      0.00 
    45.59     11.63   1478.82     -0.02      0.00      0.00 
    45.60     11.62   1485.08     -0.00      6.26      0.00 
    45.61     11.63   1478.82      0.01      0.00      0.00 
    45.62     11.62   1478.82      0.00      0.00      0.00 
    45.63     11.63   1478.82      0.01      0.00      0.00 
    45.64     11.63   1478.82      0.00      0.00      0.00 
    45.65     11.64   1485.97      0.00      7.15      0.00 
    45.66     11.63   1478.82      0.02      0.00      0.00 
    45.67     11.63   1478.82      0.02      0.00      0.00 
    45.68     11.66   1478.82      0.04     -6.26      0.00 
    45.69     11.64   1478.82      0.03      0.00      0.00 
    45.70     11.67   1478.82      0.07      0.00      0.00 
    45.71     11.67   1485.08      0.08      6.26      0.00 
    45.72     11.64   1478.82      0.04      0.00      0.00 
    45.73     11.66   1478.82      0.06      0.00      0.00 
    45.74     11.65   1478.82      0.03      0.00      0.00 
    45.75     11.66   1478.82      0.01      0.00      0.00 
    45.76     11.68   1485.08      0.01      6.26      0.00 
    45.77     11.65   1478.82     -0.01      0.00      7.00 
    45.78     11.64   1478.82     -0.04      0.00      0.00 
    45.79     11.62   1478.82     -0.03     -6.26      0.00 
    45.80     11.62   1478.82     -0.01      0.00      0.00 
    45.81     11.62   1485.08      0.00      6.26      0.00 
    45.82     11.62   1478.82     -0.01      0.00      0.00 
    45.83     11.63   1478.82     -0.02      0.00      0.00 
    45.84     11.62   1478.82     -0.06      0.00      0.00 
    45.85     11.62   1478.82     -0.04      0.00      0.00 
    45.86     11.62   1485.97     -0.01      7.15      0.00 
    45.87     11.63   1478.82      0.00      0.00      7.00 
    45.88     11.65   1478.82      0.03      0.00      0.00 
    45.89     11.66   1478.82      0.02      0.00      0.00 
    45.90     11.68   1485.08      0.04      6.26      0.00 
    45.91     11.67   1478.82      0.04     -6.26      0.00 
    45.92     11.65   1478.82      0.01      0.00      0.00 
    45.93     11.65   1478.82      0.03      0.00      0.00 
    45.94     11.63   1478.82      0.00      0.00      0.00 
    45.95     11.63   1485.08     -0.01      6.26      7.00 
    45.96     11.64   1478.82      0.01      0.00      0.00 
    45.97     11.64   1478.82      0.01      0.00      0.00 
    45.98     11.64   1478.82     -0.00      0.00      0.00 
    45.99     11.64   1478.82      0.01      0.00      0.00 
    46.00     11.63   1485.08     -0.00      0.00      0.00 
    46.01     11.62   1478.82     -0.02      0.00      0.00 
    46.02     11.61   1478.82     -0.03      0.00      0.00 
    46.03     11.61   1478.82     -0.03      0.00      0.00 
    46.04     11.62   1485.08     -0.04      6.26      0.00 
    46.05     11.63   1478.82     -0.03      0.00      0.00 
    46.06     11.63   1478.82     -0.02      0.00      0.00 
    46.07     11.63   1478.82     -0.01      0.00      0.00 
    46.08     11.65   1485.08      0.01     -0.89      0.00 
    46.09     11.64   1478.82      0.00      0.00      0.00 
    46.10     11.63   1478.82      0.00      0.00      0.00 
    46.11     11.64   1478.82      0.00      0.00      7.00 
    46.12     11.63   1485.08     -0.01      6.26      0.00 
    46.13     11.64   1478.82      0.00      0.00      0.00 
    46.14     11.65   1478.82      0.00      0.00      0.00 
    46.15     11.66   1478.82      0.02     -6.26      0.00 
    46.16     11.65   1485.97      0.03      7.15      0.00 
    46.17     11.66   1478.82      0.03      0.00      7.00 
    46.18     11.68   1478.82      0.03      0.00      0.00 
    46.19     11.68   1478.82      0.03      0.00      0.00 
    46.20     11.67   1478.82      0.02      0.00      0.00 
    46.21     11.66   1485.08      0.03      6.26      0.00 
    46.22     11.64   1478.82      0.02     -6.26      0.00 
    46.23     11.64   1478.82      0.01      0.00      0.00 
    46.24     11.65   1478.82      0.00      0.00      0.00 
    46.25     11.65   1485.08     -0.00      6.26      0.00 
    46.26     11.67   1478.82      0.03      0.00      0.00 
    46.27     11.65   1478.82      0.02      0.00      7.00 
    46.28     11.66   1478.82      0.04      0.00      7.00 
    46.29     11.65   1485.08      0.00     -0.89      0.00 
    46.30     11.65   1478.82     -0.04      0.00      0.00 
    46.31     11.65   1478.82     -0.03      0.00      0.00 
    46.32     11.63   1478.82     -0.04      0.00      0.00 
    46.33     11.63   1485.08     -0.03      6.26      0.00 
    46.34     11.61   1478.82     -0.02      0.00      7.00 
    46.35     11.62   1478.82     -0.02     -6.26      0.00 
    46.36     11.63   1478.82      0.00      0.00     14.00 
    46.37     11.66   1478.82      0.01      0.00      0.00 
    46.38     11.67   1485.08      0.01      6.26      0.00 
    46.39     11.67   1478.82      0.03      0.00      0.00 
    46.40     11.68   1478.82      0.03      0.00      0.00 
    46.41     11.67   1478.82      0.04      0.00      0.00 
    46.42     11.68   1485.97      0.05      0.89      0.00 
    46.43     11.65   1478.82      0.04      0.00      0.00 
    46.44     11.64   1478.82      0.02      0.00      0.00 
    46.45     11.64   1478.82      0.03      0.00      0.00 
    46.46     11.63   1478.82      0.00      0.00      0.00 
    46.47     11.64   1485.97     -0.00      0.89      0.00 
    46.48     11.65   1478.82      0.00      0.00      0.00 
    46.49     11.66   1478.82      0.00      0.00      0.00 
    46.50     11.64   1478.82      0.00      0.00      0.00 
    46.51     11.63   1485.97      0.01      7.15      0.00 
    46.52     11.62   1478.82     -0.01      0.00      0.00 
    46.53     11.62   1478.82     -0.01      0.00      0.00 
    46.54     11.63   1478.82      0.00     -6.26      0.00 
    46.55     11.65   1478.82      0.00      0.00      0.00 
    46.56     11.64   1485.08      0.01      6.26      0.00 
    46.57     11.62   1478.82     -0.01      0.00      0.00 
    46.58     11.63   1478.82      0.00      0.00      0.00 
    46.59     11.63   1478.82      0.00     -6.26      0.00 
    46.60     11.65   1485.08      0.02      6.26      0.00 
    46.61     11.64   1478.82      0.02      0.00      0.00 
    46.62     11.64   1478.82      0.01      0.00      0.00 
    46.63     11.62   1478.82     -0.01      0.00      0.00 
    46.64     11.61   1485.97     -0.02      0.00      0.00 
    46.65     11.61   1478.82     -0.02      0.00      0.00 
    46.66     11.60   1478.82     -0.03      0.00      0.00 
    46.67     11.60   1478.82     -0.06      0.00      0.00 
    46.68     11.60   1478.82     -0.04      0.00      7.00 
    46.69     11.61   1485.08     -0.06      6.26      0.00 
    46.70     11.61   1478.82     -0.06     -6.26      0.00 
    46.71     11.62   1478.82     -0.01      0.00      0.00 
    46.72     11.63   1478.82     -0.03      0.00      0.00 
    46.73     11.63   1485.08     -0.02      6.26      0.00 
    46.74     11.65   1478.82     -0.01      0.00      0.00 
