#Written by Robertson Geologging WinLogger V1.0/406
~VERSION INFORMATION
#------------------------------------------------------------------------------
 VERS. 2.0 : CWLS LOG ASCII STANDARD - VERSION 2.0
 WRAP. NO  : ONE LINE PER DEPTH STEP
~WELL INFORMATION
#MNEM.UNIT         DATA                                DESCRIPTION OF MNEMONIC
#------------------------------------------------------------------------------
 STRT.M         15.0700                            :   START DEPTH
 STOP.M        131.0000                            :   STOP DEPTH
 STEP.M          0.0100                            :   STEP VALUE
 NULL.        -999.2500                            :   NULL VALUE
 COMP.    Coal Authority                           :   COMPANY NAME
 WELL.    Chatershaugh                             :   WELL NAME
 FLD.     N/A                                      :   FIELD NAME
 LOC.     N/A                                      :   LOCATION
 PROV.    N/A                                      :   PROVINCE
 SRVC.    N/A                                      :   SERVICE COMPANY NAME
 DATE.    01 Oct 08                                :   DATE
 UWI.     N/A                                      :   UNIQUE WELL IDENTIFIER
~PARAMETER INFORMATION
#MNEMO.UNIT         VALUE                 DESCRIPTION OF MNEMONIC
#------------------------------------------------------------------------------
~OTHER INFORMATION SECTION
#------------------------------------------------------------------------------
 TCGS2822
~CURVE INFORMATION
#MNEMO.UNIT         API CODE              CURVE DESCRIPTION
#------------------------------------------------------------------------------
 DEPTH.M                                 :   0     Depth
 TEMP.DegC                               :   1     Temperature
 COND.uS/cm                              :   2     Conductivity
 DELT.DegC                               :   3     Delta T
 DELC.uS/cm                              :   4     Delta C
 NGAM.CPS                                :   5     Natural Gamma
#------------------------------------------------------------------------------
~A  DEPTH     TEMP      COND      DELT      DELC      NGAM      
    15.07     12.68     12.13      0.00      0.00     60.00 
    15.08     12.68     12.13      0.00      0.00     60.00 
    15.09     12.67     12.13      0.00      0.00     40.00 
    15.10     12.68     12.13      0.00      0.00     62.00 
    15.11     12.66     12.13      0.00      0.00     61.00 
    15.12     12.67     12.13      0.00      0.00     83.00 
    15.13     12.67     12.13      0.00      0.00     77.00 
    15.14     12.68     12.13      0.00      0.00     61.00 
    15.15     12.69     12.13      0.00      0.00     80.00 
    15.16     12.70     12.13      0.00      0.00     50.00 
    15.17     12.68     12.13      0.00      0.00     94.00 
    15.18     12.67     12.13      0.00      0.00     77.00 
    15.19     12.67     12.13      0.00      0.00     38.00 
    15.20     12.66     12.13      0.00      0.00     88.00 
    15.21     12.68     12.13      0.00      0.00     45.00 
    15.22     12.68     12.13      0.00      0.00     50.00 
    15.23     12.68     12.13      0.00      0.00     38.00 
    15.24     12.69     12.13      0.00      0.00     66.00 
    15.25     12.69     12.13      0.00      0.00     60.00 
    15.26     12.69     12.13      0.00      0.00     66.00 
    15.27     12.68     12.13      0.00      0.00     55.00 
    15.28     12.67     12.13      0.00      0.00     72.00 
    15.29     12.67     12.13      0.00      0.00     50.00 
    15.30     12.66     12.13      0.00      0.00     38.00 
    15.31     12.65     12.13      0.00      0.00     62.00 
    15.32     12.65     12.13      0.00      0.00     56.00 
    15.33     12.67     12.13      0.00      0.00     37.00 
    15.34     12.67     12.13      0.00      0.00     50.00 
    15.35     12.68     12.13      0.00      0.00     75.00 
    15.36     12.67  15347.40      0.00      0.00     56.00 
    15.37     12.67    492.87      0.00      0.00     68.00 
    15.38     12.67    681.96      0.00      0.00    106.00 
    15.39     12.67    787.73      0.00      0.00     68.00 
    15.40     12.68   1351.01      0.00      0.00     50.00 
    15.41     12.68   1344.76      0.00      0.00     50.00 
    15.42     12.67   1344.76      0.00      0.00     57.00 
    15.43     12.66   1351.01      0.00      0.00     78.00 
    15.44     12.64   1351.01      0.00      0.00     78.00 
    15.45     12.61   1344.76      0.00      0.00     50.00 
    15.46     12.57   1351.01      0.00      0.00     28.00 
    15.47     12.53   1350.12      0.00      0.00     50.00 
    15.48     12.49   1344.76      0.00      0.00     50.00 
    15.49     12.45   1351.01      0.00      0.00     64.00 
    15.50     12.40   1344.76      0.00      0.00     31.00 
    15.51     12.33   1344.76      0.00      0.00     25.00 
    15.52     12.26   1350.12      0.00      0.00     37.00 
    15.53     12.18   1344.76      0.00      0.00     57.00 
    15.54     12.11   1344.76      0.00      0.00     42.00 
    15.55     12.05   1337.61      0.00      0.00     21.00 
    15.56     12.01   1344.76      0.00      0.00     78.00 
    15.57     11.96   1344.76      0.00      0.00     57.00 
    15.58     11.91   1344.76      0.00      0.00     42.00 
    15.59     11.86   1344.76      0.00      0.00     28.00 
    15.60     11.83   1344.76      0.00      0.00     64.00 
    15.61     11.80   1344.76      0.00      0.00     50.00 
    15.62     11.79   1351.01      0.00      0.00     50.00 
    15.63     11.76   1344.76      0.00      0.00     71.00 
    15.64     11.72   1351.01      0.00      0.00     71.00 
    15.65     11.70   1344.76      0.00      0.00     35.00 
    15.66     11.67   1350.12      0.00      0.00     50.00 
    15.67     11.65   1351.01      0.00      0.00     21.00 
    15.68     11.63   1351.01      0.00      0.00     64.00 
    15.69     11.61   1344.76      0.00      0.00     28.00 
    15.70     11.58   1351.01      0.00      0.00     64.00 
    15.71     11.55   1344.76      0.00      0.00     14.00 
    15.72     11.53   1351.01      0.00      0.00     28.00 
    15.73     11.51   1344.76      0.00      0.00     25.00 
    15.74     11.49   1344.76      0.00      0.00     21.00 
    15.75     11.48   1351.01      0.00      0.00     21.00 
    15.76     11.45   1344.76      0.00      0.00      7.00 
    15.77     11.42   1344.76      0.00      0.00      7.00 
    15.78     11.39   1351.01      0.00      0.00     28.00 
    15.79     11.36   1344.76      0.00      0.00     12.00 
    15.80     11.36   1351.01      0.00      0.00     14.00 
    15.81     11.34   1344.76      0.00      0.00     14.00 
    15.82     11.34   1344.76     -1.37   1332.63      7.00 
    15.83     11.33   1344.76     -1.38   1332.63      0.00 
    15.84     11.28   1351.01     -1.41   1338.88     14.00 
    15.85     11.29   1344.76     -1.39   1332.63      8.00 
    15.86     11.27   1344.76     -1.43   1332.63      0.00 
    15.87     11.24   1344.76     -1.46   1332.63      7.00 
    15.88     11.25   1344.76     -1.45   1332.63     16.00 
    15.89     11.24   1344.76     -1.45   1332.63      7.00 
    15.90     11.23   1344.76     -1.42   1332.63      7.00 
    15.91     11.24   1344.76     -1.42   1332.63      7.00 
    15.92     11.23   1344.76     -1.42   1332.63      8.00 
    15.93     11.22   1344.76     -1.44   1332.63      0.00 
    15.94     11.22   1337.61     -1.45   1325.48      7.00 
    15.95     11.22   1344.76     -1.46   1332.63      7.00 
    15.96     11.22   1344.76     -1.46   1332.63      0.00 
    15.97     11.23   1344.76     -1.48   1332.63      0.00 
    15.98     11.23   1344.76     -1.48   1332.63      7.00 
    15.99     11.23   1344.76     -1.47   1332.63     16.00 
    16.00     11.23   1344.76     -1.50   1332.63      0.00 
    16.01     11.20   1344.76     -1.51   1332.63      0.00 
    16.02     11.18   1344.76     -1.52   1332.63      8.00 
    16.03     11.17   1344.76     -1.52   1332.63      7.00 
    16.04     11.16   1344.76     -1.52   1332.63      0.00 
    16.05     11.17   1337.61     -1.51   1325.48      0.00 
    16.06     11.17   1344.76     -1.51   1332.63      0.00 
    16.07     11.17   1344.76     -1.51   1332.63      8.00 
    16.08     11.18   1337.61     -1.49   1325.48      7.00 
    16.09     11.18   1344.76     -1.50   1332.63      0.00 
    16.10     11.19   1336.72     -1.47   1324.59      8.00 
    16.11     11.20   1344.76     -1.47   1332.63      7.00 
    16.12     11.18   1336.72     -1.49   1324.59      0.00 
    16.13     11.17   1344.76     -1.51   1332.63      0.00 
    16.14     11.16   1337.61     -1.52   1325.48      7.00 
    16.15     11.14   1344.76     -1.56   1332.63      0.00 
    16.16     11.16   1337.61     -1.52   1325.48      0.00 
    16.17     11.17   1344.76     -1.49   1332.63      7.00 
    16.18     11.17   1344.76     -1.50   1332.63      7.00 
    16.19     11.17   1337.61     -1.49   1325.48      7.00 
    16.20     11.16   1344.76     -1.51   1332.63      0.00 
    16.21     11.14   1337.61     -1.53   1325.48      7.00 
    16.22     11.15   1336.72     -1.53   1324.59      0.00 
    16.23     11.16   1337.61     -1.53   1325.48      0.00 
    16.24     11.14   1337.61     -1.55   1325.48      0.00 
    16.25     11.16   1344.76     -1.53   1332.63      0.00 
    16.26     11.14   1337.61     -1.53   1325.48      0.00 
    16.27     11.14   1331.36     -1.53   1319.23      0.00 
    16.28     11.16   1337.61     -1.50   1325.48      0.00 
    16.29     11.17   1344.76     -1.49   1332.63      8.00 
    16.30     11.19   1331.36     -1.47   1319.23      0.00 
    16.31     11.17   1344.76     -1.48   1332.63      0.00 
    16.32     11.16   1331.36     -1.50   1319.23      0.00 
    16.33     11.16   1337.61     -1.51   1325.48      0.00 
    16.34     11.15   1337.61     -1.53   1325.48      0.00 
    16.35     11.18   1331.36     -1.49 -14016.04     14.00 
    16.36     11.16   1337.61     -1.50    844.75      0.00 
    16.37     11.17   1337.61     -1.50    655.65      0.00 
    16.38     11.18   1329.57     -1.49    541.84      8.00 
