#Written by Robertson Geologging WinLogger V1.0/406
~VERSION INFORMATION
#------------------------------------------------------------------------------
 VERS. 2.0 : CWLS LOG ASCII STANDARD - VERSION 2.0
 WRAP. NO  : ONE LINE PER DEPTH STEP
~WELL INFORMATION
#MNEM.UNIT         DATA                                DESCRIPTION OF MNEMONIC
#------------------------------------------------------------------------------
 STRT.M         15.0700                            :   START DEPTH
 STOP.M        131.0000                            :   STOP DEPTH
 STEP.M          0.0100                            :   STEP VALUE
 NULL.        -999.2500                            :   NULL VALUE
 COMP.    Coal Authority                           :   COMPANY NAME
 WELL.    Chatershaugh                             :   WELL NAME
 FLD.     N/A                                      :   FIELD NAME
 LOC.     N/A                                      :   LOCATION
 PROV.    N/A                                      :   PROVINCE
 SRVC.    N/A                                      :   SERVICE COMPANY NAME
 DATE.    01 Oct 08                                :   DATE
 UWI.     N/A                                      :   UNIQUE WELL IDENTIFIER
~PARAMETER INFORMATION
#MNEMO.UNIT         VALUE                 DESCRIPTION OF MNEMONIC
#------------------------------------------------------------------------------
~OTHER INFORMATION SECTION
#------------------------------------------------------------------------------
 TCGS2822
~CURVE INFORMATION
#MNEMO.UNIT         API CODE              CURVE DESCRIPTION
#------------------------------------------------------------------------------
 DEPTH.M                                 :   0     Depth
 TEMP.DegC                               :   1     Temperature
 COND.uS/cm                              :   2     Conductivity
 DELT.DegC                               :   3     Delta T
 DELC.uS/cm                              :   4     Delta C
 NGAM.CPS                                :   5     Natural Gamma
#------------------------------------------------------------------------------
~A  DEPTH     TEMP      COND      DELT      DELC      NGAM      
# ...
   121.99     12.65   3169.54     -0.05      6.34      7.00 
   122.00     12.67   3166.82     -0.01     -2.72      8.00 
   122.01     12.66   3169.54     -0.01      2.72      0.00 
   122.02     12.67   3166.82      0.01      3.63      0.00 
   122.03     12.68   3163.20      0.00     -6.34      0.00 
   122.04     12.68   3169.54      0.01      2.72      0.00 
   122.05     12.70   3166.82      0.03     -2.72      0.00 
   122.06     12.70   3169.54      0.01      6.34      0.00 
   122.07     12.70   3166.82      0.02      0.00      0.00 
   122.08     12.69   3163.20      0.01     -6.34      0.00 
   122.09     12.67   3166.82     -0.01      3.63      0.00 
   122.10     12.65   3169.54     -0.00      2.72      0.00 
   122.11     12.66   3166.82     -0.03     -2.72      0.00 
   122.12     12.67   3169.54     -0.01      6.34      0.00 
   122.13     12.67   3163.20     -0.02     -3.63      0.00 
   122.14     12.66   3166.82     -0.03     -2.72      8.00 
   122.15     12.67   3169.54     -0.00      0.00      7.00 
   122.16     12.66   3163.20     -0.03      0.00      0.00 
   122.17     12.67   3174.07     -0.03      7.25      0.00 
   122.18     12.67   3163.20     -0.04     -6.34      0.00 
   122.19     12.64   3169.54     -0.06      6.34      0.00 
   122.20     12.63   3163.20     -0.05     -6.34      0.00 
   122.21     12.64   3166.82     -0.05      0.00      8.00 
   122.22     12.66   3169.54     -0.02      6.34      0.00 
   122.23     12.66   3169.54     -0.02      0.00      0.00 
   122.24     12.69   3166.82     -0.01     -2.72      0.00 
   122.25     12.70   3163.20      0.01     -3.63      0.00 
   122.26     12.69   3169.54     -0.00      6.34      0.00 
   122.27     12.70   3166.82      0.00     -2.72      8.00 
   122.28     12.68   3169.54     -0.02      2.72      0.00 
   122.29     12.68   3163.20     -0.02      0.00      0.00 
   122.30     12.69   3169.54     -0.00      0.00     14.00 
   122.31     12.68   3163.20      0.00      0.00      0.00 
   122.32     12.67   3169.54      0.00      2.72      0.00 
   122.33     12.67   3169.54     -0.00      0.00      7.00 
   122.34     12.67   3166.82     -0.00     -2.72      0.00 
   122.35     12.67   3163.20     -0.01     -3.63      0.00 
   122.36     12.68   3169.54     -0.02      6.34      0.00 
   122.37     12.69   3166.82      0.00     -2.72      0.00 
   122.38     12.68   3169.54     -0.02      2.72      0.00 
   122.39     12.69   3163.20     -0.02      0.00      0.00 
   122.40     12.69   3166.82     -0.00     -2.72      0.00 
   122.41     12.69   3169.54     -0.01      6.34      0.00 
   122.42     12.70   3163.20      0.01     -6.34      7.00 
   122.43     12.70   3169.54      0.03     10.88      0.00 
   122.44     12.69   3166.82      0.02     -2.72      0.00 
   122.45     12.68   3169.54      0.02      6.34      7.00 
   122.46     12.69   3163.20      0.03     -6.34      0.00 
   122.47     12.68   3166.82      0.00      0.00      0.00 
   122.48     12.68   3169.54     -0.00      6.34      0.00 
   122.49     12.67   3169.54     -0.00      2.72      0.00 
   122.50     12.67   3166.82     -0.02     -2.72      8.00 
   122.51     12.66   3163.20     -0.01     -6.34      0.00 
   122.52     12.66   3169.54     -0.02      2.72      0.00 
   122.53     12.67   3169.54     -0.03      6.34      0.00 
   122.54     12.68   3166.82     -0.03     -2.72      0.00 
   122.55     12.70   3163.20     -0.02     -3.63      0.00 
   122.56     12.71   3169.54     -0.00      6.34      0.00 
   122.57     12.70   3166.82     -0.03     -7.25      0.00 
   122.58     12.67   3169.54     -0.04      6.34      0.00 
   122.59     12.67   3163.20     -0.03     -3.63      0.00 
   122.60     12.67   3169.54     -0.02      0.00      0.00 
   122.61     12.68   3166.82      0.01      3.63      0.00 
   122.62     12.70   3163.20      0.04     -3.63      0.00 
   122.63     12.68   3169.54      0.01      0.00      7.00 
   122.64     12.70   3166.82      0.03      3.63      0.00 
   122.65     12.70   3169.54      0.01     -4.53      0.00 
   122.66     12.69   3163.20      0.00      0.00      0.00 
   122.67     12.72   3174.07      0.03      4.53      0.00 
   122.68     12.69   3163.20     -0.01     -3.63      0.00 
   122.69     12.70   3166.82      0.02      3.63      0.00 
   122.70     12.69   3169.54     -0.00      0.00      0.00 
   122.71     12.68   3163.20     -0.01     -3.63      0.00 
   122.72     12.68   3174.07      0.00      4.53      0.00 
   122.73     12.67   3163.20     -0.02      0.00      0.00 
   122.74     12.67   3169.54     -0.01      2.72      7.00 
   122.75     12.67   3166.82     -0.03     -2.72      0.00 
   122.76     12.69   3169.54     -0.02      2.72      7.00 
   122.77     12.70   3163.20     -0.02      0.00      0.00 
   122.78     12.69   3169.54     -0.02      0.00      7.00 
   122.79     12.70   3166.82      0.00      0.00      0.00 
   122.80     12.68   3163.20     -0.01     -6.34      0.00 
   122.81     12.69   3169.54      0.02      6.34      0.00 
   122.82     12.68   3166.82      0.00      0.00      0.00 
   122.83     12.67   3163.20     -0.01     -6.34      0.00 
   122.84     12.66   3166.82     -0.02      3.63      0.00 
   122.85     12.66   3169.54     -0.04      0.00      0.00 
   122.86     12.68   3166.82     -0.01     -2.72      0.00 
   122.87     12.67   3163.20     -0.01     -3.63      0.00 
   122.88     12.68   3166.82     -0.02      3.63      0.00 
   122.89     12.66   3169.54     -0.02      0.00      0.00 
   122.90     12.65   3169.54     -0.03      6.34      0.00 
   122.91     12.67   3166.82     -0.02     -7.25      0.00 
   122.92     12.68   3163.20      0.00      0.00      0.00 
   122.93     12.69   3169.54      0.00      2.72      0.00 
   122.94     12.69   3166.82      0.02     -2.72      0.00 
   122.95     12.67   3169.54      0.02      2.72      0.00 
   122.96     12.66   3166.82      0.01      3.63      0.00 
   122.97     12.67   3163.20      0.02     -3.63      0.00 
   122.98     12.68   3169.54      0.03      0.00      0.00 
   122.99     12.69   3166.82      0.02      0.00      0.00 
   123.00     12.68   3169.54      0.02      0.00      0.00 
   123.01     12.68   3163.20      0.00     -3.63      0.00 
   123.02     12.66   3174.07     -0.02     10.88      0.00 
   123.03     12.68   3163.20     -0.00     -6.34      0.00 
   123.04     12.68   3169.54     -0.02      2.72      0.00 
   123.05     12.69   3166.82     -0.01     -2.72      0.00 
   123.06     12.70   3169.54      0.00      2.72      7.00 
   123.07     12.68   3163.20     -0.01      0.00      0.00 
   123.08     12.67   3169.54      0.00      2.72      0.00 
   123.09     12.67   3166.82      0.01     -2.72      0.00 
   123.10     12.67   3169.54      0.01      2.72      0.00 
   123.11     12.68   3163.20      0.00     -6.34      0.00 
   123.12     12.69   3166.82      0.02      3.63      0.00 
   123.13     12.67   3169.54      0.01      2.72      0.00 
   123.14     12.67   3166.82     -0.00     -2.72      0.00 
   123.15     12.68   3169.54      0.02      6.34      0.00 
   123.16     12.70   3166.82      0.03     -7.25      0.00 
   123.17     12.71   3163.20      0.04      0.00      0.00 
   123.18     12.71   3169.54      0.07      0.00      0.00 
   123.19     12.70   3169.54      0.06      6.34      0.00 
   123.20     12.67   3163.20      0.03     -3.63      0.00 
   123.21     12.66   3166.82      0.00     -2.72      8.00 
   123.22     12.66   3169.54     -0.00      0.00      0.00 
   123.23     12.67   3166.82     -0.02      0.00      0.00 
   123.24     12.69   3169.54     -0.00      6.34      0.00 
   123.25     12.71   3163.20      0.02     -6.34      0.00 
   123.26     12.70   3174.07      0.00      7.25      8.00 
   123.27     12.68   3163.20      0.00     -6.34      0.00 
   123.28     12.65   3166.82     -0.02      3.63      0.00 
   123.29     12.63   3169.54     -0.05      0.00      0.00 
   123.30     12.64   3169.54     -0.04      6.34      7.00 
