#Written by Robertson Geologging WinLogger V1.0/406
~VERSION INFORMATION
#------------------------------------------------------------------------------
 VERS. 2.0 : CWLS LOG ASCII STANDARD - VERSION 2.0
 WRAP. NO  : ONE LINE PER DEPTH STEP
~WELL INFORMATION
#MNEM.UNIT         DATA                                DESCRIPTION OF MNEMONIC
#------------------------------------------------------------------------------
 STRT.M         15.0700                            :   START DEPTH
 STOP.M        131.0000                            :   STOP DEPTH
 STEP.M          0.0100                            :   STEP VALUE
 NULL.        -999.2500                            :   NULL VALUE
 COMP.    Coal Authority                           :   COMPANY NAME
 WELL.    Chatershaugh                             :   WELL NAME
 FLD.     N/A                                      :   FIELD NAME
 LOC.     N/A                                      :   LOCATION
 PROV.    N/A                                      :   PROVINCE
 SRVC.    N/A                                      :   SERVICE COMPANY NAME
 DATE.    01 Oct 08                                :   DATE
 UWI.     N/A                                      :   UNIQUE WELL IDENTIFIER
~PARAMETER INFORMATION
#MNEMO.UNIT         VALUE                 DESCRIPTION OF MNEMONIC
#------------------------------------------------------------------------------
~OTHER INFORMATION SECTION
#------------------------------------------------------------------------------
 TCGS2822
~CURVE INFORMATION
#MNEMO.UNIT         API CODE              CURVE DESCRIPTION
#------------------------------------------------------------------------------
 DEPTH.M                                 :   0     Depth
 TEMP.DegC                               :   1     Temperature
 COND.uS/cm                              :   2     Conductivity
 DELT.DegC                               :   3     Delta T
 DELC.uS/cm                              :   4     Delta C
 NGAM.CPS                                :   5     Natural Gamma
#------------------------------------------------------------------------------
~A  DEPTH     TEMP      COND      DELT      DELC      NGAM      
# ...
    30.91     11.14   1336.72      0.10      7.15      0.00 
    30.92     11.14   1337.61      0.10     12.50      0.00 
    30.93     11.15   1344.76      0.10     13.40      8.00 
    30.94     11.16   1337.61      0.10     12.50      0.00 
    30.95     11.16   1337.61      0.09      8.04      0.00 
    30.96     11.16   1344.76      0.08     13.40      0.00 
    30.97     11.14   1337.61      0.08      6.25      0.00 
    30.98     11.14   1337.61      0.07      8.04      0.00 
    30.99     11.14   1344.76      0.07     13.40      0.00 
    31.00     11.15   1337.61      0.08      8.04      0.00 
    31.01     11.16   1337.61      0.07      6.25      0.00 
    31.02     11.17   1337.61      0.08      8.04      0.00 
    31.03     11.17   1344.76      0.07     13.40      0.00 
    31.04     11.15   1336.72      0.06      7.15      0.00 
    31.05     11.15   1337.61      0.07      6.25      0.00 
    31.06     11.14   1344.76      0.07     13.40      0.00 
    31.07     11.14   1337.61      0.08      0.00      0.00 
    31.08     11.14   1344.76      0.09     13.40      8.00 
    31.09     11.14   1337.61      0.09      8.04      7.00 
    31.10     11.13   1337.61      0.08      0.00      0.00 
    31.11     11.13   1344.76      0.07     13.40      7.00 
    31.12     11.12   1336.72      0.04      7.15      0.00 
    31.13     11.13   1337.61      0.03      0.00      0.00 
    31.14     11.13   1344.76      0.01     13.40      0.00 
    31.15     11.14   1337.61      0.01      8.04      7.00 
    31.16     11.15   1336.72      0.04      0.00      0.00 
    31.17     11.13   1344.76      0.03     13.40      0.00 
    31.18     11.13   1337.61      0.05      6.25      0.00 
    31.19     11.14   1337.61      0.06      0.89      0.00 
    31.20     11.15   1344.76      0.06     13.40      0.00 
    31.21     11.18   1337.61      0.08      6.25      0.00 
    31.22     11.20   1344.76      0.10      8.04      0.00 
    31.23     11.21   1336.72      0.11      5.36      0.00 
    31.24     11.21   1338.50      0.13      1.79      0.00 
    31.25     11.20   1344.76      0.11      7.15      0.00 
    31.26     11.18   1337.61      0.09      6.25      0.00 
    31.27     11.17   1344.76      0.07      8.04      0.00 
    31.28     11.17   1336.72      0.07      5.36      0.00 
    31.29     11.17   1337.61      0.06      0.00      0.00 
    31.30     11.19   1344.76      0.06     15.18      0.00 
    31.31     11.18   1337.61      0.05      0.00      0.00 
    31.32     11.18   1344.76      0.04     13.40      0.00 
    31.33     11.20   1337.61      0.05      0.89      0.00 
    31.34     11.18   1344.76      0.07      7.15      0.00 
    31.35     11.18   1336.72      0.05      5.36      0.00 
    31.36     11.18   1337.61      0.05      0.00      0.00 
    31.37     11.17   1344.76      0.06     15.18      0.00 
    31.38     11.17   1337.61      0.05      0.00      0.00 
    31.39     11.18   1344.76      0.06      7.15      0.00 
    31.40     11.19   1337.61      0.08      6.25      7.00 
    31.41     11.20   1344.76      0.09      8.04      0.00 
    31.42     11.20   1337.61      0.09      0.00      7.00 
    31.43     11.20   1344.76      0.09      7.15      7.00 
    31.44     11.18   1337.61      0.06      0.89      0.00 
    31.45     11.18   1344.76      0.05     13.40      0.00 
    31.46     11.19   1337.61      0.06      0.00      0.00 
    31.47     11.18   1344.76      0.05      8.04      0.00 
    31.48     11.20   1336.72      0.07     -0.89      0.00 
    31.49     11.19   1344.76      0.05      8.04      0.00 
    31.50     11.18   1336.72      0.04     -0.89      8.00 
    31.51     11.19   1344.76      0.05      7.15      0.00 
    31.52     11.18   1336.72      0.03      0.00      0.00 
    31.53     11.18   1344.76      0.04      7.15      7.00 
    31.54     11.17   1337.61      0.03      0.00      0.00 
    31.55     11.17   1344.76      0.03      7.15      7.00 
    31.56     11.17   1336.72      0.03      0.00      0.00 
    31.57     11.19   1344.76      0.06      7.15      0.00 
    31.58     11.21   1337.61      0.09      0.00      7.00 
    31.59     11.22   1344.76      0.10      7.15      8.00 
    31.60     11.20   1337.61      0.08      0.89      0.00 
    31.61     11.18   1344.76      0.04      8.04      0.00 
    31.62     11.15   1336.72      0.02     -0.89      0.00 
    31.63     11.14   1344.76      0.02      8.04      0.00 
    31.64     11.15   1337.61      0.03      0.00      0.00 
    31.65     11.17   1344.76      0.05      7.15      0.00 
    31.66     11.17   1337.61      0.04      0.89      0.00 
    31.67     11.19   1344.76      0.05      7.15      0.00 
    31.68     11.19   1336.72      0.05      0.00      0.00 
    31.69     11.17   1344.76      0.03      7.15      0.00 
    31.70     11.16   1337.61      0.01      0.89      0.00 
    31.71     11.16   1344.76      0.00      0.00      0.00 
    31.72     11.15   1337.61     -0.01      0.00      0.00 
    31.73     11.16   1344.76      0.00      8.04      0.00 
    31.74     11.16   1344.76      0.03      7.15      0.00 
    31.75     11.14   1337.61      0.01      0.00      0.00 
    31.76     11.14   1344.76      0.00      8.04      0.00 
    31.77     11.13   1337.61     -0.00     -7.15      0.00 
    31.78     11.15   1344.76      0.00      7.15      0.00 
    31.79     11.17   1337.61      0.01      0.00      7.00 
    31.80     11.17   1344.76      0.01      8.04      0.00 
    31.81     11.18   1336.72      0.03     -0.89      0.00 
    31.82     11.19   1344.76      0.03      7.15      0.00 
    31.83     11.20   1344.76      0.04      0.00      0.00 
    31.84     11.21   1337.61      0.06      0.89      0.00 
    31.85     11.20   1344.76      0.04      7.15      0.00 
    31.86     11.20   1336.72      0.03     -0.89      0.00 
    31.87     11.19   1344.76      0.03      8.04      0.00 
    31.88     11.19   1337.61      0.05     -7.15      0.00 
    31.89     11.19   1344.76      0.04      7.15      0.00 
    31.90     11.17   1336.72      0.03      0.00      0.00 
    31.91     11.15   1344.76      0.01      7.15      0.00 
    31.92     11.14   1344.76     -0.01      0.00      7.00 
    31.93     11.15   1336.72     -0.01     -0.89      0.00 
    31.94     11.16   1344.76      0.00      7.15      8.00 
    31.95     11.15   1337.61     -0.00     -7.15      0.00 
    31.96     11.19   1344.76      0.04      7.15      0.00 
    31.97     11.21   1344.76      0.07      7.15      0.00 
    31.98     11.20   1336.72      0.06     -8.04      0.00 
    31.99     11.21   1344.76      0.06      7.15      0.00 
    32.00     11.18   1336.72      0.02     -0.89      0.00 
    32.01     11.16   1344.76     -0.01      7.15      0.00 
    32.02     11.17   1337.61      0.00     -7.15      0.00 
    32.03     11.17   1344.76      0.01      8.04      0.00 
    32.04     11.17   1344.76      0.02      7.15      0.00 
    32.05     11.20   1336.72      0.06     -8.04      0.00 
    32.06     11.20   1344.76      0.06      7.15      0.00 
    32.07     11.20   1331.36      0.06    -13.40      7.00 
    32.08     11.19   1344.76      0.05      7.15      0.00 
    32.09     11.17   1344.76      0.03      7.15      0.00 
    32.10     11.18   1337.61      0.04     -7.15      7.00 
    32.11     11.17   1344.76      0.04      8.04      0.00 
    32.12     11.18   1344.76      0.04      7.15      0.00 
    32.13     11.18   1337.61      0.05     -7.15      0.00 
    32.14     11.16   1344.76      0.02      7.15      0.00 
    32.15     11.17   1337.61      0.02      0.89      0.00 
    32.16     11.18   1344.76      0.05      0.00      0.00 
    32.17     11.18   1344.76      0.04      7.15      0.00 
    32.18     11.19   1337.61      0.05      0.00      7.00 
    32.19     11.19   1344.76      0.03      0.00      0.00 
    32.20     11.17   1337.61     -0.00      0.00      0.00 
    32.21     11.17   1344.76     -0.03      0.00      8.00 
    32.22     11.16   1344.76     -0.04      8.04      0.00 
