#Written by Robertson Geologging WinLogger V1.0/406
~VERSION INFORMATION
#------------------------------------------------------------------------------
 VERS. 2.0 : CWLS LOG ASCII STANDARD - VERSION 2.0
 WRAP. NO  : ONE LINE PER DEPTH STEP
~WELL INFORMATION
#MNEM.UNIT         DATA                                DESCRIPTION OF MNEMONIC
#------------------------------------------------------------------------------
 STRT.M         15.0700                            :   START DEPTH
 STOP.M        131.0000                            :   STOP DEPTH
 STEP.M          0.0100                            :   STEP VALUE
 NULL.        -999.2500                            :   NULL VALUE
 COMP.    Coal Authority                           :   COMPANY NAME
 WELL.    Chatershaugh                             :   WELL NAME
 FLD.     N/A                                      :   FIELD NAME
 LOC.     N/A                                      :   LOCATION
 PROV.    N/A                                      :   PROVINCE
 SRVC.    N/A                                      :   SERVICE COMPANY NAME
 DATE.    01 Oct 08                                :   DATE
 UWI.     N/A                                      :   UNIQUE WELL IDENTIFIER
~PARAMETER INFORMATION
#MNEMO.UNIT         VALUE                 DESCRIPTION OF MNEMONIC
#------------------------------------------------------------------------------
~OTHER INFORMATION SECTION
#------------------------------------------------------------------------------
 TCGS2822
~CURVE INFORMATION
#MNEMO.UNIT         API CODE              CURVE DESCRIPTION
#------------------------------------------------------------------------------
 DEPTH.M                                 :   0     Depth
 TEMP.DegC                               :   1     Temperature
 COND.uS/cm                              :   2     Conductivity
 DELT.DegC                               :   3     Delta T
 DELC.uS/cm                              :   4     Delta C
 NGAM.CPS                                :   5     Natural Gamma
#------------------------------------------------------------------------------
~A  DEPTH     TEMP      COND      DELT      DELC      NGAM      
# ...
    99.55     12.64   3163.20     -0.02      4.53      0.00 
    99.56     12.64   3158.66     -0.02      1.81      0.00 
    99.57     12.62   3156.85     -0.06     -1.81      0.00 
    99.58     12.62   3156.85     -0.05      0.00      7.00 
    99.59     12.63   3158.66     -0.02      1.81      0.00 
    99.60     12.64   3156.85      0.01     -1.81      0.00 
    99.61     12.65   3163.20      0.02      6.34      7.00 
    99.62     12.65   3158.66      0.03      1.81      0.00 
    99.63     12.65   3156.85      0.02     -1.81      7.00 
    99.64     12.63   3156.85     -0.00      0.00      0.00 
    99.65     12.64   3156.85     -0.01     -1.81      0.00 
    99.66     12.66   3158.66     -0.00      1.81      0.00 
    99.67     12.67   3163.20      0.01      6.34      0.00 
    99.68     12.66   3156.85      0.01      5.44      0.00 
    99.69     12.66   3156.85      0.01     -6.34      7.00 
    99.70     12.64   3156.85     -0.01      0.00      7.00 
    99.71     12.65   3163.20     -0.01      4.53      0.00 
    99.72     12.66   3156.85     -0.01      0.00      0.00 
    99.73     12.65   3158.66     -0.00      0.00      0.00 
    99.74     12.66   3156.85      0.01      0.00      0.00 
    99.75     12.64   3156.85     -0.00     -1.81      7.00 
    99.76     12.64   3158.66     -0.01      1.81      0.00 
    99.77     12.64   3158.66     -0.01      1.81      0.00 
    99.78     12.66   3163.20     -0.01      4.53      0.00 
    99.79     12.65   3158.66     -0.02      1.81      0.00 
    99.80     12.66   3156.85      0.02     -6.34      0.00 
    99.81     12.67   3156.85      0.02      0.00      0.00 
    99.82     12.66   3158.66      0.01      1.81      0.00 
    99.83     12.68   3156.85      0.04     -1.81      0.00 
    99.84     12.70   3158.66      0.03      1.81      0.00 
    99.85     12.68   3163.20      0.01      6.34      0.00 
    99.86     12.67   3158.66      0.00      0.00      0.00 
    99.87     12.67   3156.85      0.00      0.00      7.00 
    99.88     12.64   3158.66     -0.02      0.00      8.00 
    99.89     12.64   3156.85     -0.02     -6.34      0.00 
    99.90     12.63   3163.20     -0.02      6.34      7.00 
    99.91     12.61   3151.41     -0.05     -7.25      0.00 
    99.92     12.61   3163.20     -0.03      6.34      0.00 
    99.93     12.61   3158.66     -0.02      0.00      0.00 
    99.94     12.62   3156.85      0.00      0.00      0.00 
    99.95     12.64   3156.85      0.00     -1.81      0.00 
    99.96     12.67   3158.66      0.03      1.81      0.00 
    99.97     12.69   3163.20      0.05      4.53      0.00 
    99.98     12.69   3156.85      0.05      0.00      0.00 
    99.99     12.67   3158.66      0.05     -4.53      0.00 
   100.00     12.64   3156.85      0.01      5.44      0.00 
   100.01     12.62   3158.66     -0.01     -4.53      0.00 
   100.02     12.64   3156.85      0.00     -1.81      7.00 
   100.03     12.64   3163.20     -0.02      6.34      0.00 
   100.04     12.64   3158.66     -0.00      1.81      0.00 
   100.05     12.65   3156.85      0.01     -1.81      0.00 
   100.06     12.64   3158.66      0.00      1.81      0.00 
   100.07     12.66   3156.85      0.01     -1.81      0.00 
   100.08     12.69   3163.20      0.01      6.34      0.00 
   100.09     12.70   3158.66      0.01      0.00      8.00 
   100.10     12.69   3156.85      0.01      6.34      0.00 
   100.11     12.67   3156.85      0.01     -1.81      0.00 
   100.12     12.66   3158.66      0.02     -4.53     16.00 
   100.13     12.65   3156.85      0.01     -1.81      0.00 
   100.14     12.65   3163.20     -0.00      6.34      0.00 
   100.15     12.65   3156.85     -0.01      0.00      0.00 
   100.16     12.64   3156.85     -0.04     -1.81      0.00 
   100.17     12.64   3158.66     -0.03      1.81      0.00 
   100.18     12.65   3163.20     -0.01      4.53      0.00 
   100.19     12.64   3156.85     -0.02      0.00      0.00 
   100.20     12.65   3158.66      0.01     -4.53      0.00 
   100.21     12.66   3158.66      0.04      7.25      0.00 
   100.22     12.68   3156.85      0.04     -6.34      0.00 
   100.23     12.69   3158.66      0.06      1.81      0.00 
   100.24     12.69   3163.20      0.05      6.34      7.00 
   100.25     12.67   3156.85      0.02      0.00      0.00 
   100.26     12.65   3156.85      0.01     -6.34      0.00 
   100.27     12.63   3158.66      0.00      1.81      8.00 
   100.28     12.64   3163.20      0.01      6.34      0.00 
   100.29     12.66   3158.66      0.03      1.81      8.00 
   100.30     12.66   3156.85      0.04     -1.81      0.00 
   100.31     12.67   3156.85      0.04     -1.81      0.00 
   100.32     12.66   3158.66      0.03     -4.53      0.00 
   100.33     12.65   3163.20      0.01      6.34      0.00 
   100.34     12.65   3158.66      0.00      1.81      0.00 
   100.35     12.65   3156.85     -0.01     -1.81      0.00 
   100.36     12.67   3156.85     -0.01      0.00      0.00 
   100.37     12.66   3158.66      0.00      1.81      0.00 
   100.38     12.66   3163.20     -0.01      0.00      0.00 
   100.39     12.66   3158.66      0.01      0.00      0.00 
   100.40     12.66   3156.85     -0.01      0.00      7.00 
   100.41     12.66   3156.85     -0.01      0.00      7.00 
   100.42     12.67   3163.20      0.00      4.53      0.00 
   100.43     12.66   3158.66      0.00      1.81      0.00 
   100.44     12.65   3156.85      0.00     -6.34      7.00 
   100.45     12.67   3156.85      0.01      0.00      0.00 
   100.46     12.65   3163.20      0.01      4.53      0.00 
   100.47     12.66   3158.66      0.00      1.81      8.00 
   100.48     12.66   3156.85      0.01      0.00      0.00 
   100.49     12.67   3156.85      0.02     -6.34      0.00 
   100.50     12.69   3158.66      0.02      1.81      0.00 
   100.51     12.70   3156.85      0.04     -1.81      0.00 
   100.52     12.69   3156.85      0.02      0.00      0.00 
   100.53     12.68   3158.66      0.02      1.81      0.00 
   100.54     12.68   3156.85      0.04     -6.34      0.00 
   100.55     12.66   3163.20      0.01      4.53      0.00 
   100.56     12.65   3156.85      0.02      0.00      7.00 
   100.57     12.65   3156.85      0.03      0.00      0.00 
   100.58     12.64   3158.66      0.01      0.00      0.00 
   100.59     12.68   3163.20      0.03      6.34     14.00 
   100.60     12.69   3156.85      0.04     -6.34      7.00 
   100.61     12.69   3156.85      0.04     -1.81      0.00 
   100.62     12.71   3163.20      0.06      6.34      0.00 
   100.63     12.68   3156.85      0.05      0.00      0.00 
   100.64     12.68   3158.66      0.04      1.81      0.00 
   100.65     12.67   3158.66      0.01      0.00      0.00 
   100.66     12.65   3163.20     -0.02      0.00      0.00 
   100.67     12.64   3156.85     -0.01      0.00     14.00 
   100.68     12.63   3156.85     -0.03      0.00      0.00 
   100.69     12.62   3158.66     -0.01      1.81      0.00 
   100.70     12.63   3163.20     -0.02      0.00      0.00 
   100.71     12.65   3156.85     -0.01      0.00      0.00 
   100.72     12.65   3156.85      0.00     -1.81      7.00 
   100.73     12.67   3158.66      0.00      1.81      0.00 
   100.74     12.68   3163.20      0.04      6.34      0.00 
   100.75     12.66   3156.85      0.02     -1.81      0.00 
   100.76     12.66   3158.66      0.02      0.00      0.00 
   100.77     12.66   3156.85      0.00     -6.34      0.00 
   100.78     12.65   3163.20      0.00      4.53      0.00 
   100.79     12.65   3156.85     -0.01      0.00      0.00 
   100.80     12.65   3158.66     -0.02      1.81      0.00 
   100.81     12.64   3163.20     -0.01      4.53      0.00 
   100.82     12.64   3156.85     -0.04      0.00      0.00 
   100.83     12.65   3158.66     -0.04      0.00      0.00 
   100.84     12.65   3156.85     -0.03     -6.34      0.00 
   100.85     12.65   3163.20     -0.02      4.53      0.00 
   100.86     12.65   3156.85     -0.01      0.00     14.00 
