#Written by Robertson Geologging WinLogger V1.0/406
~VERSION INFORMATION
#------------------------------------------------------------------------------
 VERS. 2.0 : CWLS LOG ASCII STANDARD - VERSION 2.0
 WRAP. NO  : ONE LINE PER DEPTH STEP
~WELL INFORMATION
#MNEM.UNIT         DATA                                DESCRIPTION OF MNEMONIC
#------------------------------------------------------------------------------
 STRT.M         15.0700                            :   START DEPTH
 STOP.M        131.0000                            :   STOP DEPTH
 STEP.M          0.0100                            :   STEP VALUE
 NULL.        -999.2500                            :   NULL VALUE
 COMP.    Coal Authority                           :   COMPANY NAME
 WELL.    Chatershaugh                             :   WELL NAME
 FLD.     N/A                                      :   FIELD NAME
 LOC.     N/A                                      :   LOCATION
 PROV.    N/A                                      :   PROVINCE
 SRVC.    N/A                                      :   SERVICE COMPANY NAME
 DATE.    01 Oct 08                                :   DATE
 UWI.     N/A                                      :   UNIQUE WELL IDENTIFIER
~PARAMETER INFORMATION
#MNEMO.UNIT         VALUE                 DESCRIPTION OF MNEMONIC
#------------------------------------------------------------------------------
~OTHER INFORMATION SECTION
#------------------------------------------------------------------------------
 TCGS2822
~CURVE INFORMATION
#MNEMO.UNIT         API CODE              CURVE DESCRIPTION
#------------------------------------------------------------------------------
 DEPTH.M                                 :   0     Depth
 TEMP.DegC                               :   1     Temperature
 COND.uS/cm                              :   2     Conductivity
 DELT.DegC                               :   3     Delta T
 DELC.uS/cm                              :   4     Delta C
 NGAM.CPS                                :   5     Natural Gamma
#------------------------------------------------------------------------------
~A  DEPTH     TEMP      COND      DELT      DELC      NGAM      
# ...
    69.19     12.43   3130.57      0.04     -6.34      0.00 
    69.20     12.42   3132.39      0.03      1.81      0.00 
    69.21     12.43   3136.01      0.04      3.62      0.00 
    69.22     12.41   3136.92      0.00      0.00      0.00 
    69.23     12.38   3130.57     -0.04      0.00      0.00 
    69.24     12.40   3136.92     -0.02      6.34      0.00 
    69.25     12.39   3130.57     -0.01     -1.81      0.00 
    69.26     12.38   3136.92      0.00      0.00     14.00 
    69.27     12.41   3136.01      0.04      7.25      0.00 
    69.28     12.38   3130.57      0.02     -6.34      0.00 
    69.29     12.39   3136.92      0.01      8.15      7.00 
    69.30     12.41   3130.57      0.01      0.00      0.00 
    69.31     12.38   3136.92     -0.00      0.00      0.00 
    69.32     12.37   3130.57     -0.01      0.00      0.00 
    69.33     12.37   3136.92     -0.01      0.00      0.00 
    69.34     12.36   3130.57     -0.02      0.00      0.00 
    69.35     12.37   3136.01     -0.02      5.44      0.00 
    69.36     12.38   3136.92     -0.01      0.00      0.00 
    69.37     12.38   3130.57     -0.01      0.00      0.00 
    69.38     12.38   3136.92      0.01      0.91      7.00 
    69.39     12.40   3130.57      0.01      0.00      0.00 
    69.40     12.39   3136.92     -0.01      6.34      0.00 
    69.41     12.40   3130.57     -0.01     -1.81      7.00 
    69.42     12.40   3136.92     -0.01      0.00      0.00 
    69.43     12.38   3136.01     -0.04      7.25      0.00 
    69.44     12.40   3130.57     -0.01     -6.34      7.00 
    69.45     12.39   3136.92     -0.02      6.34      0.00 
    69.46     12.38   3136.92     -0.03      0.00      0.00 
    69.47     12.39   3130.57     -0.01      0.00      7.00 
    69.48     12.39   3136.01     -0.01      5.44      0.00 
    69.49     12.38   3130.57     -0.02     -6.34      0.00 
    69.50     12.39   3136.92      0.00      6.34      7.00 
    69.51     12.38   3136.92      0.00      4.53      0.00 
    69.52     12.37   3130.57     -0.01     -6.34      0.00 
    69.53     12.38   3136.92      0.01      8.15      0.00 
    69.54     12.37   3130.57      0.00     -6.34      0.00 
    69.55     12.38   3136.92     -0.00      6.34      0.00 
    69.56     12.40   3130.57      0.03      0.00      0.00 
    69.57     12.38   3137.82      0.01      0.91      0.00 
    69.58     12.38   3130.57     -0.02      0.00      0.00 
    69.59     12.39   3136.92     -0.00      0.91      0.00 
    69.60     12.38   3136.92     -0.01      6.34     14.00 
    69.61     12.42   3130.57      0.03     -6.34      0.00 
    69.62     12.44   3136.92      0.07      6.34      7.00 
    69.63     12.43   3135.10      0.06     -1.81      0.00 
    69.64     12.44   3132.39      0.05      1.81      0.00 
    69.65     12.42   3136.01      0.03      3.62      0.00 
    69.66     12.43   3136.92      0.06      0.00      7.00 
    69.67     12.43   3130.57      0.06     -1.81     14.00 
    69.68     12.41   3136.92      0.03      6.34      0.00 
    69.69     12.39   3130.57      0.00     -6.34      7.00 
    69.70     12.37   3136.92     -0.03      6.34      0.00 
    69.71     12.36   3136.92     -0.03      6.34      0.00 
    69.72     12.37   3130.57     -0.03     -6.34      0.00 
    69.73     12.37   3136.92     -0.02      1.81      0.00 
    69.74     12.41   3130.57      0.00      0.00      7.00 
    69.75     12.42   3136.92      0.00      0.00      0.00 
    69.76     12.40   3136.92      0.01      6.34      0.00 
    69.77     12.40   3130.57      0.00      0.00      0.00 
    69.78     12.39   3136.01     -0.00     -0.91      0.00 
    69.79     12.40   3136.92     -0.02      6.34      0.00 
    69.80     12.40   3132.39     -0.04     -4.53      0.00 
    69.81     12.42   3136.01      0.00      5.44      0.00 
    69.82     12.41   3136.92     -0.01      0.91      0.00 
    69.83     12.41   3132.39      0.00      1.81      0.00 
    69.84     12.42   3136.01      0.04     -0.91      0.00 
    69.85     12.41   3136.92      0.01      6.34      0.00 
    69.86     12.42   3130.57      0.01     -5.44      0.00 
    69.87     12.43   3136.92      0.02      6.34      0.00 
    69.88     12.41   3130.57      0.01     -6.34      7.00 
    69.89     12.41   3136.92      0.01      6.34      0.00 
    69.90     12.40   3136.92      0.03      0.00      0.00 
    69.91     12.37   3130.57     -0.00      1.81      0.00 
    69.92     12.40   3136.01     -0.01     -1.81      0.00 
    69.93     12.39   3136.92     -0.01     15.40      0.00 
    69.94     12.42   3136.92     -0.01      0.00      0.00 
    69.95     12.43   3130.57      0.04      0.00      0.00 
    69.96     12.43   3136.92      0.05      0.00      0.00 
    69.97     12.42   3136.92      0.03      6.34      7.00 
    69.98     12.40   3128.76      0.02     -7.25      0.00 
    69.99     12.40   3137.82     -0.00      7.25      0.00 
    70.00     12.39   3130.57     -0.00     -6.34      0.00 
    70.01     12.39   3137.82      0.00      7.25      0.00 
    70.02     12.39   3136.92     -0.00      0.00      0.00 
    70.03     12.38   3130.57      0.00      1.81      0.00 
    70.04     12.41   3137.82      0.01      0.91      0.00 
    70.05     12.41   3136.01      0.03      0.00      0.00 
    70.06     12.43   3130.57      0.06     -1.81      0.00 
    70.07     12.44   3135.10      0.07     -0.91      0.00 
    70.08     12.41   3136.92      0.04      6.34      0.00 
    70.09     12.40   3136.92      0.03      4.53      0.00 
    70.10     12.38   3136.01      0.00      0.00      0.00 
    70.11     12.38   3130.57     -0.02     -1.81      7.00 
    70.12     12.41   3136.92     -0.00      0.00      0.00 
    70.13     12.41   3136.92      0.00      6.34      0.00 
    70.14     12.40   3130.57      0.00     -6.34      0.00 
    70.15     12.40   3136.01      0.00      3.62      0.00 
    70.16     12.38   3136.92     -0.00      0.91      0.00 
    70.17     12.38   3136.92     -0.02      0.91      7.00 
    70.18     12.37   3130.57     -0.05      0.00      0.00 
    70.19     12.36   3136.92     -0.06      4.53      0.00 
    70.20     12.38   3136.92     -0.04      0.91      7.00 
    70.21     12.38   3130.57     -0.03     -6.34      0.00 
    70.22     12.39   3136.01      0.01      5.44      0.00 
    70.23     12.41   3136.92      0.00      0.00      0.00 
    70.24     12.40   3137.82      0.00      7.25      0.00 
    70.25     12.42   3128.76      0.03     -8.15      0.00 
    70.26     12.42   3136.92      0.01      0.91      7.00 
    70.27     12.43   3136.92      0.04      6.34      0.00 
    70.28     12.43   3136.92      0.03      0.00      0.00 
    70.29     12.42   3130.57      0.01      0.00      0.00 
    70.30     12.43   3130.57      0.05     -6.34      0.00 
    70.31     12.41   3136.92      0.04      6.34      0.00 
    70.32     12.41   3136.92      0.04      0.00      0.00 
    70.33     12.41   3130.57      0.05      0.00      0.00 
    70.34     12.44   3136.92      0.07      0.91      0.00 
    70.35     12.43   3136.92      0.05      0.00      7.00 
    70.36     12.43   3136.01      0.05      5.44      0.00 
    70.37     12.43   3130.57      0.05     -6.34      0.00 
    70.38     12.41   3136.01      0.01      5.44      0.00 
    70.39     12.40   3136.92      0.01      0.00      7.00 
    70.40     12.38   3136.92     -0.01      6.34      0.00 
    70.41     12.38   3132.39     -0.02     -4.53      6.00 
    70.42     12.37   3136.92     -0.01      0.91      0.00 
    70.43     12.38   3136.92     -0.01      6.34      0.00 
    70.44     12.39   3132.39      0.00     -4.53      0.00 
    70.45     12.38   3136.92      0.00      0.00      0.00 
    70.46     12.39   3136.92      0.00      6.34      0.00 
    70.47     12.38   3137.82     -0.00      1.81      6.00 
    70.48     12.37   3130.57     -0.01      0.00      7.00 
    70.49     12.39   3136.92     -0.00      0.00      0.00 
    70.50     12.38   3136.92      0.00      0.00      0.00 
