#Written by Robertson Geologging WinLogger V1.0/406
~VERSION INFORMATION
#------------------------------------------------------------------------------
 VERS. 2.0 : CWLS LOG ASCII STANDARD - VERSION 2.0
 WRAP. NO  : ONE LINE PER DEPTH STEP
~WELL INFORMATION
#MNEM.UNIT         DATA                                DESCRIPTION OF MNEMONIC
#------------------------------------------------------------------------------
 STRT.M         15.0700                            :   START DEPTH
 STOP.M        131.0000                            :   STOP DEPTH
 STEP.M          0.0100                            :   STEP VALUE
 NULL.        -999.2500                            :   NULL VALUE
 COMP.    Coal Authority                           :   COMPANY NAME
 WELL.    Chatershaugh                             :   WELL NAME
 FLD.     N/A                                      :   FIELD NAME
 LOC.     N/A                                      :   LOCATION
 PROV.    N/A                                      :   PROVINCE
 SRVC.    N/A                                      :   SERVICE COMPANY NAME
 DATE.    01 Oct 08                                :   DATE
 UWI.     N/A                                      :   UNIQUE WELL IDENTIFIER
~PARAMETER INFORMATION
#MNEMO.UNIT         VALUE                 DESCRIPTION OF MNEMONIC
#------------------------------------------------------------------------------
~OTHER INFORMATION SECTION
#------------------------------------------------------------------------------
 TCGS2822
~CURVE INFORMATION
#MNEMO.UNIT         API CODE              CURVE DESCRIPTION
#------------------------------------------------------------------------------
 DEPTH.M                                 :   0     Depth
 TEMP.DegC                               :   1     Temperature
 COND.uS/cm                              :   2     Conductivity
 DELT.DegC                               :   3     Delta T
 DELC.uS/cm                              :   4     Delta C
 NGAM.CPS                                :   5     Natural Gamma
#------------------------------------------------------------------------------
~A  DEPTH     TEMP      COND      DELT      DELC      NGAM      
# ...
    75.79     12.44   3144.17     -0.04      0.00      0.00 
    75.80     12.41   3144.17     -0.05      7.25      0.00 
    75.81     12.39   3136.92     -0.06     -7.25      0.00 
    75.82     12.39   3144.17     -0.03      7.25      0.00 
    75.83     12.39   3144.17     -0.01      0.00      0.00 
    75.84     12.40   3137.82     -0.02      0.91      0.00 
    75.85     12.41   3144.17      0.00      0.00      0.00 
    75.86     12.42   3144.17     -0.01      7.25      0.00 
    75.87     12.42   3136.92     -0.00     -7.25      7.00 
    75.88     12.45   3144.17      0.03      7.25      0.00 
    75.89     12.42   3144.17     -0.00      0.00      0.00 
    75.90     12.44   3136.92      0.02      0.00      0.00 
    75.91     12.44   3144.17      0.02      0.00      7.00 
    75.92     12.41   3144.17     -0.02      7.25      0.00 
    75.93     12.43   3136.92     -0.01     -7.25      0.00 
    75.94     12.43   3144.17     -0.04      7.25      0.00 
    75.95     12.43   3144.17     -0.04      0.00      0.00 
    75.96     12.43   3136.92     -0.04     -7.25      7.00 
    75.97     12.43   3144.17     -0.02      7.25      0.00 
    75.98     12.44   3144.17      0.03      0.00      7.00 
    75.99     12.47   3144.17      0.06      7.25      8.00 
    76.00     12.49   3136.92      0.10     -7.25      0.00 
    76.01     12.49   3144.17      0.06      8.16      0.00 
    76.02     12.47   3144.17      0.02      0.00      0.00 
    76.03     12.44   3136.92     -0.01      0.00      0.00 
    76.04     12.40   3144.17     -0.06      0.00      0.00 
    76.05     12.38   3144.17     -0.07      0.00      7.00 
    76.06     12.38   3136.92     -0.08      0.00      0.00 
    76.07     12.39   3144.17     -0.06      0.00      0.00 
    76.08     12.39   3144.17     -0.03      8.16      0.00 
    76.09     12.39   3144.17     -0.03      0.00      0.00 
    76.10     12.40   3136.92     -0.03      0.00      0.00 
    76.11     12.41   3144.17     -0.04      0.00      0.00 
    76.12     12.41   3144.17     -0.05      0.00      0.00 
    76.13     12.43   3136.92     -0.03     -0.91      7.00 
    76.14     12.44   3144.17     -0.00      0.00      0.00 
    76.15     12.43   3144.17      0.01      7.25      0.00 
    76.16     12.43   3144.17      0.00      0.00      0.00 
    76.17     12.44   3136.92     -0.01      0.00      0.00 
    76.18     12.45   3144.17     -0.00      0.00      8.00 
    76.19     12.45   3144.17     -0.03      0.00      0.00 
    76.20     12.46   3136.92     -0.01      0.00      0.00 
    76.21     12.46   3144.17      0.01      0.00      0.00 
    76.22     12.43   3144.17     -0.02      7.25      6.00 
    76.23     12.44   3136.92      0.01     -7.25      0.00 
    76.24     12.45   3144.17      0.02      0.00      0.00 
    76.25     12.44   3144.17     -0.00      7.25      0.00 
    76.26     12.44   3144.17      0.01      0.00      0.00 
    76.27     12.41   3136.01     -0.03     -0.91      0.00 
    76.28     12.40   3144.17     -0.05      0.00      0.00 
    76.29     12.39   3144.17     -0.04      7.25      8.00 
    76.30     12.42   3144.17     -0.04      0.00      0.00 
    76.31     12.44   3136.92     -0.04     -7.25      7.00 
    76.32     12.46   3144.17      0.00      6.34      0.00 
    76.33     12.46   3144.17     -0.02      0.00      0.00 
    76.34     12.47   3144.17      0.01      7.25      0.00 
    76.35     12.49   3136.92      0.07     -7.25      0.00 
    76.36     12.45   3144.17      0.00      0.00      0.00 
    76.37     12.45   3144.17      0.01      8.16      0.00 
    76.38     12.45   3144.17     -0.00      0.00      0.00 
    76.39     12.43   3136.92     -0.03      0.00     14.00 
    76.40     12.47   3144.17      0.01      0.00      0.00 
    76.41     12.46   3144.17      0.01      0.00      7.00 
    76.42     12.46   3136.92      0.00      0.00      0.00 
    76.43     12.45   3144.17     -0.01      0.00      0.00 
    76.44     12.43   3144.17     -0.03      7.25      0.00 
    76.45     12.43   3144.17     -0.01      0.00      0.00 
    76.46     12.43   3136.92     -0.02     -7.25      0.00 
    76.47     12.44   3144.17     -0.02      7.25      8.00 
    76.48     12.45   3144.17      0.01      0.00      0.00 
    76.49     12.44   3144.17      0.01      0.00      0.00 
    76.50     12.46   3144.17      0.05      7.25      0.00 
    76.51     12.44   3136.92      0.06     -7.25      0.00 
    76.52     12.44   3144.17      0.03      7.25      7.00 
    76.53     12.46   3144.17      0.07      0.00      0.00 
    76.54     12.44   3144.17      0.04      0.00      0.00 
    76.55     12.43   3144.17      0.00      8.16      0.00 
    76.56     12.42   3136.92     -0.02     -7.25      7.00 
    76.57     12.41   3144.17     -0.06      0.00      0.00 
    76.58     12.42   3144.17     -0.03      7.25      7.00 
    76.59     12.43   3144.17     -0.01      0.00      0.00 
    76.60     12.43   3136.92      0.00     -7.25      0.00 
    76.61     12.44   3144.17      0.03      7.25      0.00 
    76.62     12.42   3144.17     -0.01      0.00      0.00 
    76.63     12.41   3144.17     -0.01      7.25      0.00 
    76.64     12.41   3144.17     -0.02      0.00      0.00 
    76.65     12.39   3137.82     -0.04     -6.34      0.00 
    76.66     12.40   3144.17     -0.01      7.25      0.00 
    76.67     12.42   3144.17      0.00      0.00      0.00 
    76.68     12.42   3144.17      0.02      0.00      0.00 
    76.69     12.44   3136.92      0.03      0.00      0.00 
    76.70     12.44   3144.17      0.04      0.00      0.00 
    76.71     12.43   3144.17      0.05      0.00      0.00 
    76.72     12.42   3144.17      0.02      7.25      0.00 
    76.73     12.40   3136.92     -0.01      0.00      7.00 
    76.74     12.41   3144.17     -0.02      0.00      0.00 
    76.75     12.41   3144.17     -0.05      7.25      0.00 
    76.76     12.43   3144.17     -0.04      0.00      0.00 
    76.77     12.46   3144.17      0.00      6.34      0.00 
    76.78     12.44   3136.92      0.00     -7.25      0.00 
    76.79     12.44   3144.17      0.03      0.00      0.00 
    76.80     12.45   3144.17      0.05      7.25      0.00 
    76.81     12.44   3144.17      0.04      0.00      0.00 
    76.82     12.46   3136.92      0.07     -7.25      7.00 
    76.83     12.45   3144.17      0.05      6.34      0.00 
    76.84     12.43   3144.17      0.02      0.00      0.00 
    76.85     12.45   3144.17      0.03      0.00      0.00 
    76.86     12.46   3144.17      0.04      7.25      0.00 
    76.87     12.48   3136.01      0.02     -8.16      0.00 
    76.88     12.50   3144.17      0.08      0.00      0.00 
    76.89     12.49   3144.17      0.05      7.25      0.00 
    76.90     12.48   3144.17      0.04      0.00      0.00 
    76.91     12.49   3144.17      0.08      0.00      0.00 
    76.92     12.48   3136.92      0.05      0.00      0.00 
    76.93     12.49   3144.17      0.06      0.00      0.00 
    76.94     12.47   3144.17      0.04      0.00      0.00 
    76.95     12.47   3144.17      0.04      7.25      0.00 
    76.96     12.48   3144.17      0.05      0.00      0.00 
    76.97     12.48   3144.17      0.03      0.00      0.00 
    76.98     12.48   3136.92      0.01     -7.25      0.00 
    76.99     12.48   3144.17     -0.01      7.25      0.00 
    77.00     12.47   3144.17     -0.02      0.00      0.00 
    77.01     12.48   3144.17      0.01      0.00      0.00 
    77.02     12.46   3144.17      0.02      7.25      7.00 
    77.03     12.45   3136.92      0.05     -7.25      0.00 
    77.04     12.45   3144.17      0.07      0.00      0.00 
    77.05     12.44   3144.17      0.06      7.25      0.00 
    77.06     12.45   3144.17      0.06      0.00      0.00 
    77.07     12.47   3144.17      0.07      0.00      0.00 
    77.08     12.49   3144.17      0.09      0.00      0.00 
    77.09     12.48   3130.57      0.08     -6.34      0.00 
    77.10     12.49   3144.17      0.08      0.00      0.00 
