#Written by Robertson Geologging WinLogger V1.0/406
~VERSION INFORMATION
#------------------------------------------------------------------------------
 VERS. 2.0 : CWLS LOG ASCII STANDARD - VERSION 2.0
 WRAP. NO  : ONE LINE PER DEPTH STEP
~WELL INFORMATION
#MNEM.UNIT         DATA                                DESCRIPTION OF MNEMONIC
#------------------------------------------------------------------------------
 STRT.M         15.0700                            :   START DEPTH
 STOP.M        131.0000                            :   STOP DEPTH
 STEP.M          0.0100                            :   STEP VALUE
 NULL.        -999.2500                            :   NULL VALUE
 COMP.    Coal Authority                           :   COMPANY NAME
 WELL.    Chatershaugh                             :   WELL NAME
 FLD.     N/A                                      :   FIELD NAME
 LOC.     N/A                                      :   LOCATION
 PROV.    N/A                                      :   PROVINCE
 SRVC.    N/A                                      :   SERVICE COMPANY NAME
 DATE.    01 Oct 08                                :   DATE
 UWI.     N/A                                      :   UNIQUE WELL IDENTIFIER
~PARAMETER INFORMATION
#MNEMO.UNIT         VALUE                 DESCRIPTION OF MNEMONIC
#------------------------------------------------------------------------------
~OTHER INFORMATION SECTION
#------------------------------------------------------------------------------
 TCGS2822
~CURVE INFORMATION
#MNEMO.UNIT         API CODE              CURVE DESCRIPTION
#------------------------------------------------------------------------------
 DEPTH.M                                 :   0     Depth
 TEMP.DegC                               :   1     Temperature
 COND.uS/cm                              :   2     Conductivity
 DELT.DegC                               :   3     Delta T
 DELC.uS/cm                              :   4     Delta C
 NGAM.CPS                                :   5     Natural Gamma
#------------------------------------------------------------------------------
~A  DEPTH     TEMP      COND      DELT      DELC      NGAM      
# ...
    61.27     12.54   3130.57      0.00      3.62      0.00 
    61.28     12.53   3126.95     -0.01      2.72      6.00 
    61.29     12.53   3128.76     -0.01     -1.81      0.00 
    61.30     12.54   3124.23      0.01     -6.34     14.00 
    61.31     12.56   3130.57      0.00      4.53      7.00 
    61.32     12.56   3124.23      0.03     -4.53      0.00 
    61.33     12.56   3128.76      0.04      1.81      0.00 
    61.34     12.55   3132.39      0.00      3.62      0.00 
    61.35     12.53   3124.23     -0.00      0.00      0.00 
    61.36     12.51   3128.76     -0.03     -1.81      8.00 
    61.37     12.50   3130.57     -0.03      0.00      0.00 
    61.38     12.52   3124.23      0.00      0.00      0.00 
    61.39     12.52   3130.57      0.00      0.00      0.00 
    61.40     12.53   3124.23      0.00     -4.53      0.00 
    61.41     12.53   3130.57     -0.00      6.34      0.00 
    61.42     12.52   3128.76     -0.01     -1.81      0.00 
    61.43     12.53   3124.23      0.00      0.00      0.00 
    61.44     12.54   3126.95      0.02     -5.44      6.00 
    61.45     12.52   3130.57     -0.00      9.06      0.00 
    61.46     12.51   3128.76     -0.00     -1.81      8.00 
    61.47     12.49   3124.23     -0.04     -2.72      0.00 
    61.48     12.47   3130.57     -0.07      1.81      0.00 
    61.49     12.48   3124.23     -0.04     -6.34      7.00 
    61.50     12.49   3128.76     -0.05      4.53      0.00 
    61.51     12.49   3130.57     -0.06      0.00      0.00 
    61.52     12.51   3128.76     -0.02      0.00      0.00 
    61.53     12.53   3124.23     -0.01      0.00      0.00 
    61.54     12.53   3130.57      0.01      3.62      7.00 
    61.55     12.54   3124.23      0.04     -6.34      0.00 
    61.56     12.55   3126.95      0.03     -1.81      6.00 
    61.57     12.54   3128.76      0.02      4.53      0.00 
    61.58     12.54   3126.95      0.01     -3.62      0.00 
    61.59     12.54   3130.57      0.02      1.81      0.00 
    61.60     12.55   3130.57      0.04      0.00      0.00 
    61.61     12.54   3126.95      0.04      2.72      6.00 
    61.62     12.54   3124.23      0.04     -4.53      0.00 
    61.63     12.54   3130.57      0.02      6.34      0.00 
    61.64     12.53   3128.76      0.00     -1.81      0.00 
    61.65     12.53   3128.76     -0.00     -1.81      0.00 
    61.66     12.52   3121.51     -0.02     -2.72      0.00 
    61.67     12.50   3132.39     -0.03      3.62      0.00 
    61.68     12.51   3128.76     -0.01      1.81     16.00 
    61.69     12.52   3124.23     -0.01     -6.34      0.00 
    61.70     12.54   3130.57     -0.00      3.62      0.00 
    61.71     12.54   3126.95      0.00     -3.62      0.00 
    61.72     12.53   3124.23     -0.03      0.00      7.00 
    61.73     12.51   3128.76     -0.04     -1.81      0.00 
    61.74     12.50   3130.57     -0.05      6.34      7.00 
    61.75     12.52   3124.23     -0.01      0.00      0.00 
    61.76     12.53   3130.57      0.05      4.53      0.00 
    61.77     12.56   3128.76      0.08     -1.81      0.00 
    61.78     12.56   3126.95      0.09      2.72      0.00 
    61.79     12.55   3128.76      0.06     -1.81      0.00 
    61.80     12.56   3124.23      0.04      0.00      0.00 
    61.81     12.53   3130.57      0.01      0.00      7.00 
    61.82     12.52   3130.57     -0.00      6.34      0.00 
    61.83     12.51   3124.23     -0.01     -6.34      0.00 
    61.84     12.49   3128.76     -0.03      0.00      0.00 
    61.85     12.50   3130.57      0.00      6.34      0.00 
    61.86     12.52   3124.23      0.02     -6.34      0.00 
    61.87     12.51   3130.57      0.01      6.34      0.00 
    61.88     12.51   3124.23     -0.00     -6.34      0.00 
    61.89     12.49   3130.57     -0.02      0.00      0.00 
    61.90     12.48   3128.76     -0.04      4.53      0.00 
    61.91     12.50   3124.23     -0.03     -6.34      7.00 
    61.92     12.50   3130.57     -0.01      6.34      0.00 
    61.93     12.50   3128.76     -0.01     -1.81      0.00 
    61.94     12.51   3124.23      0.00      0.00      0.00 
    61.95     12.51   3130.57      0.01      0.00      0.00 
    61.96     12.51   3128.76      0.03      4.53      0.00 
    61.97     12.54   3124.23      0.05     -6.34      0.00 
    61.98     12.55   3128.76      0.09     -1.81      0.00 
    61.99     12.55   3126.95      0.09      2.72      6.00 
    62.00     12.53   3130.57      0.06      0.00      0.00 
    62.01     12.52   3128.76      0.03      0.00      0.00 
    62.02     12.51   3126.95      0.00      2.72      0.00 
    62.03     12.50   3130.57     -0.02      0.00      0.00 
    62.04     12.51   3124.23      0.00      0.00      0.00 
    62.05     12.52   3126.95      0.02     -1.81      0.00 
    62.06     12.54   3126.95      0.04     -3.62      0.00 
    62.07     12.53   3130.57      0.05      6.34      0.00 
    62.08     12.53   3128.76      0.03     -1.81      0.00 
    62.09     12.50   3128.76      0.01      4.53      0.00 
    62.10     12.48   3128.76     -0.03     -1.81      0.00 
    62.11     12.50   3124.23     -0.02     -4.53      0.00 
    62.12     12.49   3130.57     -0.01      3.62      0.00 
    62.13     12.50   3117.89      0.00     -9.06      7.00 
    62.14     12.51   3130.57      0.01      0.00      7.00 
    62.15     12.49   3130.57     -0.01      6.34      0.00 
    62.16     12.48   3124.23     -0.02     -2.72      0.00 
    62.17     12.50   3130.57     -0.02      0.00      0.00 
    62.18     12.49   3128.76     -0.02      4.53      0.00 
    62.19     12.51   3126.95      0.00     -3.62      0.00 
    62.20     12.52   3128.76     -0.00      2.72      8.00 
    62.21     12.50   3124.23     -0.04     -4.53      0.00 
    62.22     12.50   3132.39     -0.06      1.81      0.00 
    62.23     12.47   3121.51     -0.10     -2.72      0.00 
    62.24     12.49   3130.57     -0.09      0.00      0.00 
    62.25     12.48   3130.57     -0.07      6.34      7.00 
    62.26     12.49   3124.23     -0.05     -6.34      0.00 
    62.27     12.49   3130.57     -0.05      3.62      0.00 
    62.28     12.47   3124.23     -0.07     -4.53      0.00 
    62.29     12.48   3130.57     -0.06      6.34      0.00 
    62.30     12.49   3124.23     -0.07     -6.34      0.00 
    62.31     12.49   3130.57     -0.07      6.34      0.00 
    62.32     12.49   3130.57     -0.07      1.81      0.00 
    62.33     12.49   3124.23     -0.06     -8.15      0.00 
    62.34     12.48   3130.57     -0.06      6.34      0.00 
    62.35     12.48   3124.23     -0.03     -4.53      0.00 
    62.36     12.48   3130.57     -0.02      0.00      7.00 
    62.37     12.49   3124.23     -0.02      0.00      7.00 
    62.38     12.49   3128.76     -0.02     -1.81      8.00 
    62.39     12.49   3132.39     -0.04      8.15      0.00 
    62.40     12.50   3128.76     -0.03     -1.81      0.00 
    62.41     12.49   3124.23     -0.03     -4.53      7.00 
    62.42     12.49   3130.57     -0.04      6.34      0.00 
    62.43     12.47   3124.23     -0.07     -2.72      0.00 
    62.44     12.45   3130.57     -0.07      0.00      0.00 
    62.45     12.45   3124.23     -0.07     -4.53      0.00 
    62.46     12.47   3130.57     -0.02      6.34      0.00 
    62.47     12.48   3126.95      0.00     -3.62     18.00 
    62.48     12.50   3130.57      0.02      6.34      7.00 
    62.49     12.52   3124.23      0.03     -4.53      0.00 
    62.50     12.50   3132.39      0.01      1.81      0.00 
    62.51     12.50   3124.23     -0.01     -4.53      0.00 
    62.52     12.47   3130.57     -0.06      6.34      0.00 
    62.53     12.45   3128.76     -0.08     -1.81      0.00 
    62.54     12.47   3126.04     -0.08      1.81      0.00 
    62.55     12.49   3130.57     -0.05      3.62      0.00 
    62.56     12.52   3126.95     -0.02     -1.81      0.00 
    62.57     12.53   3128.76     -0.01      1.81      0.00 
    62.58     12.51   3124.23     -0.03     -6.34      0.00 
