#Written by Robertson Geologging WinLogger V1.0/406
~VERSION INFORMATION
#------------------------------------------------------------------------------
 VERS. 2.0 : CWLS LOG ASCII STANDARD - VERSION 2.0
 WRAP. NO  : ONE LINE PER DEPTH STEP
~WELL INFORMATION
#MNEM.UNIT         DATA                                DESCRIPTION OF MNEMONIC
#------------------------------------------------------------------------------
 STRT.M         15.0700                            :   START DEPTH
 STOP.M        131.0000                            :   STOP DEPTH
 STEP.M          0.0100                            :   STEP VALUE
 NULL.        -999.2500                            :   NULL VALUE
 COMP.    Coal Authority                           :   COMPANY NAME
 WELL.    Chatershaugh                             :   WELL NAME
 FLD.     N/A                                      :   FIELD NAME
 LOC.     N/A                                      :   LOCATION
 PROV.    N/A                                      :   PROVINCE
 SRVC.    N/A                                      :   SERVICE COMPANY NAME
 DATE.    01 Oct 08                                :   DATE
 UWI.     N/A                                      :   UNIQUE WELL IDENTIFIER
~PARAMETER INFORMATION
#MNEMO.UNIT         VALUE                 DESCRIPTION OF MNEMONIC
#------------------------------------------------------------------------------
~OTHER INFORMATION SECTION
#------------------------------------------------------------------------------
 TCGS2822
~CURVE INFORMATION
#MNEMO.UNIT         API CODE              CURVE DESCRIPTION
#------------------------------------------------------------------------------
 DEPTH.M                                 :   0     Depth
 TEMP.DegC                               :   1     Temperature
 COND.uS/cm                              :   2     Conductivity
 DELT.DegC                               :   3     Delta T
 DELC.uS/cm                              :   4     Delta C
 NGAM.CPS                                :   5     Natural Gamma
#------------------------------------------------------------------------------
~A  DEPTH     TEMP      COND      DELT      DELC      NGAM      
# ...
    83.71     12.48   3144.17     -0.06      0.00      0.00 
    83.72     12.47   3150.51     -0.03      0.00      0.00 
    83.73     12.47   3144.17     -0.04      0.00      0.00 
    83.74     12.47   3150.51     -0.02      6.34      7.00 
    83.75     12.47   3144.17     -0.02     -6.34      0.00 
    83.76     12.48   3150.51     -0.04      6.34      7.00 
    83.77     12.47   3144.17     -0.06      0.00      0.00 
    83.78     12.47   3149.60     -0.08     -0.91      0.00 
    83.79     12.48   3144.17     -0.06      0.00      0.00 
    83.80     12.48   3150.51     -0.04      0.91      0.00 
    83.81     12.47   3144.17     -0.04      0.00      0.00 
    83.82     12.48   3144.17     -0.02      0.00      0.00 
    83.83     12.50   3151.41      0.01      0.91      0.00 
    83.84     12.53   3144.17      0.04      0.00      7.00 
    83.85     12.53   3150.51      0.03      6.34      0.00 
    83.86     12.52   3136.92      0.02    -12.69      0.00 
    83.87     12.49   3150.51      0.00      6.34      7.00 
    83.88     12.48   3144.17     -0.03     -6.34      0.00 
    83.89     12.48   3151.41     -0.04      7.25      0.00 
    83.90     12.49   3144.17     -0.01      0.00      0.00 
    83.91     12.50   3150.51     -0.01     -0.91      0.00 
    83.92     12.47   3144.17     -0.01      0.00      7.00 
    83.93     12.48   3150.51      0.00      6.34      0.00 
    83.94     12.49   3144.17      0.00     -6.34      0.00 
    83.95     12.49   3150.51      0.01      6.34      0.00 
    83.96     12.49   3144.17     -0.00     -6.34      0.00 
    83.97     12.51   3150.51      0.04      6.34      0.00 
    83.98     12.52   3144.17      0.05      0.00      0.00 
    83.99     12.55   3150.51      0.05     -0.91      7.00 
    84.00     12.55   3144.17      0.03      0.00      0.00 
    84.01     12.54   3150.51      0.01      6.34      0.00 
    84.02     12.53   3144.17     -0.03     -7.25      0.00 
    84.03     12.50   3150.51     -0.04      6.34      0.00 
    84.04     12.49   3144.17     -0.04     -7.25      0.00 
    84.05     12.49   3150.51     -0.06      6.34      7.00 
    84.06     12.49   3144.17     -0.03      0.00      0.00 
    84.07     12.48   3150.51     -0.03      0.00      0.00 
    84.08     12.49   3144.17      0.00      0.00      0.00 
    84.09     12.49   3151.41      0.01      0.00      0.00 
    84.10     12.49   3144.17     -0.01      0.00      7.00 
    84.11     12.49   3150.51     -0.01      6.34      0.00 
    84.12     12.49   3144.17      0.00     -6.34      7.00 
    84.13     12.50   3150.51      0.00      6.34      0.00 
    84.14     12.49   3150.51      0.01      6.34      0.00 
    84.15     12.50   3144.17      0.01     -6.34      0.00 
    84.16     12.49   3150.51      0.01      6.34      0.00 
    84.17     12.49   3144.17      0.00     -6.34      0.00 
    84.18     12.50   3149.60      0.01      5.44      0.00 
    84.19     12.50   3144.17      0.01     -6.34      0.00 
    84.20     12.52   3149.60      0.03      5.44      0.00 
    84.21     12.52   3144.17      0.03      0.00      0.00 
    84.22     12.50   3150.51      0.01      0.00      0.00 
    84.23     12.50   3144.17      0.02      0.00      0.00 
    84.24     12.49   3151.41     -0.00      0.91      8.00 
    84.25     12.48   3144.17     -0.01      0.00      0.00 
    84.26     12.49   3150.51      0.01      6.34      0.00 
    84.27     12.48   3144.17     -0.01     -5.44      0.00 
    84.28     12.48   3150.51     -0.03      6.34      0.00 
    84.29     12.49   3150.51     -0.00      0.00      0.00 
    84.30     12.49   3144.17     -0.01      0.00      7.00 
    84.31     12.51   3151.41      0.03      0.91      0.00 
    84.32     12.54   3144.17      0.06      0.00      7.00 
    84.33     12.54   3150.51      0.05      6.34      0.00 
    84.34     12.53   3144.17      0.03     -6.34      0.00 
    84.35     12.49   3150.51     -0.02      6.34      0.00 
    84.36     12.49   3144.17     -0.03     -6.34      0.00 
    84.37     12.48   3151.41     -0.04      7.25      0.00 
    84.38     12.48   3144.17     -0.02     -6.34      0.00 
    84.39     12.53   3150.51      0.02      6.34      0.00 
    84.40     12.51   3144.17      0.01     -5.44      7.00 
    84.41     12.50   3150.51     -0.02      6.34      0.00 
    84.42     12.49   3150.51     -0.04      6.34      0.00 
    84.43     12.45   3144.17     -0.06     -6.34      0.00 
    84.44     12.48   3151.41     -0.06      7.25      0.00 
    84.45     12.50   3144.17     -0.01     -6.34      0.00 
    84.46     12.52   3150.51      0.00      6.34      0.00 
    84.47     12.54   3144.17      0.01     -6.34      0.00 
    84.48     12.54   3149.60      0.02      5.44      0.00 
    84.49     12.52   3150.51      0.02      6.34      0.00 
    84.50     12.52   3144.17      0.00     -6.34      0.00 
    84.51     12.53   3150.51      0.02      6.34      0.00 
    84.52     12.51   3144.17      0.03     -6.34      0.00 
    84.53     12.53   3150.51      0.03      6.34      0.00 
    84.54     12.51   3150.51      0.02      0.00      0.00 
    84.55     12.48   3144.17     -0.03      0.00      7.00 
    84.56     12.47   3150.51     -0.07      0.00      7.00 
    84.57     12.45   3144.17     -0.09      0.00      0.00 
    84.58     12.48   3149.60     -0.07     -0.91      0.00 
    84.59     12.48   3151.41     -0.04      7.25      0.00 
    84.60     12.49   3144.17     -0.02      0.00      0.00 
    84.61     12.50   3150.51      0.01      0.00      0.00 
    84.62     12.49   3144.17      0.01      0.00      7.00 
    84.63     12.51   3150.51      0.02      0.00      0.00 
    84.64     12.51   3150.51      0.04      6.34      0.00 
    84.65     12.51   3144.17      0.03     -6.34      0.00 
    84.66     12.52   3150.51      0.04      6.34      0.00 
    84.67     12.50   3144.17      0.03     -6.34     14.00 
    84.68     12.49   3150.51      0.00      6.34      0.00 
    84.69     12.49   3151.41     -0.01      0.91      0.00 
    84.70     12.48   3144.17      0.00      0.00      0.00 
    84.71     12.49   3150.51      0.02      0.00      0.00 
    84.72     12.50   3144.17      0.03      0.00      7.00 
    84.73     12.50   3150.51      0.04      0.00      0.00 
    84.74     12.50   3150.51      0.03      6.34      7.00 
    84.75     12.51   3144.17      0.03     -6.34      7.00 
    84.76     12.50   3150.51      0.03      6.34      7.00 
    84.77     12.49   3144.17      0.02     -5.44      0.00 
    84.78     12.48   3151.41      0.00      7.25      0.00 
    84.79     12.48   3149.60     -0.00     -0.91      0.00 
    84.80     12.48   3144.17      0.01      0.00      0.00 
    84.81     12.48   3150.51      0.00      6.34      7.00 
    84.82     12.50   3144.17     -0.00     -7.25      0.00 
    84.83     12.50   3149.60     -0.02      5.44      0.00 
    84.84     12.52   3144.17     -0.01     -6.34      0.00 
    84.85     12.51   3150.51     -0.01     13.59      0.00 
    84.86     12.51   3150.51      0.02      0.00      0.00 
    84.87     12.51   3144.17      0.03      0.00      0.00 
    84.88     12.49   3150.51      0.02     -0.91      7.00 
    84.89     12.51   3150.51      0.02      6.34      0.00 
    84.90     12.50   3144.17      0.00     -6.34      0.00 
    84.91     12.50   3150.51      0.03      6.34      0.00 
    84.92     12.50   3144.17      0.02     -6.34      0.00 
    84.93     12.50   3150.51      0.01      6.34      0.00 
    84.94     12.52   3150.51      0.03      0.00      0.00 
    84.95     12.50   3144.17      0.01      0.00      7.00 
    84.96     12.50   3150.51     -0.01      0.00      0.00 
    84.97     12.50   3144.17     -0.02      0.00      0.00 
    84.98     12.48   3151.41     -0.07      0.91      0.00 
    84.99     12.50   3150.51     -0.05      6.34      0.00 
    85.00     12.52   3144.17     -0.02     -6.34      7.00 
    85.01     12.50   3150.51     -0.02      6.34      0.00 
    85.02     12.51   3150.51      0.01      0.00      0.00 
