#Written by Robertson Geologging WinLogger V1.0/406
~VERSION INFORMATION
#------------------------------------------------------------------------------
 VERS. 2.0 : CWLS LOG ASCII STANDARD - VERSION 2.0
 WRAP. NO  : ONE LINE PER DEPTH STEP
~WELL INFORMATION
#MNEM.UNIT         DATA                                DESCRIPTION OF MNEMONIC
#------------------------------------------------------------------------------
 STRT.M         15.0700                            :   START DEPTH
 STOP.M        131.0000                            :   STOP DEPTH
 STEP.M          0.0100                            :   STEP VALUE
 NULL.        -999.2500                            :   NULL VALUE
 COMP.    Coal Authority                           :   COMPANY NAME
 WELL.    Chatershaugh                             :   WELL NAME
 FLD.     N/A                                      :   FIELD NAME
 LOC.     N/A                                      :   LOCATION
 PROV.    N/A                                      :   PROVINCE
 SRVC.    N/A                                      :   SERVICE COMPANY NAME
 DATE.    01 Oct 08                                :   DATE
 UWI.     N/A                                      :   UNIQUE WELL IDENTIFIER
~PARAMETER INFORMATION
#MNEMO.UNIT         VALUE                 DESCRIPTION OF MNEMONIC
#------------------------------------------------------------------------------
~OTHER INFORMATION SECTION
#------------------------------------------------------------------------------
 TCGS2822
~CURVE INFORMATION
#MNEMO.UNIT         API CODE              CURVE DESCRIPTION
#------------------------------------------------------------------------------
 DEPTH.M                                 :   0     Depth
 TEMP.DegC                               :   1     Temperature
 COND.uS/cm                              :   2     Conductivity
 DELT.DegC                               :   3     Delta T
 DELC.uS/cm                              :   4     Delta C
 NGAM.CPS                                :   5     Natural Gamma
#------------------------------------------------------------------------------
~A  DEPTH     TEMP      COND      DELT      DELC      NGAM      
# ...
   129.91     12.71   3164.10      0.03     -5.44      0.00 
   129.92     12.70   3168.63      0.03      1.81      0.00 
   129.93     12.70   3172.26      0.05      2.72      0.00 
   129.94     12.68   3168.63      0.01     -0.91      0.00 
   129.95     12.68   3168.63     -0.01      1.81      5.00 
   129.96     12.68   3168.63     -0.02     -0.91      0.00 
   129.97     12.68   3168.63     -0.03     -0.91      0.00 
   129.98     12.67   3164.10     -0.04     -2.72      5.00 
   129.99     12.68   3172.26     -0.03      2.72      0.00 
   130.00     12.67   3168.63     -0.03      5.44      0.00 
   130.01     12.67   3168.63     -0.04      1.81      0.00 
   130.02     12.70   3166.82      0.00     -9.06      0.00 
   130.03     12.67   3168.63     -0.01      1.81      0.00 
   130.04     12.69   3168.63     -0.00      5.44      5.00 
   130.05     12.69   3168.63     -0.01     -5.44      0.00 
   130.06     12.68   3172.26      0.00      2.72      0.00 
   130.07     12.69   3168.63      0.00      5.44      0.00 
   130.08     12.70   3168.63      0.01     -0.91      5.00 
   130.09     12.70   3168.63      0.03     -5.44      0.00 
   130.10     12.70   3168.63      0.01      5.44      0.00 
   130.11     12.71   3166.82      0.02      0.00      6.00 
   130.12     12.69   3168.63      0.00     -7.25      0.00 
   130.13     12.69   3168.63     -0.02      5.44      0.00 
   130.14     12.66   3168.63     -0.05     -0.91      0.00 
   130.15     12.67   3168.63     -0.02     -0.91      0.00 
   130.16     12.68   3166.82     -0.01      0.00      0.00 
   130.17     12.70   3168.63      0.02     -0.91      0.00 
   130.18     12.71   3168.63      0.04     -0.91      0.00 
   130.19     12.69   3168.63      0.01      1.81      0.00 
   130.20     12.69   3168.63      0.00     -0.91      5.00 
   130.21     12.68   3168.63     -0.00     -0.91      5.00 
   130.22     12.69   3172.26     -0.00      5.44      0.00 
   130.23     12.69   3168.63     -0.02     -0.91      0.00 
   130.24     12.67   3168.63     -0.02      1.81      5.00 
   130.25     12.67   3164.10     -0.03     -5.44      0.00 
   130.26     12.66   3174.07     -0.02      4.53      5.00 
   130.27     12.68   3164.10     -0.01     -2.72      0.00 
   130.28     12.69   3168.63     -0.02     -0.91      0.00 
   130.29     12.68   3174.07     -0.01      4.53      0.00 
   130.30     12.68   3166.82     -0.03      0.00      0.00 
   130.31     12.67   3168.63     -0.03     -0.91      0.00 
   130.32     12.66   3168.63     -0.04      1.81      0.00 
   130.33     12.66   3168.63     -0.05     -0.91      0.00 
   130.34     12.66   3168.63     -0.04      1.81      5.00 
   130.35     12.67   3168.63     -0.02     -0.91      0.00 
   130.36     12.69   3168.63     -0.01     -0.91      0.00 
   130.37     12.70   3166.82      0.02      0.00      0.00 
   130.38     12.71   3168.63      0.01     -0.91      5.00 
   130.39     12.70   3171.35      0.01      1.81     10.00 
   130.40     12.69   3166.82      0.02      3.63      0.00 
   130.41     12.71   3168.63      0.01     -5.44      0.00 
   130.42     12.70   3171.35     -0.00      1.81      0.00 
   130.43     12.71   3166.82      0.01     -2.72      5.00 
   130.44     12.71   3171.35      0.02      8.16      0.00 
   130.45     12.70   3166.82      0.02     -7.25      0.00 
   130.46     12.70   3171.35      0.04      1.81      0.00 
   130.47     12.70   3166.82      0.02      3.63     10.00 
   130.48     12.68   3171.35      0.00      4.53      5.00 
   130.49     12.68   3166.82      0.00     -2.72      0.00 
   130.50     12.68   3171.35     -0.01     -2.72      0.00 
   130.51     12.68   3166.82     -0.01      3.63      0.00 
   130.52     12.69   3170.45     -0.01      0.91      4.00 
   130.53     12.67   3169.54     -0.03      0.00      0.00 
   130.54     12.68   3169.54     -0.02      2.72      0.00 
   130.55     12.68   3167.73     -0.03     -1.81      3.00 
   130.56     12.68   3167.73     -0.03     -1.81      3.00 
   130.57     12.69   3170.45     -0.02      3.63      8.00 
   130.58     12.70   3169.54      0.00     -2.72      2.00 
   130.59     12.69   3167.73     -0.00      0.91      0.00 
   130.60     12.69   3168.63     -0.02      1.81      0.00 
   130.61     12.70   3170.45      0.01      0.91      2.00 
   130.62     12.70   3167.73      0.00      0.00      0.00 
   130.63     12.71   3167.73      0.01     -3.63      2.00 
   130.64     12.73   3166.82      0.05      0.00      3.00 
   130.65     12.71   3170.45      0.02      0.00      2.00 
   130.66     12.70   3167.73      0.00     -0.91      0.00 
   130.67     12.71   3170.45      0.01      3.63      0.00 
   130.68     12.70   3169.54     -0.02     -1.81      6.00 
   130.69     12.71   3167.73      0.01      0.91      5.00 
   130.70     12.71   3170.45      0.02      6.34      0.00 
   130.71     12.68   3167.73     -0.00      0.91      2.00 
   130.72     12.69   3170.45      0.01     -0.91      0.00 
   130.73     12.68   3167.73      0.00     -3.63      2.00 
   130.74     12.69   3170.45      0.01      1.81      0.00 
   130.75     12.70   3167.73      0.01      0.91      0.00 
   130.76     12.69   3166.82      0.00     -1.81      0.00 
   130.77     12.69   3166.82     -0.02      0.00      0.00 
   130.78     12.69   3166.82     -0.00     -1.81      0.00 
   130.79     12.69   3166.82      0.01     -7.25      0.00 
   130.80     12.69   3166.82     -0.01      0.00      0.00 
   130.81     12.69   3166.82     -0.01      0.00      0.00 
   130.82     12.69   3166.82     -0.02     -7.25      0.00 
   130.83     12.69   3166.82     -0.02      2.72      0.00 
   130.84     12.69   3166.82      0.00     -1.81      0.00 
   130.85     12.69   3166.82      0.00     -1.81      0.00 
   130.86     12.69   3166.82      0.00     -5.44      0.00 
   130.87     12.69   3166.82     -0.01     -1.81      0.00 
   130.88     12.69   3166.82     -0.01     -1.81      0.00 
   130.89     12.69   3166.82     -0.01     -1.81      0.00 
   130.90     12.69   3166.82     -0.01      2.72      0.00 
   130.91     12.69   3166.82     -0.01     -1.81      0.00 
   130.92     12.69   3166.82     -0.01     -5.44      0.00 
   130.93     12.69   3166.82      0.01     -1.81      0.00 
   130.94     12.69   3166.82      0.01     -1.81      0.00 
   130.95     12.69   3166.82      0.01     -1.81      0.00 
   130.96     12.69   3166.82      0.01     -1.81      0.00 
   130.97     12.69   3166.82      0.02      2.72      0.00 
   130.98     12.69   3166.82      0.01     -5.44      0.00 
   130.99     12.69   3166.82      0.02     -1.81      0.00 
   131.00     12.69   3166.82      0.02     -1.81      0.00 
