#Written by Robertson Geologging WinLogger V1.0/406
~VERSION INFORMATION
#------------------------------------------------------------------------------
 VERS. 2.0 : CWLS LOG ASCII STANDARD - VERSION 2.0
 WRAP. NO  : ONE LINE PER DEPTH STEP
~WELL INFORMATION
#MNEM.UNIT         DATA                                DESCRIPTION OF MNEMONIC
#------------------------------------------------------------------------------
 STRT.M         15.0700                            :   START DEPTH
 STOP.M        131.0000                            :   STOP DEPTH
 STEP.M          0.0100                            :   STEP VALUE
 NULL.        -999.2500                            :   NULL VALUE
 COMP.    Coal Authority                           :   COMPANY NAME
 WELL.    Chatershaugh                             :   WELL NAME
 FLD.     N/A                                      :   FIELD NAME
 LOC.     N/A                                      :   LOCATION
 PROV.    N/A                                      :   PROVINCE
 SRVC.    N/A                                      :   SERVICE COMPANY NAME
 DATE.    01 Oct 08                                :   DATE
 UWI.     N/A                                      :   UNIQUE WELL IDENTIFIER
~PARAMETER INFORMATION
#MNEMO.UNIT         VALUE                 DESCRIPTION OF MNEMONIC
#------------------------------------------------------------------------------
~OTHER INFORMATION SECTION
#------------------------------------------------------------------------------
 TCGS2822
~CURVE INFORMATION
#MNEMO.UNIT         API CODE              CURVE DESCRIPTION
#------------------------------------------------------------------------------
 DEPTH.M                                 :   0     Depth
 TEMP.DegC                               :   1     Temperature
 COND.uS/cm                              :   2     Conductivity
 DELT.DegC                               :   3     Delta T
 DELC.uS/cm                              :   4     Delta C
 NGAM.CPS                                :   5     Natural Gamma
#------------------------------------------------------------------------------
~A  DEPTH     TEMP      COND      DELT      DELC      NGAM      
# ...
    91.63     12.62   3156.85     -0.03      5.44      0.00 
    91.64     12.63   3151.41     -0.04      0.91      8.00 
    91.65     12.62   3151.41     -0.03      0.00      0.00 
    91.66     12.63   3150.51     -0.01      0.00      7.00 
    91.67     12.64   3151.41      0.02      0.00      0.00 
    91.68     12.62   3156.85      0.01      6.34      0.00 
    91.69     12.65   3151.41      0.04      0.00      8.00 
    91.70     12.63   3150.51      0.01      0.00      0.00 
    91.71     12.63   3156.85     -0.02     -1.81      0.00 
    91.72     12.62   3151.41     -0.03      0.91      0.00 
    91.73     12.61   3151.41     -0.06      0.91      0.00 
    91.74     12.61   3150.51     -0.05     -0.91      0.00 
    91.75     12.62   3150.51     -0.03     -0.91      7.00 
    91.76     12.62   3158.66     -0.01      8.16      8.00 
    91.77     12.64   3151.41      0.01      0.00      0.00 
    91.78     12.64   3151.41      0.02     -5.44      0.00 
    91.79     12.66   3151.41      0.05      0.00      0.00 
    91.80     12.65   3150.51      0.02      0.00      0.00 
    91.81     12.62   3158.66     -0.02      8.16      0.00 
    91.82     12.63   3150.51     -0.03     -0.91      7.00 
    91.83     12.61   3151.41     -0.07      0.91      0.00 
    91.84     12.61   3151.41     -0.05     -5.44      0.00 
    91.85     12.61   3150.51     -0.04     -0.91      0.00 
    91.86     12.60   3158.66     -0.05      8.16      0.00 
    91.87     12.60   3151.41     -0.02      0.91      0.00 
    91.88     12.60   3150.51     -0.02     -0.91      0.00 
    91.89     12.60   3151.41     -0.02      0.00      0.00 
    91.90     12.61   3151.41     -0.01     -5.44      0.00 
    91.91     12.61   3156.85     -0.03      5.44      7.00 
    91.92     12.61   3151.41     -0.04      0.00      0.00 
    91.93     12.62   3150.51     -0.03      0.00      0.00 
    91.94     12.62   3151.41     -0.03      0.00      0.00 
    91.95     12.63   3156.85     -0.00      6.34      0.00 
    91.96     12.63   3151.41     -0.01      0.00      0.00 
    91.97     12.64   3150.51      0.02     -6.34      7.00 
    91.98     12.64   3150.51      0.03     -0.91      0.00 
    91.99     12.64   3158.66      0.02      7.25      0.00 
    92.00     12.63   3151.41      0.04      0.91      0.00 
    92.01     12.64   3150.51      0.02      0.00      7.00 
    92.02     12.64   3150.51      0.02     -0.91      7.00 
    92.03     12.63   3158.66      0.01      7.25      0.00 
    92.04     12.64   3151.41      0.00     -5.44      0.00 
    92.05     12.64   3150.51      0.01      0.00      0.00 
    92.06     12.65   3151.41      0.02      0.00      0.00 
    92.07     12.64   3156.85      0.03      6.34      0.00 
    92.08     12.64   3151.41      0.03      0.00      0.00 
    92.09     12.63   3150.51      0.00     -6.34      0.00 
    92.10     12.62   3144.17     -0.02     -7.25      0.00 
    92.11     12.65   3156.85     -0.01      5.44      0.00 
    92.12     12.65   3151.41     -0.00      0.91      0.00 
    92.13     12.66   3150.51      0.02     -0.91      0.00 
    92.14     12.66   3151.41      0.01      0.91      0.00 
    92.15     12.64   3156.85      0.00     -1.81      0.00 
    92.16     12.63   3150.51     -0.02      0.00      0.00 
    92.17     12.62   3156.85     -0.03      5.44      0.00 
    92.18     12.61   3151.41     -0.03      0.91      0.00 
    92.19     12.62   3150.51     -0.02     -0.91      0.00 
    92.20     12.64   3151.41      0.00     -5.44      0.00 
    92.21     12.62   3156.85      0.00      5.44      0.00 
    92.22     12.63   3150.51      0.01      0.00      0.00 
    92.23     12.62   3151.41      0.00      0.00      0.00 
    92.24     12.60   3151.41     -0.04      0.91      0.00 
    92.25     12.60   3156.85     -0.05      0.00      0.00 
    92.26     12.61   3151.41     -0.04      0.00      8.00 
    92.27     12.61   3150.51     -0.02      0.00      7.00 
    92.28     12.61   3156.85      0.00      5.44      7.00 
    92.29     12.62   3151.41      0.01      0.91      0.00 
    92.30     12.61   3150.51     -0.00     -0.91      0.00 
    92.31     12.62   3151.41     -0.00     -5.44      8.00 
    92.32     12.61   3156.85     -0.02      5.44      0.00 
    92.33     12.62   3151.41     -0.00      0.00      0.00 
    92.34     12.62   3150.51     -0.00      0.00      0.00 
    92.35     12.61   3158.66     -0.01      7.25      0.00 
    92.36     12.63   3150.51      0.01     -0.91      7.00 
    92.37     12.63   3151.41      0.02     -5.44      0.00 
    92.38     12.64   3156.85      0.02      5.44      0.00 
    92.39     12.64   3151.41      0.02      0.91      8.00 
    92.40     12.62   3150.51     -0.01     -0.91      0.00 
    92.41     12.61   3156.85     -0.02      6.34      0.00 
    92.42     12.60   3151.41     -0.02     -7.25      0.00 
    92.43     12.60   3150.51     -0.02     -0.91      0.00 
    92.44     12.61   3151.41      0.00      0.91      0.00 
    92.45     12.61   3156.85      0.01      5.44      0.00 
    92.46     12.62   3151.41      0.02      0.91      0.00 
    92.47     12.61   3150.51     -0.00     -8.16      0.00 
    92.48     12.62   3158.66     -0.01      8.16      8.00 
    92.49     12.61   3150.51     -0.02     -0.91      0.00 
    92.50     12.62   3151.41     -0.02      0.91      8.00 
    92.51     12.62   3151.41     -0.03      0.00      0.00 
    92.52     12.63   3156.85     -0.02      0.00      0.00 
    92.53     12.66   3151.41     -0.01      0.00      0.00 
    92.54     12.66   3156.85      0.00      6.34      0.00 
    92.55     12.66   3151.41      0.02      0.00      0.00 
    92.56     12.64   3151.41      0.01      0.91      0.00 
    92.57     12.62   3150.51     -0.00     -8.16      0.00 
    92.58     12.61   3158.66      0.00      8.16      0.00 
    92.59     12.62   3150.51      0.00     -0.91      7.00 
    92.60     12.63   3150.51      0.00      0.00      0.00 
    92.61     12.64   3158.66      0.02      7.25      8.00 
    92.62     12.64   3150.51      0.02     -6.34      0.00 
    92.63     12.63   3156.85      0.00      5.44      0.00 
    92.64     12.65   3151.41      0.03      0.00      0.00 
    92.65     12.64   3150.51      0.01      0.00      0.00 
    92.66     12.64   3151.41      0.00      0.00      8.00 
    92.67     12.64   3158.66      0.01      1.81      0.00 
    92.68     12.62   3150.51     -0.02     -0.91      7.00 
    92.69     12.63   3151.41      0.00      0.91      8.00 
    92.70     12.61   3158.66     -0.01      1.81      0.00 
    92.71     12.60   3150.51     -0.02     -0.91      0.00 
    92.72     12.61   3151.41      0.00      0.00      0.00 
    92.73     12.62   3156.85      0.01      6.34      0.00 
    92.74     12.62   3151.41      0.00      0.91      0.00 
    92.75     12.62   3150.51     -0.00     -8.16      0.00 
    92.76     12.60   3158.66     -0.04      7.25      8.00 
    92.77     12.59   3151.41     -0.06      0.00      0.00 
    92.78     12.59   3150.51     -0.07     -0.91      0.00 
    92.79     12.60   3156.85     -0.05      6.34     14.00 
    92.80     12.61   3151.41     -0.01     -7.25      0.00 
    92.81     12.62   3150.51     -0.00      0.00      0.00 
    92.82     12.62   3158.66      0.01      7.25      8.00 
    92.83     12.62   3150.51      0.01     -0.91      0.00 
    92.84     12.61   3150.51      0.00      0.00      0.00 
    92.85     12.60   3158.66      0.00      0.00      0.00 
    92.86     12.60   3150.51      0.00     -0.91      0.00 
    92.87     12.62   3156.85      0.01      6.34      7.00 
    92.88     12.62   3151.41      0.02      0.00      8.00 
    92.89     12.63   3150.51      0.02     -0.91      0.00 
    92.90     12.64   3156.85      0.03      0.00      0.00 
    92.91     12.65   3151.41      0.04      0.00      0.00 
    92.92     12.66   3150.51      0.04      0.00     14.00 
    92.93     12.66   3158.66      0.04      7.25      8.00 
    92.94     12.68   3150.51      0.05     -6.34      0.00 
