#Written by Robertson Geologging WinLogger V1.0/406
~VERSION INFORMATION
#------------------------------------------------------------------------------
 VERS. 2.0 : CWLS LOG ASCII STANDARD - VERSION 2.0
 WRAP. NO  : ONE LINE PER DEPTH STEP
~WELL INFORMATION
#MNEM.UNIT         DATA                                DESCRIPTION OF MNEMONIC
#------------------------------------------------------------------------------
 STRT.M         15.0700                            :   START DEPTH
 STOP.M        131.0000                            :   STOP DEPTH
 STEP.M          0.0100                            :   STEP VALUE
 NULL.        -999.2500                            :   NULL VALUE
 COMP.    Coal Authority                           :   COMPANY NAME
 WELL.    Chatershaugh                             :   WELL NAME
 FLD.     N/A                                      :   FIELD NAME
 LOC.     N/A                                      :   LOCATION
 PROV.    N/A                                      :   PROVINCE
 SRVC.    N/A                                      :   SERVICE COMPANY NAME
 DATE.    01 Oct 08                                :   DATE
 UWI.     N/A                                      :   UNIQUE WELL IDENTIFIER
~PARAMETER INFORMATION
#MNEMO.UNIT         VALUE                 DESCRIPTION OF MNEMONIC
#------------------------------------------------------------------------------
~OTHER INFORMATION SECTION
#------------------------------------------------------------------------------
 TCGS2822
~CURVE INFORMATION
#MNEMO.UNIT         API CODE              CURVE DESCRIPTION
#------------------------------------------------------------------------------
 DEPTH.M                                 :   0     Depth
 TEMP.DegC                               :   1     Temperature
 COND.uS/cm                              :   2     Conductivity
 DELT.DegC                               :   3     Delta T
 DELC.uS/cm                              :   4     Delta C
 NGAM.CPS                                :   5     Natural Gamma
#------------------------------------------------------------------------------
~A  DEPTH     TEMP      COND      DELT      DELC      NGAM      
# ...
   107.47     12.65   3156.85     -0.01     -9.97      0.00 
   107.48     12.66   3163.20      0.01      6.34      0.00 
   107.49     12.68   3158.66      0.01     -4.53      0.00 
   107.50     12.66   3163.20     -0.01      0.00      0.00 
   107.51     12.66   3156.85      0.00     -1.81      7.00 
   107.52     12.66   3166.82     -0.01      3.63      0.00 
   107.53     12.64   3163.20     -0.03      0.00      7.00 
   107.54     12.65   3158.66     -0.02     -4.53      0.00 
   107.55     12.65   3163.20     -0.01      4.53      0.00 
   107.56     12.66   3166.82     -0.00      3.63      8.00 
   107.57     12.66   3156.85     -0.01      0.00      7.00 
   107.58     12.66   3166.82      0.00      3.63      0.00 
   107.59     12.67   3163.20      0.00     -3.63      0.00 
   107.60     12.69   3158.66      0.02      1.81      0.00 
   107.61     12.68   3163.20      0.00      0.00      0.00 
   107.62     12.68   3166.82      0.01      3.63      0.00 
   107.63     12.67   3156.85      0.00     -1.81      7.00 
   107.64     12.64   3163.20     -0.02      0.00      0.00 
   107.65     12.66   3163.20      0.00      0.00      0.00 
   107.66     12.66   3166.82      0.00      3.63      0.00 
   107.67     12.66   3163.20      0.00      4.53      0.00 
   107.68     12.67   3156.85      0.02     -6.34      0.00 
   107.69     12.66   3163.20      0.01      0.00      0.00 
   107.70     12.66   3163.20      0.00      6.34      0.00 
   107.71     12.65   3163.20      0.01     -3.63      0.00 
   107.72     12.64   3163.20     -0.01      6.34      7.00 
   107.73     12.64   3158.66     -0.03     -8.16      0.00 
   107.74     12.64   3163.20     -0.02      6.34      0.00 
   107.75     12.66   3166.82      0.00      3.63      0.00 
   107.76     12.68   3163.20      0.02      0.00      0.00 
   107.77     12.68   3156.85      0.04      0.00      7.00 
   107.78     12.68   3166.82      0.04      3.63      0.00 
   107.79     12.69   3163.20      0.04     -3.63      0.00 
   107.80     12.67   3163.20      0.01      6.34      0.00 
   107.81     12.66   3158.66      0.00     -4.53      0.00 
   107.82     12.67   3163.20      0.00      0.00      7.00 
   107.83     12.66   3163.20     -0.01      0.00      0.00 
   107.84     12.66   3158.66      0.00      0.00      8.00 
   107.85     12.67   3163.20      0.01      0.00      0.00 
   107.86     12.65   3163.20      0.01     -3.63      0.00 
   107.87     12.66   3163.20      0.03      6.34      0.00 
   107.88     12.69   3166.82      0.04      0.00      0.00 
   107.89     12.67   3156.85      0.02     -6.34      0.00 
   107.90     12.67   3163.20      0.01      6.34      0.00 
   107.91     12.66   3163.20     -0.01     -3.63      0.00 
   107.92     12.65   3166.82     -0.02      3.63      0.00 
   107.93     12.67   3163.20      0.01      4.53      0.00 
   107.94     12.68   3156.85      0.01     -6.34      0.00 
   107.95     12.68   3166.82      0.01      3.63      0.00 
   107.96     12.67   3163.20     -0.00      4.53      0.00 
   107.97     12.67   3163.20     -0.02      0.00      0.00 
   107.98     12.67   3158.66     -0.00     -4.53      0.00 
   107.99     12.67   3163.20      0.00      4.53      0.00 
   108.00     12.66   3163.20      0.00      0.00      7.00 
   108.01     12.66   3158.66     -0.01      0.00      0.00 
   108.02     12.66   3163.20     -0.02      0.00      7.00 
   108.03     12.64   3163.20     -0.04      0.00      0.00 
   108.04     12.66   3166.82     -0.02      0.00      0.00 
   108.05     12.67   3163.20     -0.01      6.34      0.00 
   108.06     12.66   3158.66     -0.03     -8.16      0.00 
   108.07     12.68   3163.20     -0.01      0.00      7.00 
   108.08     12.67   3158.66     -0.01      1.81      0.00 
   108.09     12.66   3163.20     -0.02     -3.63      0.00 
   108.10     12.67   3163.20      0.02      0.00      0.00 
   108.11     12.67   3163.20      0.02      4.53      0.00 
   108.12     12.68   3163.20      0.02      0.00      0.00 
   108.13     12.68   3166.82      0.02      8.16      0.00 
   108.14     12.67   3156.85      0.00     -6.34      0.00 
   108.15     12.66   3163.20     -0.01      0.00      0.00 
   108.16     12.66   3163.20     -0.00     -3.63      0.00 
   108.17     12.65   3166.82     -0.02      9.97      0.00 
   108.18     12.65   3163.20     -0.03      0.00      0.00 
   108.19     12.66   3158.66     -0.02     -8.16      0.00 
   108.20     12.65   3163.20     -0.05      0.00      0.00 
   108.21     12.66   3166.82     -0.02      9.97      0.00 
   108.22     12.66   3156.85     -0.02     -6.34      0.00 
   108.23     12.65   3166.82     -0.02      0.00      0.00 
   108.24     12.65   3163.20     -0.01      0.00      0.00 
   108.25     12.66   3163.20     -0.02      6.34      0.00 
   108.26     12.66   3158.66     -0.01     -4.53      0.00 
   108.27     12.66   3163.20     -0.02     -3.63      0.00 
   108.28     12.67   3163.20     -0.00      0.00      0.00 
   108.29     12.67   3166.82      0.02      8.16      0.00 
   108.30     12.68   3156.85      0.03     -6.34      0.00 
   108.31     12.68   3166.82      0.03      3.63      0.00 
   108.32     12.68   3163.20      0.01      4.53      0.00 
   108.33     12.67   3163.20      0.00      0.00      0.00 
   108.34     12.68   3163.20     -0.00      0.00      0.00 
   108.35     12.67   3158.66     -0.00     -4.53      0.00 
   108.36     12.67   3163.20      0.02      4.53      7.00 
   108.37     12.67   3163.20      0.00      0.00      0.00 
   108.38     12.67   3166.82      0.01      3.63      0.00 
   108.39     12.67   3156.85     -0.01     -1.81      0.00 
   108.40     12.68   3163.20      0.00      0.00      0.00 
   108.41     12.67   3166.82      0.00      3.63      0.00 
   108.42     12.66   3163.20     -0.01      4.53      7.00 
   108.43     12.66   3163.20      0.00      0.00      0.00 
   108.44     12.63   3158.66     -0.02     -4.53      0.00 
   108.45     12.64   3163.20     -0.03     -3.63      0.00 
   108.46     12.66   3166.82      0.01      9.97      0.00 
   108.47     12.67   3163.20      0.01      0.00      7.00 
   108.48     12.68   3156.85      0.00     -1.81      0.00 
   108.49     12.67   3166.82      0.01      3.63      0.00 
   108.50     12.64   3163.20     -0.02      6.34      0.00 
   108.51     12.64   3158.66     -0.01     -8.16      0.00 
   108.52     12.64   3163.20      0.00      0.00      7.00 
   108.53     12.65   3163.20      0.00      4.53      0.00 
   108.54     12.66   3163.20      0.00      0.00      0.00 
   108.55     12.66   3163.20     -0.00     -3.63      0.00 
   108.56     12.65   3163.20     -0.01      6.34      7.00 
   108.57     12.64   3166.82     -0.02      0.00      0.00 
   108.58     12.65   3163.20     -0.02      0.00      0.00 
   108.59     12.66   3156.85     -0.03     -1.81      7.00 
   108.60     12.66   3163.20     -0.01      0.00     14.00 
   108.61     12.67   3166.82     -0.01      0.00      0.00 
   108.62     12.67   3163.20      0.00      6.34      0.00 
   108.63     12.66   3158.66      0.02     -4.53      0.00 
   108.64     12.66   3163.20      0.00      0.00      0.00 
   108.65     12.66   3166.82      0.00      0.00      0.00 
   108.66     12.66   3163.20      0.00      0.00      0.00 
   108.67     12.66   3163.20     -0.01      6.34      0.00 
   108.68     12.66   3158.66      0.00     -4.53      8.00 
   108.69     12.66   3163.20      0.00      0.00      0.00 
   108.70     12.65   3163.20      0.00      0.00      0.00 
   108.71     12.66   3166.82      0.02      3.63      8.00 
   108.72     12.65   3156.85      0.01     -1.81      0.00 
   108.73     12.66   3166.82      0.02      3.63      0.00 
   108.74     12.66   3163.20      0.00     -3.63      7.00 
   108.75     12.66   3158.66     -0.01     -4.53      0.00 
   108.76     12.68   3163.20      0.00      6.34      7.00 
   108.77     12.67   3163.20     -0.01     -3.63      0.00 
   108.78     12.66   3166.82     -0.02      3.63      0.00 
