#Written by Robertson Geologging WinLogger V1.0/406
~VERSION INFORMATION
#------------------------------------------------------------------------------
 VERS. 2.0 : CWLS LOG ASCII STANDARD - VERSION 2.0
 WRAP. NO  : ONE LINE PER DEPTH STEP
~WELL INFORMATION
#MNEM.UNIT         DATA                                DESCRIPTION OF MNEMONIC
#------------------------------------------------------------------------------
 STRT.M         15.0700                            :   START DEPTH
 STOP.M        131.0000                            :   STOP DEPTH
 STEP.M          0.0100                            :   STEP VALUE
 NULL.        -999.2500                            :   NULL VALUE
 COMP.    Coal Authority                           :   COMPANY NAME
 WELL.    Chatershaugh                             :   WELL NAME
 FLD.     N/A                                      :   FIELD NAME
 LOC.     N/A                                      :   LOCATION
 PROV.    N/A                                      :   PROVINCE
 SRVC.    N/A                                      :   SERVICE COMPANY NAME
 DATE.    01 Oct 08                                :   DATE
 UWI.     N/A                                      :   UNIQUE WELL IDENTIFIER
~PARAMETER INFORMATION
#MNEMO.UNIT         VALUE                 DESCRIPTION OF MNEMONIC
#------------------------------------------------------------------------------
~OTHER INFORMATION SECTION
#------------------------------------------------------------------------------
 TCGS2822
~CURVE INFORMATION
#MNEMO.UNIT         API CODE              CURVE DESCRIPTION
#------------------------------------------------------------------------------
 DEPTH.M                                 :   0     Depth
 TEMP.DegC                               :   1     Temperature
 COND.uS/cm                              :   2     Conductivity
 DELT.DegC                               :   3     Delta T
 DELC.uS/cm                              :   4     Delta C
 NGAM.CPS                                :   5     Natural Gamma
#------------------------------------------------------------------------------
~A  DEPTH     TEMP      COND      DELT      DELC      NGAM      
# ...
    22.99     11.09   1300.10     -0.01     -7.14      0.00 
    23.00     11.08   1307.25      0.00      0.89      0.00 
    23.01     11.07   1306.35     -0.00     -0.89      0.00 
    23.02     11.07   1306.35      0.01      6.25      0.00 
    23.03     11.06   1307.25     -0.01      0.89      8.00 
    23.04     11.06   1300.10     -0.03      0.00      0.00 
    23.05     11.08   1306.35     -0.02      0.00      0.00 
    23.06     11.08   1306.35     -0.02      0.00      0.00 
    23.07     11.09   1306.35     -0.00     -0.89      0.00 
    23.08     11.10   1307.25      0.01      7.14      0.00 
    23.09     11.09   1300.10      0.01     -6.25      0.00 
    23.10     11.09   1306.35      0.01     -0.89      0.00 
    23.11     11.08   1307.25     -0.00      0.89      8.00 
    23.12     11.09   1306.35      0.01      0.00      7.00 
    23.13     11.06   1307.25     -0.01      0.89      0.00 
    23.14     11.05   1306.35     -0.02      6.25      7.00 
    23.15     11.05   1300.10     -0.00     -6.25      0.00 
    23.16     11.04   1306.35     -0.00      0.00      0.00 
    23.17     11.07   1307.25      0.01      0.89      0.00 
    23.18     11.10   1306.35      0.02     -0.89      0.00 
    23.19     11.09   1306.35      0.00     -0.89      0.00 
    23.20     11.09   1300.10     -0.02      0.00      0.00 
    23.21     11.11   1306.35      0.00      0.00      0.00 
    23.22     11.09   1307.25      0.00      0.00      0.00 
    23.23     11.07   1306.35      0.00      0.00      0.00 
    23.24     11.08   1306.35      0.02      0.00      0.00 
    23.25     11.07   1306.35      0.02      6.25      0.00 
    23.26     11.08   1300.10      0.04     -6.25      0.00 
    23.27     11.10   1306.35      0.04      0.00      0.00 
    23.28     11.09   1306.35      0.04      0.00      0.00 
    23.29     11.08   1306.35      0.02     -0.89      7.00 
    23.30     11.07   1307.25      0.00      0.89      0.00 
    23.31     11.07   1306.35      0.00      6.25      0.00 
    23.32     11.08   1300.10      0.00     -6.25      0.00 
    23.33     11.08   1306.35     -0.00     -0.89      0.00 
    23.34     11.09   1307.25      0.00      0.89      8.00 
    23.35     11.09   1306.35     -0.01      0.00      0.00 
    23.36     11.06   1306.35     -0.02      0.00      0.00 
    23.37     11.07   1300.10     -0.01      0.00      8.00 
    23.38     11.09   1306.35      0.01      0.00      0.00 
    23.39     11.10   1306.35      0.03     -0.89      0.00 
    23.40     11.11   1306.35      0.03      0.00      0.00 
    23.41     11.09   1307.25      0.01      0.89      8.00 
    23.42     11.10   1306.35      0.01      6.25      0.00 
    23.43     11.10   1300.10     -0.01     -7.14      0.00 
    23.44     11.09   1306.35     -0.02      0.00      0.00 
    23.45     11.11   1306.35      0.00     -0.89      0.00 
    23.46     11.09   1306.35     -0.00      0.00      7.00 
    23.47     11.08   1307.25     -0.01      0.89      0.00 
    23.48     11.08   1300.10      0.00      0.00      0.00 
    23.49     11.07   1306.35     -0.01      0.00      0.00 
    23.50     11.07   1306.35     -0.03     -0.89      0.00 
    23.51     11.09   1306.35     -0.01      0.00      7.00 
    23.52     11.09   1307.25     -0.01      0.89      8.00 
    23.53     11.10   1300.10     -0.02      0.00      0.00 
    23.54     11.11   1306.35     -0.01      0.00      0.00 
    23.55     11.11   1306.35      0.01      0.00      0.00 
    23.56     11.11   1306.35      0.01     -0.89      0.00 
    23.57     11.09   1307.25      0.01      1.79      8.00 
    23.58     11.10   1306.35      0.01      6.25      0.00 
    23.59     11.10   1300.10     -0.00     -6.25      0.00 
    23.60     11.09   1307.25      0.01      0.89      0.00 
    23.61     11.10   1306.35      0.01      0.00      0.00 
    23.62     11.08   1306.35      0.00     -0.89      0.00 
    23.63     11.07   1300.10      0.00      0.00      0.00 
    23.64     11.06   1306.35     -0.01      0.00      0.00 
    23.65     11.06   1306.35     -0.00     -0.89      0.00 
    23.66     11.07   1306.35     -0.01      0.00      0.00 
    23.67     11.07   1307.25     -0.00      0.89      0.00 
    23.68     11.10   1306.35      0.03      6.25      0.00 
    23.69     11.12   1300.10      0.04     -6.25      0.00 
    23.70     11.11   1306.35      0.04      0.00      0.00 
    23.71     11.11   1307.25      0.05      0.00      0.00 
    23.72     11.08   1306.35      0.01      0.00      0.00 
    23.73     11.05   1306.35     -0.01      6.25      0.00 
    23.74     11.07   1307.25     -0.00      0.00      0.00 
    23.75     11.06   1300.10     -0.01     -6.25      0.00 
    23.76     11.08   1306.35     -0.00      0.00      0.00 
    23.77     11.10   1307.25      0.02      0.89      0.00 
    23.78     11.08   1306.35     -0.00      6.25      0.00 
    23.79     11.09   1307.25      0.00      0.89      0.00 
    23.80     11.09   1300.10      0.01     -6.25      0.00 
    23.81     11.08   1307.25      0.01      0.00      0.00 
    23.82     11.08   1306.35      0.00      0.00      0.00 
    23.83     11.06   1307.25     -0.01      0.89      0.00 
    23.84     11.04   1300.10     -0.04      0.00      0.00 
    23.85     11.05   1307.25     -0.03      0.89      8.00 
    23.86     11.05   1306.35     -0.03     -0.89      0.00 
    23.87     11.05   1306.35     -0.05      0.00      0.00 
    23.88     11.04   1307.25     -0.06      7.14      0.00 
    23.89     11.02   1305.46     -0.08     -0.89      0.00 
    23.90     11.03   1300.10     -0.10     -7.14      0.00 
    23.91     11.06   1306.35     -0.03      0.00      0.00 
    23.92     11.07   1306.35     -0.03      0.00      0.00 
    23.93     11.09   1307.25     -0.00      7.14      0.00 
    23.94     11.09   1300.10      0.02     -7.14      0.00 
    23.95     11.09   1306.35      0.00      0.00      0.00 
    23.96     11.08   1307.25      0.00      0.89      0.00 
    23.97     11.08   1307.25      0.01      0.00      0.00 
    23.98     11.08   1306.35     -0.00      6.25      0.00 
    23.99     11.07   1300.10     -0.01     -7.14      0.00 
    24.00     11.10   1307.25      0.02      0.89      0.00 
    24.01     11.10   1306.35      0.03      0.00      7.00 
    24.02     11.09   1306.35      0.03     -0.89      0.00 
    24.03     11.10   1306.35      0.04      6.25      0.00 
    24.04     11.10   1307.25      0.02      0.89      0.00 
    24.05     11.08   1300.10      0.00     -6.25      0.00 
    24.06     11.11   1307.25      0.02      0.89      0.00 
    24.07     11.09   1306.35     -0.01     -0.89      0.00 
    24.08     11.06   1306.35     -0.03      6.25      0.00 
    24.09     11.06   1300.10     -0.03     -6.25      0.00 
    24.10     11.03   1306.35     -0.05     -0.89      0.00 
    24.11     11.03   1307.25     -0.05      0.89      0.00 
    24.12     11.04   1306.35     -0.01     -0.89      0.00 
    24.13     11.04   1306.35     -0.01      0.00      0.00 
    24.14     11.06   1300.10      0.00      0.00      0.00 
    24.15     11.06   1307.25      0.02      0.89      0.00 
    24.16     11.08   1306.35      0.01     -0.89      0.00 
    24.17     11.07   1306.35     -0.02      0.00      0.00 
    24.18     11.06   1307.25     -0.03      0.89      0.00 
    24.19     11.06   1306.35     -0.03      6.25      0.00 
    24.20     11.04   1300.10     -0.07     -6.25      0.00 
    24.21     11.05   1307.25     -0.04      0.00      0.00 
    24.22     11.04   1306.35     -0.03      0.00      7.00 
    24.23     11.05   1306.35     -0.03      0.00      0.00 
    24.24     11.03   1300.10     -0.03     -6.25      8.00 
    24.25     11.04   1306.35     -0.03      6.25      0.00 
    24.26     11.05   1307.25     -0.05      0.89      0.00 
    24.27     11.06   1307.25     -0.02      0.89      0.00 
    24.28     11.08   1300.10      0.00     -6.25      7.00 
    24.29     11.10   1306.35      0.03     -0.89      0.00 
    24.30     11.12   1307.25      0.05      0.89      0.00 
