#Written by Robertson Geologging WinLogger V1.0/406
~VERSION INFORMATION
#------------------------------------------------------------------------------
 VERS. 2.0 : CWLS LOG ASCII STANDARD - VERSION 2.0
 WRAP. NO  : ONE LINE PER DEPTH STEP
~WELL INFORMATION
#MNEM.UNIT         DATA                                DESCRIPTION OF MNEMONIC
#------------------------------------------------------------------------------
 STRT.M         15.0700                            :   START DEPTH
 STOP.M        131.0000                            :   STOP DEPTH
 STEP.M          0.0100                            :   STEP VALUE
 NULL.        -999.2500                            :   NULL VALUE
 COMP.    Coal Authority                           :   COMPANY NAME
 WELL.    Chatershaugh                             :   WELL NAME
 FLD.     N/A                                      :   FIELD NAME
 LOC.     N/A                                      :   LOCATION
 PROV.    N/A                                      :   PROVINCE
 SRVC.    N/A                                      :   SERVICE COMPANY NAME
 DATE.    01 Oct 08                                :   DATE
 UWI.     N/A                                      :   UNIQUE WELL IDENTIFIER
~PARAMETER INFORMATION
#MNEMO.UNIT         VALUE                 DESCRIPTION OF MNEMONIC
#------------------------------------------------------------------------------
~OTHER INFORMATION SECTION
#------------------------------------------------------------------------------
 TCGS2822
~CURVE INFORMATION
#MNEMO.UNIT         API CODE              CURVE DESCRIPTION
#------------------------------------------------------------------------------
 DEPTH.M                                 :   0     Depth
 TEMP.DegC                               :   1     Temperature
 COND.uS/cm                              :   2     Conductivity
 DELT.DegC                               :   3     Delta T
 DELC.uS/cm                              :   4     Delta C
 NGAM.CPS                                :   5     Natural Gamma
#------------------------------------------------------------------------------
~A  DEPTH     TEMP      COND      DELT      DELC      NGAM      
# ...
    53.35     12.03   2672.03      0.11    115.50      0.00 
    53.36     12.01   2678.35      0.10    115.51      7.00 
    53.37     11.99   2676.55      0.10    107.39      0.00 
    53.38     11.99   2678.35      0.06    109.20      0.00 
    53.39     11.99   2684.67      0.06    115.52      0.00 
    53.40     12.03   2684.67      0.10    115.52      0.00 
    53.41     12.04   2684.67      0.10    109.20      0.00 
    53.42     12.03   2684.67      0.11    109.20      0.00 
    53.43     12.02   2684.67      0.10    102.89      0.00 
    53.44     12.01   2684.67      0.10    109.20      0.00 
    53.45     12.02   2691.89      0.11    110.11      0.00 
    53.46     12.02   2684.67      0.12     96.57      0.00 
    53.47     12.03   2684.67      0.13     96.57      0.00 
    53.48     12.03   2691.89      0.11    103.79      0.00 
    53.49     12.02   2684.67      0.10     91.16      0.00 
    53.50     12.03   2691.89      0.10     97.48      0.00 
    53.51     12.03   2691.89      0.10     90.26      0.00 
    53.52     12.02   2698.22      0.10    103.80      0.00 
    53.53     12.02   2698.22      0.07    103.80      0.00 
    53.54     12.02   2698.22      0.07     96.58      0.00 
    53.55     11.99   2704.54      0.04    110.12      0.00 
    53.56     11.98   2704.54      0.02    102.90      0.00 
    53.57     12.00   2704.54      0.06    102.90      0.00 
    53.58     11.99   2704.54      0.04    102.90      0.00 
    53.59     12.00   2704.54      0.05    102.90      0.00 
    53.60     12.01   2704.54      0.05    102.90      0.00 
    53.61     11.99   2704.54      0.04     96.59      7.00 
    53.62     12.00   2704.54      0.05     90.27      0.00 
    53.63     12.01   2704.54      0.07     90.27      7.00 
    53.64     12.01   2704.54      0.06     80.34      0.00 
    53.65     12.04   2704.54      0.08     83.95      0.00 
    53.66     12.05   2704.54      0.11     77.64      0.00 
    53.67     12.05   2704.54      0.11     77.64      0.00 
    53.68     12.05   2704.54      0.09     77.64      0.00 
    53.69     12.04   2704.54      0.09     77.64      0.00 
    53.70     12.04   2710.86      0.08     77.64      0.00 
    53.71     12.02   2704.54      0.04     77.64      0.00 
    53.72     12.00   2710.86      0.05     83.96      0.00 
    53.73     12.00   2710.86      0.03     83.96      0.00 
    53.74     12.00   2710.86      0.02     83.96      0.00 
    53.75     12.02   2714.47      0.06     90.28      8.00 
    53.76     12.03   2710.86      0.08     83.96      0.00 
    53.77     12.05   2710.86      0.11     83.96      0.00 
    53.78     12.04   2717.18      0.11     90.28      0.00 
    53.79     12.04   2717.18      0.11     85.77      0.00 
    53.80     12.03   2717.18      0.09     90.28      0.00 
    53.81     12.01   2717.18      0.06     83.96      7.00 
    53.82     12.01   2717.18      0.06     83.96      0.00 
    53.83     12.02   2723.50      0.06     90.28      0.00 
    53.84     12.04   2721.69      0.09     90.28      8.00 
    53.85     12.04   2710.86      0.08     71.32      0.00 
    53.86     12.06   2723.50      0.07     83.97      0.00 
    53.87     12.03   2717.18      0.04     77.64      0.00 
    53.88     12.03   2723.50      0.03     83.97      0.00 
    53.89     12.01   2723.50      0.04     76.74      7.00 
    53.90     12.00   2721.69      0.06     82.16      0.00 
    53.91     12.03   2729.82      0.09     90.29      0.00 
    53.92     12.03   2729.82      0.08     83.07      0.00 
    53.93     12.05   2729.82      0.09     83.07      0.00 
    53.94     12.06   2729.82      0.09     91.19      0.00 
    53.95     12.04   2737.05      0.05     90.29      0.00 
    53.96     12.04   2728.92      0.04     82.16      0.00 
    53.97     12.03   2743.37      0.02     96.62      7.00 
    53.98     12.02   2737.05      0.01     90.29      0.00 
    53.99     12.02   2743.37      0.02     96.62      0.00 
    54.00     12.02   2751.50      0.03     98.43      0.00 
    54.01     12.03   2756.02      0.06    109.26      0.00 
    54.02     12.03   2756.02      0.05    109.26      0.00 
    54.03     12.04   2762.34      0.06    109.27      0.00 
    54.04     12.03   2762.34      0.04    115.59      0.00 
    54.05     12.02   2768.67      0.04    115.59      0.00 
    54.06     12.04   2768.67      0.05    115.59      0.00 
    54.07     12.03   2768.67      0.05    114.69      0.00 
    54.08     12.06   2766.86      0.07    107.47      0.00 
    54.09     12.07   2768.67      0.06    109.27      7.00 
    54.10     12.07   2768.67      0.06    109.27      0.00 
    54.11     12.05   2768.67      0.04    102.95      0.00 
    54.12     12.05   2768.67      0.03    107.47      0.00 
    54.13     12.05   2766.86      0.02    101.15      0.00 
    54.14     12.04   2774.99      0.03    109.28      0.00 
    54.15     12.05   2782.22      0.04    116.51      0.00 
    54.16     12.05   2788.54      0.05    129.15      0.00 
    54.17     12.06   2794.87      0.08    129.16      7.00 
    54.18     12.04   2794.87      0.04    135.48      0.00 
    54.19     12.05   2807.52      0.04    148.13      0.00 
    54.20     12.05   2807.52      0.03    148.13      0.00 
    54.21     12.05   2820.18      0.03    158.98      0.00 
    54.22     12.06   2820.18      0.04    154.46      0.00 
    54.23     12.04   2820.18      0.02    160.78      0.00 
    54.24     12.04   2813.85      0.01    148.14      0.00 
    54.25     12.03   2827.41     -0.00    161.69      0.00 
    54.26     12.05   2820.18      0.05    154.46      0.00 
    54.27     12.04   2833.73      0.04    161.70      0.00 
    54.28     12.07   2834.64      0.09    162.61      0.00 
    54.29     12.09   2833.73      0.12    161.70      0.00 
    54.30     12.07   2840.06      0.08    168.03      0.00 
    54.31     12.08   2846.39      0.08    174.36      0.00 
    54.32     12.06   2852.72      0.05    174.37      0.00 
    54.33     12.03   2852.72      0.00    180.69      0.00 
    54.34     12.03   2859.05      0.00    187.02      0.00 
    54.35     12.02   2859.05      0.01    180.70      0.00 
    54.36     12.01   2857.24      0.02    180.69      0.00 
    54.37     12.04   2859.05      0.05    180.70      0.00 
    54.38     12.04   2859.05      0.05    174.38      0.00 
    54.39     12.04   2865.38      0.02    180.70      0.00 
    54.40     12.04   2872.61      0.00    187.94      0.00 
    54.41     12.04   2872.61      0.00    187.94      0.00 
    54.42     12.05   2878.94      0.03    194.27      7.00 
    54.43     12.05   2891.60      0.04    206.93      7.00 
    54.44     12.05   2891.60      0.03    199.70      7.00 
    54.45     12.05   2897.93      0.03    213.26      0.00 
    54.46     12.05   2904.26      0.01    219.59      0.00 
    54.47     12.06   2897.93      0.03    206.04      0.00 
    54.48     12.08   2904.26      0.06    219.59      0.00 
    54.49     12.07   2897.93      0.05    206.04      0.00 
    54.50     12.09   2904.26      0.06    212.37      7.00 
    54.51     12.09   2897.93      0.07    199.71      0.00 
    54.52     12.08   2895.22      0.07    197.00      0.00 
    54.53     12.10   2897.93      0.08    199.71      0.00 
    54.54     12.11   2897.93      0.12    193.39      7.00 
    54.55     12.10   2904.26      0.11    199.72      0.00 
    54.56     12.11   2897.93      0.11    193.39      0.00 
    54.57     12.09   2904.26      0.10    199.72      7.00 
    54.58     12.08   2904.26      0.08    199.72      0.00 
    54.59     12.09   2910.59      0.09    206.06      0.00 
    54.60     12.08   2917.83      0.10    213.29      7.00 
    54.61     12.08   2917.83      0.09    213.29      0.00 
    54.62     12.07   2917.83      0.06    213.29      0.00 
    54.63     12.06   2930.49      0.05    225.96      0.00 
    54.64     12.07   2924.16      0.03    219.62      0.00 
    54.65     12.08   2930.49      0.03    225.96      0.00 
    54.66     12.10   2936.83      0.04    232.29      0.00 
