#Written by Robertson Geologging WinLogger V1.0/406
~VERSION INFORMATION
#------------------------------------------------------------------------------
 VERS. 2.0 : CWLS LOG ASCII STANDARD - VERSION 2.0
 WRAP. NO  : ONE LINE PER DEPTH STEP
~WELL INFORMATION
#MNEM.UNIT         DATA                                DESCRIPTION OF MNEMONIC
#------------------------------------------------------------------------------
 STRT.M         15.0700                            :   START DEPTH
 STOP.M        131.0000                            :   STOP DEPTH
 STEP.M          0.0100                            :   STEP VALUE
 NULL.        -999.2500                            :   NULL VALUE
 COMP.    Coal Authority                           :   COMPANY NAME
 WELL.    Chatershaugh                             :   WELL NAME
 FLD.     N/A                                      :   FIELD NAME
 LOC.     N/A                                      :   LOCATION
 PROV.    N/A                                      :   PROVINCE
 SRVC.    N/A                                      :   SERVICE COMPANY NAME
 DATE.    01 Oct 08                                :   DATE
 UWI.     N/A                                      :   UNIQUE WELL IDENTIFIER
~PARAMETER INFORMATION
#MNEMO.UNIT         VALUE                 DESCRIPTION OF MNEMONIC
#------------------------------------------------------------------------------
~OTHER INFORMATION SECTION
#------------------------------------------------------------------------------
 TCGS2822
~CURVE INFORMATION
#MNEMO.UNIT         API CODE              CURVE DESCRIPTION
#------------------------------------------------------------------------------
 DEPTH.M                                 :   0     Depth
 TEMP.DegC                               :   1     Temperature
 COND.uS/cm                              :   2     Conductivity
 DELT.DegC                               :   3     Delta T
 DELC.uS/cm                              :   4     Delta C
 NGAM.CPS                                :   5     Natural Gamma
#------------------------------------------------------------------------------
~A  DEPTH     TEMP      COND      DELT      DELC      NGAM      
# ...
   114.07     12.64   3169.54     -0.03     18.13      0.00 
   114.08     12.65   3158.66      0.00    -10.88      0.00 
   114.09     12.66   3169.54      0.00     10.88      7.00 
   114.10     12.67   3163.20      0.01      0.00      7.00 
   114.11     12.70   3166.82      0.04     -2.72      0.00 
   114.12     12.71   3163.20      0.04      4.53      0.00 
   114.13     12.69   3163.20      0.03     -6.34      0.00 
   114.14     12.68   3163.20      0.02      4.53      0.00 
   114.15     12.67   3166.82      0.03      3.63      0.00 
   114.16     12.67   3163.20      0.02     -6.34      0.00 
   114.17     12.69   3169.54      0.04     10.88      0.00 
   114.18     12.69   3158.66      0.04    -10.88      0.00 
   114.19     12.69   3163.20      0.03      0.00      7.00 
   114.20     12.68   3169.54      0.01     10.88      7.00 
   114.21     12.67   3163.20     -0.00     -6.34      7.00 
   114.22     12.67   3166.82     -0.00      3.63      0.00 
   114.23     12.67   3163.20      0.00     -3.63      0.00 
   114.24     12.67   3163.20      0.00      0.00      0.00 
   114.25     12.67   3166.82      0.00      3.63      0.00 
   114.26     12.68   3163.20      0.01     -3.63     14.00 
   114.27     12.67   3166.82      0.00      3.63      0.00 
   114.28     12.67   3163.20      0.01      0.00      7.00 
   114.29     12.67   3163.20      0.00      0.00      0.00 
   114.30     12.66   3166.82     -0.00      0.00      0.00 
   114.31     12.67   3163.20      0.00      0.00      0.00 
   114.32     12.67   3169.54     -0.00      6.34      0.00 
   114.33     12.68   3163.20      0.02     -3.63      0.00 
   114.34     12.69   3166.82      0.01      3.63      0.00 
   114.35     12.68   3163.20     -0.01     -6.34      0.00 
   114.36     12.67   3169.54     -0.00     10.88      7.00 
   114.37     12.68   3158.66     -0.00     -4.53      8.00 
   114.38     12.68   3163.20      0.01     -6.34      7.00 
   114.39     12.67   3166.82      0.00      8.16      0.00 
   114.40     12.67   3163.20     -0.01     -6.34      0.00 
   114.41     12.67   3163.20     -0.00      0.00      0.00 
   114.42     12.67   3166.82     -0.00      3.63      8.00 
   114.43     12.67   3163.20     -0.00      0.00      0.00 
   114.44     12.68   3166.82      0.00      0.00      8.00 
   114.45     12.67   3163.20      0.00      0.00      0.00 
   114.46     12.67   3163.20      0.00      0.00      0.00 
   114.47     12.68   3158.66      0.03     -8.16      0.00 
   114.48     12.68   3163.20      0.02      0.00      0.00 
   114.49     12.67   3169.54      0.00      0.00      0.00 
   114.50     12.67   3158.66      0.01      0.00      0.00 
   114.51     12.65   3169.54      0.00      0.00      7.00 
   114.52     12.65   3158.66      0.00      0.00      0.00 
   114.53     12.66   3169.54      0.01      6.34      7.00 
   114.54     12.65   3163.20     -0.00     -3.63      0.00 
   114.55     12.68   3163.20      0.01      0.00      7.00 
   114.56     12.67   3166.82     -0.00     -2.72      0.00 
   114.57     12.68   3163.20      0.01      4.53      7.00 
   114.58     12.70   3163.20      0.04     -6.34      0.00 
   114.59     12.68   3163.20      0.02      4.53      0.00 
   114.60     12.68   3169.54      0.02      0.00      0.00 
   114.61     12.67   3158.66      0.02     -4.53      0.00 
   114.62     12.66   3169.54     -0.00      2.72      0.00 
   114.63     12.66   3163.20     -0.01      0.00      0.00 
   114.64     12.69   3158.66      0.03     -8.16      0.00 
   114.65     12.69   3169.54      0.02      6.34      0.00 
   114.66     12.70   3163.20      0.03      0.00      0.00 
   114.67     12.70   3166.82      0.02      0.00      0.00 
   114.68     12.68   3163.20     -0.02      0.00      0.00 
   114.69     12.68   3163.20     -0.03      0.00      0.00 
   114.70     12.67   3166.82     -0.04      3.63      0.00 
   114.71     12.64   3163.20     -0.07     -3.63      0.00 
   114.72     12.64   3166.82     -0.03      3.63      0.00 
   114.73     12.63   3163.20     -0.03     -6.34      0.00 
   114.74     12.65   3166.82     -0.01      3.63      0.00 
   114.75     12.67   3163.20      0.02     -3.63      0.00 
   114.76     12.66   3169.54      0.01      6.34      0.00 
   114.77     12.68   3163.20      0.02      0.00      7.00 
   114.78     12.66   3158.66     -0.01     -8.16      0.00 
   114.79     12.64   3169.54     -0.00      6.34      0.00 
   114.80     12.67   3163.20      0.00      0.00      0.00 
   114.81     12.65   3166.82     -0.02      0.00      0.00 
   114.82     12.65   3163.20      0.00      0.00      7.00 
   114.83     12.66   3166.82      0.00      3.63      0.00 
   114.84     12.64   3163.20     -0.01     -3.63      7.00 
   114.85     12.66   3166.82      0.00      3.63      0.00 
   114.86     12.64   3163.20     -0.04      0.00      0.00 
   114.87     12.65   3166.82     -0.03     -2.72      0.00 
   114.88     12.67   3163.20     -0.00      0.00      0.00 
   114.89     12.67   3163.20     -0.00     -3.63      0.00 
   114.90     12.69   3166.82      0.03      3.63      0.00 
   114.91     12.68   3163.20      0.01      0.00      7.00 
   114.92     12.69   3166.82      0.02      3.63      0.00 
   114.93     12.67   3163.20      0.02      0.00      0.00 
   114.94     12.68   3163.20      0.03     -3.63      0.00 
   114.95     12.69   3166.82      0.03      3.63      8.00 
   114.96     12.68   3163.20      0.02     -3.63      0.00 
   114.97     12.68   3169.54      0.03      6.34     14.00 
   114.98     12.68   3163.20      0.03      0.00      0.00 
   114.99     12.69   3166.82      0.05      0.00      0.00 
   115.00     12.70   3163.20      0.06      0.00      0.00 
   115.01     12.72   3169.54      0.07      2.72      7.00 
   115.02     12.71   3158.66      0.04     -4.53      0.00 
   115.03     12.69   3163.20      0.04      0.00      7.00 
   115.04     12.68   3163.20      0.01     -3.63      0.00 
   115.05     12.68   3166.82      0.01      3.63      0.00 
   115.06     12.67   3163.20      0.03     -6.34      0.00 
   115.07     12.69   3169.54      0.03     10.88      0.00 
   115.08     12.67   3158.66      0.01    -10.88      0.00 
   115.09     12.65   3163.20     -0.02      0.00      7.00 
   115.10     12.65   3169.54     -0.05      2.72      0.00 
   115.11     12.63   3166.82     -0.08      3.63      0.00 
   115.12     12.64   3163.20     -0.05      0.00      0.00 
   115.13     12.65   3163.20     -0.03      0.00      7.00 
   115.14     12.64   3166.82     -0.03      0.00      0.00 
   115.15     12.66   3163.20     -0.01      0.00      7.00 
   115.16     12.65   3163.20     -0.04     -6.34      0.00 
   115.17     12.66   3166.82     -0.03      8.16      0.00 
   115.18     12.66   3169.54     -0.03      6.34      7.00 
   115.19     12.66   3163.20     -0.02     -6.34      0.00 
   115.20     12.68   3163.20      0.01      0.00      0.00 
   115.21     12.66   3163.20     -0.00     -3.63      0.00 
   115.22     12.69   3166.82      0.02      3.63      0.00 
   115.23     12.69   3163.20      0.01      0.00      0.00 
   115.24     12.67   3163.20      0.00     -3.63      0.00 
   115.25     12.69   3169.54      0.00      6.34      0.00 
   115.26     12.66   3163.20     -0.00     -3.63      0.00 
   115.27     12.65   3166.82     -0.02      3.63      0.00 
   115.28     12.66   3163.20     -0.01      0.00      7.00 
   115.29     12.64   3163.20     -0.01     -3.63      7.00 
   115.30     12.64   3166.82     -0.02      3.63      8.00 
   115.31     12.65   3163.20     -0.02     -6.34      0.00 
   115.32     12.64   3169.54     -0.04      6.34      0.00 
   115.33     12.66   3158.66     -0.02     -8.16      0.00 
   115.34     12.67   3169.54     -0.01      6.34      0.00 
   115.35     12.67   3163.20      0.00     -6.34     14.00 
   115.36     12.67   3166.82     -0.01      8.16      0.00 
   115.37     12.66   3163.20     -0.02      0.00      0.00 
   115.38     12.65   3163.20     -0.02     -3.63      0.00 
