#Written by Robertson Geologging WinLogger V1.0/406
~VERSION INFORMATION
#------------------------------------------------------------------------------
 VERS. 2.0 : CWLS LOG ASCII STANDARD - VERSION 2.0
 WRAP. NO  : ONE LINE PER DEPTH STEP
~WELL INFORMATION
#MNEM.UNIT         DATA                                DESCRIPTION OF MNEMONIC
#------------------------------------------------------------------------------
 STRT.M         71.1200                            :   START DEPTH
 STOP.M        471.0000                            :   STOP DEPTH
 STEP.M          0.0100                            :   STEP VALUE
 NULL.        -999.2500                            :   NULL VALUE
 COMP.    Coal Authority                           :   COMPANY NAME
 WELL.    EasingtonShaft                           :   WELL NAME
 FLD.     Easington                                :   FIELD NAME
 LOC.     N/A                                      :   LOCATION
 PROV.    N/A                                      :   PROVINCE
 SRVC.    N/A                                      :   SERVICE COMPANY NAME
 DATE.    27 Aug 08                                :   DATE
 UWI.     N/A                                      :   UNIQUE WELL IDENTIFIER
~PARAMETER INFORMATION
#MNEMO.UNIT         VALUE                 DESCRIPTION OF MNEMONIC
#------------------------------------------------------------------------------
~OTHER INFORMATION SECTION
#------------------------------------------------------------------------------
 TCGS 1365
~CURVE INFORMATION
#MNEMO.UNIT         API CODE              CURVE DESCRIPTION
#------------------------------------------------------------------------------
 DEPTH.M                                 :   0     Depth
 TEMP.DegC                               :   1     Temperature
 CN25.uS/cm                              :   2     Conductivity@25DegC
 DELT.DegC                               :   3     Delta T
 DELC.uS/cm                              :   4     Delta C
 NGAM.CPS                                :   5     Natural Gamma
 COND.uS/cm                              :   6     Conductivity
#------------------------------------------------------------------------------
~A  DEPTH     TEMP      CN25      DELT      DELC      NGAM      COND      
# ...
   204.46     14.20     12.86      0.14      0.27      0.00      6.88 
   204.47     14.20     12.86      0.14      0.25      0.00      6.88 
   204.48     14.20     12.87      0.13      0.26      0.00      6.88 
   204.49     14.19     12.89      0.12      0.28      0.00      6.88 
   204.50     14.20     12.87      0.13      0.26     14.00      6.88 
   204.51     14.20     12.87      0.13      0.23      0.00      6.88 
   204.52     14.20     12.87      0.12      0.27      0.00      6.88 
   204.53     14.20     12.91      0.12      0.27      0.00      6.91 
   204.54     14.20     12.90      0.13      0.30      0.00      6.91 
   204.55     14.20     12.90      0.13      0.26      0.00      6.91 
   204.56     14.21     12.89      0.14      0.24      0.00      6.91 
   204.57     14.21     12.86      0.14      0.21      0.00      6.88 
   204.58     14.21     12.93      0.14      0.29      0.00      6.94 
   204.59     14.21     12.89      0.13      0.22      0.00      6.91 
   204.60     14.21     12.89      0.12      0.27      0.00      6.91 
   204.61     14.21     12.95      0.12      0.29      8.00      6.96 
   204.62     14.23     12.87      0.14      0.24      0.00      6.91 
   204.63     14.24     12.89      0.14      0.24      7.00      6.94 
   204.64     14.24     12.89      0.15      0.26      0.00      6.94 
   204.65     14.24     12.87      0.15      0.20      0.00      6.92 
   204.66     14.23     12.94      0.14      0.27      0.00      6.97 
   204.67     14.23     12.91      0.14      0.25      0.00      6.94 
   204.68     14.24     12.89      0.14      0.20      0.00      6.94 
   204.69     14.23     12.94      0.14      0.29      0.00      6.97 
   204.70     14.22     12.93      0.12      0.29      8.00      6.96 
   204.71     14.23     12.94      0.13      0.25      7.00      6.97 
   204.72     14.22     12.92      0.11      0.29      0.00      6.94 
   204.73     14.22     12.95      0.12      0.27      0.00      6.97 
   204.74     14.23     12.98      0.13      0.29      0.00      7.00 
   204.75     14.23     12.92      0.14      0.23      0.00      6.96 
   204.76     14.24     12.96      0.15      0.26      0.00      7.00 
   204.77     14.25     12.92      0.15      0.23      0.00      6.97 
   204.78     14.25     12.96      0.14      0.28      0.00      7.00 
   204.79     14.24     12.93      0.12      0.26      0.00      6.97 
   204.80     14.24     12.96      0.13      0.25      0.00      7.00 
   204.81     14.24     12.96      0.14      0.28      0.00      7.00 
   204.82     14.25     12.95      0.14      0.23      0.00      7.00 
   204.83     14.25     12.95      0.14      0.24      0.00      7.00 
   204.84     14.26     12.98      0.14      0.31      0.00      7.03 
   204.85     14.26     12.94      0.14      0.23      0.00      7.00 
   204.86     14.25     12.98      0.14      0.28      0.00      7.02 
   204.87     14.26     12.98      0.14      0.27      0.00      7.03 
   204.88     14.26     12.98      0.14      0.22      0.00      7.03 
   204.89     14.26     12.98      0.15      0.26      7.00      7.03 
   204.90     14.26     12.98      0.15      0.26      0.00      7.03 
   204.91     14.26     12.98      0.14      0.24      0.00      7.03 
   204.92     14.25     12.99      0.13      0.25      0.00      7.03 
   204.93     14.25     13.03      0.14      0.32      0.00      7.06 
   204.94     14.26     12.98      0.14      0.24      0.00      7.03 
   204.95     14.27     13.01      0.14      0.28      7.00      7.06 
   204.96     14.26     13.02      0.13      0.30      0.00      7.06 
   204.97     14.26     13.02      0.13      0.29      0.00      7.06 
   204.98     14.26     13.02      0.13      0.29      8.00      7.06 
   204.99     14.26     13.02      0.13      0.30     14.00      7.06 
   205.00     14.27     13.01      0.13      0.26      0.00      7.06 
   205.01     14.25     13.07      0.11      0.35      0.00      7.09 
   205.02     14.26     13.02      0.11      0.29      0.00      7.06 
   205.03     14.26     13.05      0.13      0.30      7.00      7.09 
   205.04     14.26     13.05      0.13      0.33      0.00      7.09 
   205.05     14.27     13.05      0.14      0.29      0.00      7.09 
   205.06     14.27     13.05      0.14      0.29      0.00      7.09 
   205.07     14.27     13.05      0.14      0.27      0.00      7.09 
   205.08     14.27     13.04      0.13      0.29      7.00      7.09 
   205.09     14.28     13.07      0.12      0.30      0.00      7.12 
   205.10     14.27     13.05      0.11      0.32      0.00      7.09 
   205.11     14.28     13.07      0.11      0.32      0.00      7.12 
   205.12     14.27     13.08      0.11      0.36      0.00      7.12 
   205.13     14.27     13.04      0.12      0.27     14.00      7.09 
   205.14     14.28     13.11      0.13      0.34      0.00      7.15 
   205.15     14.28     13.07      0.13      0.30      0.00      7.12 
   205.16     14.27     13.08      0.13      0.30      0.00      7.12 
   205.17     14.28     13.07      0.13      0.30      7.00      7.12 
   205.18     14.28     13.13      0.14      0.31      0.00      7.16 
   205.19     14.29     13.06      0.14      0.27      0.00      7.12 
   205.20     14.30     13.09      0.13      0.29      0.00      7.15 
   205.21     14.29     13.09      0.12      0.34      7.00      7.15 
   205.22     14.30     13.09      0.12      0.31      0.00      7.15 
   205.23     14.28     13.10      0.11      0.32      0.00      7.15 
   205.24     14.28     13.10      0.12      0.31      0.00      7.15 
   205.25     14.29     13.14      0.13      0.34     14.00      7.18 
   205.26     14.29     13.09      0.13      0.30      0.00      7.15 
   205.27     14.29     13.12      0.12      0.29      0.00      7.16 
   205.28     14.30     13.12      0.12      0.34      0.00      7.18 
   205.29     14.30     13.12      0.11      0.32      0.00      7.18 
   205.30     14.29     13.13      0.11      0.32      0.00      7.18 
   205.31     14.30     13.12      0.12      0.30      0.00      7.18 
   205.32     14.30     13.16      0.12      0.34      0.00      7.21 
   205.33     14.30     13.12      0.14      0.29      0.00      7.18 
   205.34     14.30     13.12      0.14      0.28      0.00      7.18 
   205.35     14.30     13.16      0.13      0.33      0.00      7.21 
   205.36     14.30     13.16      0.13      0.29      0.00      7.21 
   205.37     14.30     13.15      0.11      0.31      7.00      7.21 
   205.38     14.30     13.15      0.11      0.32      0.00      7.21 
   205.39     14.31     13.14      0.11      0.31      0.00      7.20 
   205.40     14.31     13.15      0.11      0.32      7.00      7.21 
   205.41     14.30     13.15      0.11      0.32      0.00      7.21 
   205.42     14.30     13.20      0.10      0.36      0.00      7.23 
   205.43     14.29     13.17      0.09      0.29      7.00      7.21 
   205.44     14.30     13.20      0.08      0.38      7.00      7.23 
   205.45     14.31     13.19      0.10      0.32      0.00      7.23 
   205.46     14.32     13.17      0.12      0.30      7.00      7.23 
   205.47     14.33     13.15      0.13      0.28      0.00      7.23 
   205.48     14.34     13.15      0.14      0.26      0.00      7.23 
   205.49     14.34     13.14      0.14      0.27      7.00      7.23 
   205.50     14.34     13.14      0.14      0.27      0.00      7.23 
   205.51     14.33     13.20      0.13      0.32      0.00      7.27 
   205.52     14.33     13.16      0.13      0.25      0.00      7.23 
   205.53     14.32     13.21      0.12      0.31      0.00      7.27 
   205.54     14.33     13.20      0.12      0.30      0.00      7.27 
   205.55     14.34     13.19      0.13      0.30      7.00      7.27 
   205.56     14.34     13.19      0.12      0.34      0.00      7.27 
   205.57     14.34     13.18      0.14      0.25      7.00      7.27 
   205.58     14.33     13.20      0.12      0.30      0.00      7.27 
