#Written by Robertson Geologging WinLogger V1.0/406
~VERSION INFORMATION
#------------------------------------------------------------------------------
 VERS. 2.0 : CWLS LOG ASCII STANDARD - VERSION 2.0
 WRAP. NO  : ONE LINE PER DEPTH STEP
~WELL INFORMATION
#MNEM.UNIT         DATA                                DESCRIPTION OF MNEMONIC
#------------------------------------------------------------------------------
 STRT.M         71.1200                            :   START DEPTH
 STOP.M        471.0000                            :   STOP DEPTH
 STEP.M          0.0100                            :   STEP VALUE
 NULL.        -999.2500                            :   NULL VALUE
 COMP.    Coal Authority                           :   COMPANY NAME
 WELL.    EasingtonShaft                           :   WELL NAME
 FLD.     Easington                                :   FIELD NAME
 LOC.     N/A                                      :   LOCATION
 PROV.    N/A                                      :   PROVINCE
 SRVC.    N/A                                      :   SERVICE COMPANY NAME
 DATE.    27 Aug 08                                :   DATE
 UWI.     N/A                                      :   UNIQUE WELL IDENTIFIER
~PARAMETER INFORMATION
#MNEMO.UNIT         VALUE                 DESCRIPTION OF MNEMONIC
#------------------------------------------------------------------------------
~OTHER INFORMATION SECTION
#------------------------------------------------------------------------------
 TCGS 1365
~CURVE INFORMATION
#MNEMO.UNIT         API CODE              CURVE DESCRIPTION
#------------------------------------------------------------------------------
 DEPTH.M                                 :   0     Depth
 TEMP.DegC                               :   1     Temperature
 CN25.uS/cm                              :   2     Conductivity@25DegC
 DELT.DegC                               :   3     Delta T
 DELC.uS/cm                              :   4     Delta C
 NGAM.CPS                                :   5     Natural Gamma
 COND.uS/cm                              :   6     Conductivity
#------------------------------------------------------------------------------
~A  DEPTH     TEMP      CN25      DELT      DELC      NGAM      COND      
# ...
   283.56     17.44     73.87     -0.02      0.06      0.00     62.22 
   283.57     17.44     73.87      0.00     -0.03     16.00     62.23 
   283.58     17.46     73.82      0.02     -0.06      0.00     62.22 
   283.59     17.47     73.79      0.03     -0.08      0.00     62.22 
   283.60     17.46     73.85      0.02     -0.01      0.00     62.26 
   283.61     17.46     73.82      0.00      0.00      0.00     62.22 
   283.62     17.44     73.87     -0.01     -0.00      7.00     62.22 
   283.63     17.43     73.89     -0.02      0.11      7.00     62.22 
   283.64     17.43     73.93     -0.03      0.08      0.00     62.26 
   283.65     17.42     73.93     -0.03      0.08      0.00     62.22 
   283.66     17.44     73.89     -0.02      0.07      0.00     62.23 
   283.67     17.45     73.84     -0.00      0.01     14.00     62.22 
   283.68     17.45     73.84      0.00     -0.01      0.00     62.22 
   283.69     17.47     73.82      0.02     -0.06      7.00     62.26 
   283.70     17.47     73.78      0.02     -0.03      0.00     62.22 
   283.71     17.46     73.82      0.00     -0.01      0.00     62.22 
   283.72     17.46     73.85      0.00      0.03      0.00     62.26 
   283.73     17.46     73.80      0.01     -0.04      0.00     62.22 
   283.74     17.47     73.79      0.00     -0.01      7.00     62.22 
   283.75     17.46     73.82      0.00      0.00      8.00     62.23 
   283.76     17.46     73.80      0.00      0.00      7.00     62.22 
   283.77     17.46     73.85      0.00      0.04      7.00     62.26 
   283.78     17.45     73.83     -0.00      0.00      0.00     62.22 
   283.79     17.46     73.82      0.00     -0.06      7.00     62.22 
   283.80     17.45     73.89     -0.01      0.07      7.00     62.26 
   283.81     17.45     73.80     -0.00     -0.03      7.00     62.19 
   283.82     17.44     73.87     -0.01      0.04      0.00     62.23 
   283.83     17.45     73.83      0.00     -0.01      0.00     62.22 
   283.84     17.46     73.86      0.00      0.03      0.00     62.26 
   283.85     17.46     73.82      0.00     -0.01      7.00     62.22 
   283.86     17.45     73.83      0.00     -0.04      0.00     62.22 
   283.87     17.44     73.86     -0.02      0.07      0.00     62.22 
   283.88     17.44     73.87     -0.01      0.05      0.00     62.23 
   283.89     17.45     73.89     -0.02      0.10      0.00     62.26 
   283.90     17.45     73.84     -0.02      0.06      0.00     62.22 
   283.91     17.45     73.83     -0.00     -0.03      0.00     62.22 
   283.92     17.44     73.92     -0.02      0.11      0.00     62.26 
   283.93     17.44     73.87     -0.01      0.05      0.00     62.23 
   283.94     17.45     73.83      0.01     -0.03      7.00     62.22 
   283.95     17.45     73.83      0.01     -0.03      0.00     62.22 
   283.96     17.46     73.86      0.02     -0.06      0.00     62.26 
   283.97     17.45     73.84      0.00     -0.01      0.00     62.22 
   283.98     17.45     73.84      0.00      0.00      7.00     62.22 
   283.99     17.45     73.88      0.00      0.03      0.00     62.26 
   284.00     17.46     73.82      0.02     -0.06      0.00     62.22 
   284.01     17.46     73.82      0.02     -0.07      0.00     62.22 
   284.02     17.46     73.82      0.02     -0.10      0.00     62.23 
   284.03     17.47     73.82      0.02     -0.02      0.00     62.26 
   284.04     17.47     73.78      0.02     -0.07      0.00     62.22 
   284.05     17.47     73.78      0.02     -0.06      0.00     62.22 
   284.06     17.46     73.86      0.00     -0.01      0.00     62.26 
   284.07     17.46     73.82      0.00      0.04      0.00     62.22 
   284.08     17.45     73.84     -0.01      0.03      7.00     62.22 
   284.09     17.45     73.89     -0.00      0.06      0.00     62.26 
   284.10     17.47     73.78      0.02     -0.08      0.00     62.21 
   284.11     17.47     73.80      0.02     -0.04      0.00     62.23 
   284.12     17.47     73.82      0.01     -0.06      0.00     62.25 
   284.13     17.47     73.80      0.00     -0.00      0.00     62.23 
   284.14     17.46     73.83     -0.01      0.07      0.00     62.25 
   284.15     17.46     73.83     -0.00      0.03      8.00     62.23 
   284.16     17.47     73.79      0.00     -0.03      7.00     62.22 
   284.17     17.46     73.85      0.00      0.04      0.00     62.26 
   284.18     17.45     73.80     -0.01     -0.06      0.00     62.19 
   284.19     17.45     73.83     -0.01      0.03      0.00     62.22 
   284.20     17.44     73.90     -0.03      0.13      0.00     62.26 
   284.21     17.45     73.83     -0.02      0.06      0.00     62.22 
   284.22     17.46     73.85     -0.01      0.09      0.00     62.26 
   284.23     17.45     73.84     -0.03      0.04      0.00     62.22 
   284.24     17.46     73.82     -0.01      0.03      0.00     62.22 
   284.25     17.45     73.89     -0.01      0.09      0.00     62.26 
   284.26     17.44     73.86     -0.02      0.06      0.00     62.22 
   284.27     17.46     73.82      0.00     -0.01      0.00     62.22 
   284.28     17.46     73.86      0.01     -0.03      0.00     62.26 
   284.29     17.47     73.78      0.03     -0.08      0.00     62.22 
   284.30     17.47     73.78      0.03     -0.10      0.00     62.22 
   284.31     17.47     73.82      0.04     -0.07      7.00     62.26 
   284.32     17.46     73.80      0.02     -0.07      0.00     62.22 
   284.33     17.46     73.80      0.00     -0.06      7.00     62.22 
   284.34     17.46     73.85      0.01      0.00      7.00     62.26 
   284.35     17.46     73.80     -0.00      0.01      7.00     62.22 
   284.36     17.47     73.83     -0.00      0.06      7.00     62.26 
   284.37     17.46     73.80     -0.00      0.01      0.00     62.22 
   284.38     17.46     73.82     -0.01     -0.00      0.00     62.22 
   284.39     17.45     73.89     -0.01      0.09      0.00     62.26 
   284.40     17.43     73.89     -0.01      0.03      0.00     62.22 
   284.41     17.43     73.89     -0.00      0.01      0.00     62.22 
   284.42     17.44     73.92      0.00      0.03      0.00     62.26 
   284.43     17.44     73.86      0.00      0.04      0.00     62.22 
   284.44     17.44     73.90     -0.01      0.04      0.00     62.26 
   284.45     17.45     73.84     -0.01      0.03      0.00     62.22 
   284.46     17.45     73.84      0.00     -0.00      8.00     62.23 
   284.47     17.44     73.90     -0.01      0.07      0.00     62.26 
   284.48     17.45     73.83      0.00      0.00      0.00     62.22 
   284.49     17.45     73.84      0.00     -0.04     14.00     62.22 
   284.50     17.45     73.89     -0.00      0.06      7.00     62.26 
   284.51     17.45     73.84      0.01     -0.04      0.00     62.22 
   284.52     17.44     73.87      0.01     -0.01      0.00     62.23 
   284.53     17.46     73.85      0.03     -0.04      0.00     62.26 
   284.54     17.46     73.77      0.03     -0.17      0.00     62.19 
   284.55     17.46     73.86      0.02     -0.01      0.00     62.26 
   284.56     17.47     73.79      0.02     -0.08      0.00     62.22 
   284.57     17.45     73.84     -0.00      0.03      8.00     62.23 
   284.58     17.45     73.88     -0.01      0.09      0.00     62.26 
   284.59     17.45     73.83     -0.01     -0.02      0.00     62.22 
   284.60     17.44     73.92     -0.02      0.10      7.00     62.26 
   284.61     17.44     73.86      0.00     -0.01      0.00     62.22 
   284.62     17.44     73.87      0.01     -0.01      0.00     62.23 
   284.63     17.44     73.92      0.00     -0.01      0.00     62.26 
   284.64     17.44     73.86      0.02     -0.07      7.00     62.22 
   284.65     17.43     73.93     -0.00      0.05      0.00     62.26 
   284.66     17.44     73.89     -0.01      0.04      0.00     62.23 
   284.67     17.45     73.84      0.00      0.00      0.00     62.22 
   284.68     17.45     73.89     -0.02      0.07      0.00     62.26 
