#Written by Robertson Geologging WinLogger V1.0/406
~VERSION INFORMATION
#------------------------------------------------------------------------------
 VERS. 2.0 : CWLS LOG ASCII STANDARD - VERSION 2.0
 WRAP. NO  : ONE LINE PER DEPTH STEP
~WELL INFORMATION
#MNEM.UNIT         DATA                                DESCRIPTION OF MNEMONIC
#------------------------------------------------------------------------------
 STRT.M         71.1200                            :   START DEPTH
 STOP.M        471.0000                            :   STOP DEPTH
 STEP.M          0.0100                            :   STEP VALUE
 NULL.        -999.2500                            :   NULL VALUE
 COMP.    Coal Authority                           :   COMPANY NAME
 WELL.    EasingtonShaft                           :   WELL NAME
 FLD.     Easington                                :   FIELD NAME
 LOC.     N/A                                      :   LOCATION
 PROV.    N/A                                      :   PROVINCE
 SRVC.    N/A                                      :   SERVICE COMPANY NAME
 DATE.    27 Aug 08                                :   DATE
 UWI.     N/A                                      :   UNIQUE WELL IDENTIFIER
~PARAMETER INFORMATION
#MNEMO.UNIT         VALUE                 DESCRIPTION OF MNEMONIC
#------------------------------------------------------------------------------
~OTHER INFORMATION SECTION
#------------------------------------------------------------------------------
 TCGS 1365
~CURVE INFORMATION
#MNEMO.UNIT         API CODE              CURVE DESCRIPTION
#------------------------------------------------------------------------------
 DEPTH.M                                 :   0     Depth
 TEMP.DegC                               :   1     Temperature
 CN25.uS/cm                              :   2     Conductivity@25DegC
 DELT.DegC                               :   3     Delta T
 DELC.uS/cm                              :   4     Delta C
 NGAM.CPS                                :   5     Natural Gamma
 COND.uS/cm                              :   6     Conductivity
#------------------------------------------------------------------------------
~A  DEPTH     TEMP      CN25      DELT      DELC      NGAM      COND      
# ...
   151.35     11.98      9.80      0.02      0.09      7.00      2.57 
   151.36     11.98      9.84      0.03      0.12      0.00      2.60 
   151.37     11.97      9.84      0.03      0.09      0.00      2.60 
   151.38     11.97      9.84      0.03      0.13      7.00      2.60 
   151.39     11.97      9.85      0.02      0.14     14.00      2.60 
   151.40     11.96      9.85      0.01      0.11      0.00      2.60 
   151.41     11.97      9.85      0.01      0.16      0.00      2.60 
   151.42     11.96      9.85      0.00      0.12      0.00      2.60 
   151.43     11.96      9.85      0.00      0.15      7.00      2.60 
   151.44     11.96      9.89      0.00      0.15      7.00      2.63 
   151.45     11.96      9.86      0.01      0.15      0.00      2.60 
   151.46     11.96      9.86      0.01      0.11      0.00      2.60 
   151.47     11.95      9.86      0.00      0.13      0.00      2.60 
   151.48     11.95      9.90      0.00      0.20      0.00      2.63 
   151.49     11.95      9.86     -0.00      0.13      0.00      2.60 
   151.50     11.96      9.86      0.01      0.11      0.00      2.60 
   151.51     11.97      9.88      0.03      0.13     28.00      2.63 
   151.52     11.98      9.85      0.03      0.10      0.00      2.61 
   151.53     11.98      9.83      0.04      0.07      7.00      2.60 
   151.54     11.98      9.87      0.03      0.16      0.00      2.63 
   151.55     11.98      9.83      0.02      0.10      0.00      2.60 
   151.56     11.98      9.88      0.02      0.13      0.00      2.63 
   151.57     11.98      9.84      0.03      0.09      7.00      2.60 
   151.58     11.97      9.89      0.02      0.14      0.00      2.63 
   151.59     11.97      9.85      0.02      0.11      0.00      2.61 
   151.60     11.97      9.88      0.01      0.10      0.00      2.63 
   151.61     11.97      9.84      0.00      0.12      0.00      2.60 
   151.62     11.97      9.88      0.00      0.15      0.00      2.63 
   151.63     11.97      9.88      0.01      0.15      0.00      2.63 
   151.64     11.97      9.85      0.01      0.12      8.00      2.61 
   151.65     11.98      9.88      0.02      0.09     21.00      2.63 
   151.66     11.98      9.84      0.02      0.09      7.00      2.60 
   151.67     11.98      9.87      0.04      0.12      0.00      2.63 
   151.68     11.98      9.87      0.05      0.06      7.00      2.63 
   151.69     11.99      9.88      0.06      0.12      0.00      2.64 
   151.70     12.00      9.81      0.05      0.02      0.00      2.60 
   151.71     11.99      9.86      0.03      0.13      0.00      2.63 
   151.72     11.98      9.87      0.01      0.10      0.00      2.63 
   151.73     11.97      9.89      0.00      0.16      0.00      2.63 
   151.74     11.96      9.92     -0.01      0.15      8.00      2.64 
   151.75     11.96      9.89     -0.00      0.12      0.00      2.63 
   151.76     11.97      9.88      0.01      0.10      0.00      2.63 
   151.77     11.97      9.88      0.01      0.14      7.00      2.63 
   151.78     11.97      9.88      0.02      0.09      0.00      2.63 
   151.79     11.96      9.89      0.02      0.09      0.00      2.63 
   151.80     11.96      9.93      0.01      0.14      7.00      2.65 
   151.81     11.96      9.89      0.00      0.11      7.00      2.63 
   151.82     11.96      9.89      0.01      0.10      7.00      2.63 
   151.83     11.97      9.89      0.01      0.14      0.00      2.63 
   151.84     11.97      9.92      0.02      0.13      7.00      2.65 
   151.85     11.97      9.88      0.02      0.09      7.00      2.63 
   151.86     11.98      9.87      0.02      0.09      7.00      2.63 
   151.87     11.98      9.91      0.01      0.10      0.00      2.65 
   151.88     11.98      9.87      0.02      0.09      0.00      2.63 
   151.89     11.98      9.88      0.01      0.10      0.00      2.63 
   151.90     11.97      9.92      0.01      0.14      7.00      2.65 
   151.91     11.97      9.88      0.01      0.10      7.00      2.63 
   151.92     11.97      9.92      0.01      0.14      0.00      2.65 
   151.93     11.97      9.92      0.02      0.09      0.00      2.65 
   151.94     11.97      9.89      0.01      0.10      0.00      2.63 
   151.95     11.96      9.93      0.00      0.15      0.00      2.65 
   151.96     11.96      9.89     -0.00      0.08      0.00      2.63 
   151.97     11.96      9.93      0.00      0.15      0.00      2.65 
   151.98     11.97      9.92      0.00      0.15      7.00      2.65 
   151.99     11.98      9.91      0.02      0.09      0.00      2.65 
   152.00     11.98      9.88      0.03      0.08      0.00      2.63 
   152.01     11.98      9.90      0.03      0.08      0.00      2.65 
   152.02     11.98      9.91      0.03      0.08      0.00      2.65 
   152.03     11.97      9.92      0.02      0.13      0.00      2.65 
   152.04     11.97      9.92      0.02      0.09      0.00      2.65 
   152.05     11.97      9.92      0.02      0.09     14.00      2.65 
   152.06     11.97      9.92      0.02      0.13      0.00      2.65 
   152.07     11.97      9.92      0.02      0.09      0.00      2.65 
   152.08     11.98      9.91      0.02      0.09      0.00      2.65 
   152.09     11.98      9.91      0.02      0.09      7.00      2.65 
   152.10     11.97      9.92      0.02      0.09      0.00      2.65 
   152.11     11.98      9.91      0.02      0.08      0.00      2.65 
   152.12     11.97      9.92      0.02      0.09      7.00      2.65 
   152.13     11.97      9.92      0.01      0.10      7.00      2.65 
   152.14     11.97      9.92      0.02      0.09      0.00      2.65 
   152.15     11.96      9.93      0.01      0.10      0.00      2.65 
   152.16     11.96      9.97      0.01      0.14      0.00      2.68 
   152.17     11.97      9.92      0.02      0.09      0.00      2.65 
   152.18     11.97      9.92      0.02      0.05      0.00      2.65 
   152.19     11.98      9.91      0.03      0.07      0.00      2.65 
   152.20     11.98      9.95      0.02      0.13      0.00      2.68 
   152.21     11.98      9.91      0.01      0.06      0.00      2.65 
   152.22     11.98      9.94      0.02      0.13      0.00      2.68 
   152.23     11.98      9.90      0.01      0.10      0.00      2.65 
   152.24     11.99      9.94      0.03      0.08      0.00      2.68 
   152.25     11.98      9.90      0.03      0.08      0.00      2.65 
   152.26     11.97      9.96      0.01      0.10      0.00      2.68 
   152.27     11.97      9.96      0.01      0.10      0.00      2.68 
   152.28     11.97      9.92      0.01      0.10      0.00      2.65 
   152.29     11.97      9.95      0.00      0.10      0.00      2.67 
   152.30     11.98      9.95      0.00      0.14      0.00      2.68 
   152.31     11.98      9.94      0.01      0.10      0.00      2.68 
   152.32     11.98      9.90      0.00      0.07      0.00      2.65 
   152.33     11.98      9.94      0.00      0.11      0.00      2.68 
   152.34     11.98      9.95      0.00      0.15      0.00      2.68 
   152.35     11.97      9.96     -0.00      0.12      7.00      2.68 
   152.36     11.96      9.97     -0.01      0.13      7.00      2.68 
   152.37     11.97      9.96      0.00      0.12      0.00      2.68 
   152.38     11.98      9.95      0.01      0.10      0.00      2.68 
   152.39     11.98      9.94      0.02      0.08      0.00      2.67 
   152.40     11.98      9.95      0.01      0.10      0.00      2.68 
   152.41     11.97      9.96      0.01      0.10      0.00      2.68 
   152.42     11.97     10.00      0.00      0.15      0.00      2.71 
   152.43     11.96      9.97      0.00      0.08      7.00      2.68 
   152.44     11.96      9.97      0.00      0.11      0.00      2.68 
   152.45     11.97      9.96      0.01      0.10      7.00      2.68 
   152.46     11.97      9.96      0.01      0.10      0.00      2.68 
   152.47     11.97     10.00      0.02      0.09      0.00      2.71 
