#Written by Robertson Geologging WinLogger V1.0/406
~VERSION INFORMATION
#------------------------------------------------------------------------------
 VERS. 2.0 : CWLS LOG ASCII STANDARD - VERSION 2.0
 WRAP. NO  : ONE LINE PER DEPTH STEP
~WELL INFORMATION
#MNEM.UNIT         DATA                                DESCRIPTION OF MNEMONIC
#------------------------------------------------------------------------------
 STRT.M         71.1200                            :   START DEPTH
 STOP.M        471.0000                            :   STOP DEPTH
 STEP.M          0.0100                            :   STEP VALUE
 NULL.        -999.2500                            :   NULL VALUE
 COMP.    Coal Authority                           :   COMPANY NAME
 WELL.    EasingtonShaft                           :   WELL NAME
 FLD.     Easington                                :   FIELD NAME
 LOC.     N/A                                      :   LOCATION
 PROV.    N/A                                      :   PROVINCE
 SRVC.    N/A                                      :   SERVICE COMPANY NAME
 DATE.    27 Aug 08                                :   DATE
 UWI.     N/A                                      :   UNIQUE WELL IDENTIFIER
~PARAMETER INFORMATION
#MNEMO.UNIT         VALUE                 DESCRIPTION OF MNEMONIC
#------------------------------------------------------------------------------
~OTHER INFORMATION SECTION
#------------------------------------------------------------------------------
 TCGS 1365
~CURVE INFORMATION
#MNEMO.UNIT         API CODE              CURVE DESCRIPTION
#------------------------------------------------------------------------------
 DEPTH.M                                 :   0     Depth
 TEMP.DegC                               :   1     Temperature
 CN25.uS/cm                              :   2     Conductivity@25DegC
 DELT.DegC                               :   3     Delta T
 DELC.uS/cm                              :   4     Delta C
 NGAM.CPS                                :   5     Natural Gamma
 COND.uS/cm                              :   6     Conductivity
#------------------------------------------------------------------------------
~A  DEPTH     TEMP      CN25      DELT      DELC      NGAM      COND      
# ...
   416.90     18.71     83.72      0.10     -0.14      8.00     73.99 
   416.91     18.72     83.71      0.09     -0.10      0.00     74.00 
   416.92     18.71     83.66      0.09     -0.22      0.00     73.93 
   416.93     18.73     83.65      0.10     -0.14      0.00     73.99 
   416.94     18.74     83.65      0.12     -0.18      7.00     74.00 
   416.95     18.73     83.66      0.12     -0.27      8.00     73.99 
   416.96     18.73     83.65      0.13     -0.23      0.00     73.99 
   416.97     18.71     83.69      0.10     -0.22      0.00     73.96 
   416.98     18.70     83.75      0.08     -0.15      0.00     73.99 
   416.99     18.71     83.73      0.10     -0.13      7.00     74.00 
   417.00     18.71     83.72      0.09     -0.16      0.00     73.99 
   417.01     18.73     83.65      0.11     -0.24      0.00     73.99 
   417.02     18.73     83.63      0.09     -0.20      0.00     73.96 
   417.03     18.72     83.69      0.06     -0.03      0.00     73.99 
   417.04     18.72     83.69      0.07     -0.14      0.00     73.99 
   417.05     18.71     83.74      0.06      0.00      0.00     74.00 
   417.06     18.74     83.63      0.09     -0.17      0.00     73.99 
   417.07     18.75     83.60      0.10     -0.19     14.00     74.00 
   417.08     18.75     83.60      0.09     -0.20      0.00     73.99 
   417.09     18.75     83.59      0.09     -0.18      0.00     73.99 
   417.10     18.73     83.66      0.06     -0.06      0.00     74.00 
   417.11     18.73     83.70      0.08     -0.09      0.00     74.03 
   417.12     18.73     83.63      0.08     -0.17      0.00     73.96 
   417.13     18.73     83.71      0.09     -0.15      0.00     74.03 
   417.14     18.74     83.65      0.09     -0.16      0.00     74.00 
   417.15     18.74     83.67      0.07     -0.04      0.00     74.03 
   417.16     18.74     83.63      0.08     -0.11      0.00     74.00 
   417.17     18.75     83.60      0.07     -0.14      0.00     73.99 
   417.18     18.74     83.70      0.07     -0.05      0.00     74.04 
   417.19     18.73     83.66      0.08     -0.17      8.00     73.99 
   417.20     18.73     83.73      0.07     -0.09      0.00     74.04 
   417.21     18.72     83.68      0.08     -0.12      0.00     73.99 
   417.22     18.73     83.73      0.08     -0.12      7.00     74.04 
   417.23     18.75     83.65      0.09     -0.10      8.00     74.03 
   417.24     18.75     83.62      0.08     -0.13      0.00     74.00 
   417.25     18.74     83.63      0.07     -0.14     16.00     73.99 
   417.26     18.77     83.54      0.10     -0.24      0.00     74.00 
   417.27     18.76     83.62      0.10     -0.19      0.00     74.03 
   417.28     18.76     83.61      0.11     -0.24      0.00     74.03 
   417.29     18.77     83.56      0.12     -0.27      7.00     74.00 
   417.30     18.73     83.71      0.08     -0.15      0.00     74.03 
   417.31     18.74     83.63      0.07     -0.13      0.00     74.00 
   417.32     18.76     83.62      0.08     -0.13      0.00     74.03 
   417.33     18.76     83.57      0.06     -0.16      7.00     74.00 
   417.34     18.77     83.59      0.05     -0.04      0.00     74.03 
   417.35     18.76     83.59      0.05     -0.09      0.00     74.00 
   417.36     18.75     83.65      0.05     -0.11      0.00     74.03 
   417.37     18.74     83.63      0.06     -0.12      8.00     73.99 
   417.38     18.75     83.67      0.07     -0.16      0.00     74.04 
   417.39     18.76     83.61      0.08     -0.15      0.00     74.03 
   417.40     18.78     83.56      0.09     -0.16      0.00     74.03 
   417.41     18.81     83.51      0.12     -0.26      0.00     74.08 
   417.42     18.81     83.45      0.11     -0.22      0.00     74.04 
   417.43     18.80     83.58      0.10     -0.10      8.00     74.13 
   417.44     18.80     83.58      0.11     -0.16      0.00     74.13 
   417.45     18.79     83.72      0.11     -0.02      0.00     74.21 
   417.46     18.79     83.72      0.12     -0.07      8.00     74.22 
   417.47     18.83     83.65      0.16     -0.11      0.00     74.27 
   417.48     18.83     83.71      0.14     -0.00      0.00     74.32 
   417.49     18.84     83.75      0.14      0.02      0.00     74.37 
   417.50     18.85     83.76      0.14      0.11      8.00     74.41 
   417.51     18.85     83.85      0.13      0.21      0.00     74.49 
   417.52     18.86     83.83      0.15      0.12      0.00     74.50 
   417.53     18.90     83.80      0.18      0.15      0.00     74.57 
   417.54     18.88     83.88      0.18      0.17      0.00     74.60 
   417.55     18.88     83.99      0.18      0.25      0.00     74.70 
   417.56     18.89     83.98      0.17      0.31      0.00     74.70 
   417.57     18.89     83.98      0.16      0.43      0.00     74.70 
   417.58     18.89     84.05      0.17      0.34      0.00     74.78 
   417.59     18.90     84.00      0.19      0.32      0.00     74.74 
   417.60     18.89     84.10      0.19      0.37      0.00     74.82 
   417.61     18.89     84.19      0.19      0.42      8.00     74.89 
   417.62     18.91     84.10      0.20      0.40      0.00     74.86 
   417.63     18.90     84.14      0.19      0.42      0.00     74.89 
   417.64     18.92     84.10      0.21      0.36      0.00     74.89 
   417.65     18.93     84.08      0.22      0.37      0.00     74.90 
   417.66     18.92     84.15      0.22      0.44      0.00     74.93 
   417.67     18.92     84.14      0.21      0.42      0.00     74.94 
   417.68     18.92     84.14      0.19      0.53      0.00     74.93 
   417.69     18.93     84.18      0.20      0.50      0.00     74.98 
   417.70     18.93     84.11      0.21      0.45      0.00     74.94 
   417.71     18.94     84.12      0.24      0.44      0.00     74.98 
   417.72     18.95     84.09      0.27      0.29      0.00     74.98 
   417.73     18.96     84.11      0.26      0.45      0.00     75.03 
   417.74     18.97     84.03      0.25      0.39      0.00     74.98 
   417.75     18.96     84.13      0.23      0.48      0.00     75.03 
   417.76     18.98     84.01      0.24      0.40      7.00     74.98 
   417.77     18.96     84.11      0.24      0.46      8.00     75.03 
   417.78     18.97     84.08      0.26      0.37      0.00     75.03 
   417.79     18.98     84.04      0.27      0.38     14.00     75.02 
   417.80     18.97     84.08      0.25      0.42      0.00     75.03 
   417.81     18.99     84.07      0.26      0.39      0.00     75.06 
   417.82     18.99     84.03      0.26      0.39      0.00     75.03 
   417.83     18.99     84.06      0.26      0.45      0.00     75.06 
   417.84     19.01     83.96      0.29      0.28      0.00     75.03 
   417.85     19.03     83.95      0.28      0.36      0.00     75.08 
   417.86     19.05     83.89      0.30      0.26      0.00     75.06 
   417.87     19.05     83.89      0.30      0.29      8.00     75.08 
   417.88     19.04     83.92      0.31      0.29      0.00     75.06 
   417.89     19.04     83.87      0.33      0.15      8.00     75.03 
   417.90     19.04     83.91      0.32      0.20      0.00     75.06 
   417.91     19.06     83.87      0.35      0.21      8.00     75.08 
   417.92     19.07     83.81      0.34      0.17      0.00     75.08 
   417.93     19.07     83.77      0.33      0.12      7.00     75.02 
   417.94     19.08     83.80      0.35      0.14      0.00     75.08 
   417.95     19.07     83.85      0.34      0.20      0.00     75.10 
   417.96     19.09     83.77      0.38      0.07      0.00     75.08 
   417.97     19.10     83.72      0.41     -0.03      0.00     75.08 
   417.98     19.10     83.73      0.39      0.00      0.00     75.06 
   417.99     19.09     83.81      0.39      0.09      0.00     75.13 
   418.00     19.09     83.74      0.36      0.10      0.00     75.06 
   418.01     19.08     83.84      0.36      0.21      0.00     75.13 
   418.02     19.09     83.80      0.37      0.11      0.00     75.10 
