~Version Information
 VERS.                2.0:  CWLS LOG ASCII STANDARD -VERSION 2.0
 WRAP.                 NO:  ONE LINE PER DEPTH STEP
~WELL INFORMATION BLOCK
#MNEM.UNIT       DATA		            DESCRIPTION OF MNEMONIC
#---------    -------------            ------------------------
 STRT.M   0.200                          :START DEPTH
 STOP.M   459.120                        :STOP DEPTH
 STEP.M   0.020                          :STEP  DOWN_HOLE  
 NULL.    0                              :NULL VALUE
 COMP.                              IMC  :COMPANY
 WELL.                  Essington South  :WELL
 FLD .                           Durham  :FIELD
 LOC .    None  None  None               :LOCATION
 CNTY.                      Northumbria  :COUNTY
 STAT.                   None            :STATE
 SRVC.          TRANS                    :SERVICE COMPANY
 DATE.   01/28/00                        :LOG DATE
 UWI .                       	         :UNIQUE WELL ID
 LIC .                                   :LICENSE NUMBER
~Curve Information Block
#MNEM.UNIT      API CODE     Curve Description
#---------    -------------  ------------------------
 DEPT     .M         00 001 00 00          :  1  DEPTH   
 RES(FL)  .OHM-M     00 000 00 00          :  2              RES(FL)
 TEMP     .DEG C     00 660 00 00          :  3                 TEMP
 DEL TEMP .DEG C     00 000 00 00          :  4             DEL TEMP
 SP COND  .US/CM     00 000 00 00          :  5              SP COND
~Parameter Information Block
#MNEM.UNIT   Information     Description
#---------- ---------------  ------------------------
~Other Information
#MNEM.UNIT  Information      Description
#---------- ---------------  ------------------------
 FILE.      ORIGINAL           File Type
 FIID.      9042C              File Type Identifier
 VERS.      1.0                System Version
 SER .      1                  System Serial Number
 TRUK.      0.5                Truck Calibration Number
 TOOL.         870             Tool Serial Number
 TIME.      09:33:             Time
 LAT .          None           Latitude
 LON .          None           Longitude
 LMF .         T.G.L           Log Measured From
 DMF .          None           Driller Measured From
 PD  .          None           Permanent Data
 PDEV.          None           Elevation Permanent Data
 EKB .M         None           Elevation Kelly Bushing
 ELEV.DF        None           Elevation DF
 EGL .M         None           Elevation Ground Level
 DRDP.         36.00           Driller's Depth
 CASD.        11               Casing Diameter
 CASB.         25.00           Casing Bottom
 CASX.       PLASTIC           Casing Type
 CAST.       0.5               Casing Thickness
 TNOC.          None           Time Circulation Stopped
 LOGU.       CENT              Logging Unit
 RECB.             MS/DW       Recorded By
 OSR1.          none           Other Services
 OSR2.          None           Other Services
 OSR3.          None           Other Services
 BS  .MM       11.00           Bit Size
 MST .                         Mean Surface Temperature
 TGRD.        0                Temperature Gradiant
 MAGN.            -6           Magnetic Declination
 MDEN.      2.71               Density Matrix
 MATR.      Limestone          Neutron Matrix
 DTMT.           140           Delta T Matrix
 DTFL.                         Delta T Fluid
 MUDS.               0         Mud Sample Source
 MRS .           0             Mud Resistivity
 MTP .           0             Mud Temperature
 MFRS.                         Resistivity Mud Filtrate
 MFTP.                         Temperature Mud Filtrate
 MCRS.         0               Resistivity Mud Cake
 MCTP.                         Temperature Mud Cake
 FTYP.           H20           Fluid Type
 FD  .K/M3                     Fluid Density
 DFV .S                        Fluid Viscosity
 FPH .                         Fuild PH
 ELCO.        2500             Electron Cutoff
# -------------------------- 
~A DEPTH  RES(FL) TEMP  DEL TEMP SP COND  
   0.200    0.00   0.0  0.00         0.0  
   0.220    0.00   0.0  0.00         0.0  
   0.240    0.00   0.0  0.00         0.0  
   0.260    0.00   0.0  0.00     -10000.0 
   0.280    0.00   0.0  0.00     -10000.0 
   0.300    0.00   0.0  0.00     -10000.0 
   0.320    0.00   0.0  0.00     -10000.0 
   0.340    0.00   0.0  0.00     -10000.0 
   0.360    0.00   0.0  0.00     -10000.0 
   0.380    0.00   0.0  0.00     -10000.0 
   0.400    0.00   0.0  0.00     -10000.0 
   0.420    0.00   0.0  0.00     -10000.0 
   0.440    0.00   0.0  0.00     -10000.0 
   0.460    0.00   0.0  0.00     -10000.0 
   0.480    0.00   0.0  0.00     -10000.0 
   0.500    0.00   0.0  0.00     -10000.0 
   0.520    0.00   0.0  0.00     -10000.0 
   0.540    0.00   0.0  0.00     -10000.0 
   0.560    0.00   0.0  0.00     -10000.0 
   0.580    0.00   0.0  0.00     -10000.0 
   0.600    0.00   0.0  0.00     -10000.0 
   0.620    0.00   0.0  0.00     -10000.0 
   0.640    0.00   0.0  0.00     -10000.0 
   0.660    0.00   0.0  0.00     -10000.0 
   0.680    0.00   0.0  0.00     -10000.0 
   0.700    0.00   0.0  0.00     -10000.0 
   0.720    0.00   0.0  0.00     -10000.0 
   0.740    0.00   0.0  0.00     -10000.0 
   0.760    0.00   0.0  0.00     -10000.0 
   0.780    0.00   0.0  0.00     -10000.0 
   0.800    0.00   0.0  0.00     -10000.0 
   0.820    0.00   0.0  0.00     -10000.0 
   0.840    0.00   0.0  0.00     -10000.0 
   0.860    0.00   0.0  0.00     -10000.0 
   0.880    0.00   0.0  0.00     -10000.0 
   0.900    0.00   0.0  0.00     -10000.0 
   0.920    0.00   0.0  0.00     -10000.0 
   0.940    0.00   0.0  0.00     -10000.0 
   0.960    0.00   0.0  0.00     -10000.0 
   0.980    0.00   0.0  0.00     -10000.0 
   1.000    0.00   0.0  0.00     -10000.0 
   1.020    0.00   0.0  0.00     -10000.0 
   1.040    0.00   0.0  0.00     -10000.0 
   1.060    0.00   0.0  0.00     -10000.0 
   1.080    0.00   0.0  0.00     -10000.0 
   1.100    0.00   0.0  0.00     -10000.0 
   1.120    0.00   0.0  0.00     -10000.0 
   1.140    0.00   0.0  0.00     -10000.0 
   1.160    0.00   0.0  0.00     -10000.0 
   1.180    0.00   0.0  0.00     -10000.0 
   1.200    0.00   0.0  0.00     -10000.0 
   1.220    0.00   0.0  0.00        92.8  
   1.240    0.00   0.0  0.00        92.8  
   1.260    0.00   0.0  0.00        92.7  
   1.280  107.83   0.0  0.00        92.7  
   1.300  107.82   0.0  0.00        92.7  
   1.320  107.83   0.0  0.00        92.7  
   1.340  107.84   0.0  0.00        92.7  
   1.360  107.84   0.0  -39.02      92.7  
   1.380  107.85   0.0  0.04        92.7  
   1.400  107.85   0.0  -0.01       92.7  
   1.420  107.86  11.0  -0.01       92.7  
   1.440  107.86  11.0  0.00        92.7  
   1.460  107.87  11.0  -0.00       92.7  
   1.480  107.87  11.0  -0.01       92.7  
   1.500  107.88  11.0  -0.01       92.7  
   1.520  107.88  11.0  -0.01       92.7  
   1.540  107.88  11.0  -0.00       92.7  
   1.560  107.89  11.0  -0.01       92.7  
   1.580  107.89  11.0  -0.01       92.7  
   1.600  107.90  11.0  -0.02       92.7  
   1.620  107.91  10.9  -0.02       92.7  
   1.640  107.91  10.9  -0.02       92.7  
   1.660  107.92  10.9  -0.02       92.7  
   1.680  107.92  10.9  -0.02       92.7  
   1.700  107.93  10.8  -0.05       92.7  
   1.720  107.93  10.8  -0.03       92.7  
   1.740  107.93  10.8  -0.04       92.7  
   1.760  107.93  10.7  -0.03       92.7  
   1.780  107.94  10.7  -0.03       92.6  
   1.800  107.94  10.7  -0.03       92.6  
   1.820  107.94  10.6  -0.02       92.6  
   1.840  107.95  10.6  -0.03       92.6  
   1.860  107.94  10.6  -0.02       92.6  
   1.880  107.95  10.6  -0.03       92.6  
   1.900  107.95  10.5  -0.03       92.6  
   1.920  107.95  10.5  -0.02       92.6  
   1.940  107.95  10.5  -0.03       92.6  
   1.960  107.96  10.5  -0.02       92.6  
   1.980  107.96  10.4  -0.04       92.6  
   2.000  107.97  10.4  -0.03       92.6  
   2.020  107.97  10.4  -0.03       92.6  
   2.040  107.97  10.3  -0.04       92.6  
   2.060  107.98  10.3  -0.02       92.6  
   2.080  107.99  10.3  -0.02       92.6  
   2.100  107.99  10.3  -0.02       92.6  
   2.120  108.00  10.2  -0.03       92.6  
   2.140  108.00  10.2  -0.02       92.6  
   2.160  108.01  10.2  -0.02       92.6  
   2.180  108.01  10.2  -0.02       92.6  
   2.200  108.01  10.2  -0.02       92.6  
   2.220  108.01  10.1  -0.02       92.6  
   2.240  108.00  10.1  -0.02       92.6  
   2.260  108.03  10.1  -0.02       92.6  
   2.280  108.04  10.1  -0.03       92.6  
   2.300  108.03  10.1  -0.01       92.6  
   2.320  108.05  10.0  -0.02       92.5  
   2.340  108.04  10.0  -0.02       92.6  
   2.360  108.04  10.0  0.00        92.6  
   2.380  108.05  10.0  -0.03       92.5  
   2.400  108.05  10.0  -0.02       92.5  
   2.420  108.04  10.0  -0.02       92.6  
   2.440  108.06   9.9  -0.01       92.5  
   2.460  108.06   9.9  -0.03       92.5  
   2.480  108.06   9.9  -0.01       92.5  
   2.500  108.06   9.9  -0.02       92.5  
   2.520  108.06   9.9  -0.02       92.5  
   2.540  108.06   9.9  0.00        92.5  
   2.560  108.06   9.8  -0.04       92.5  
   2.580  108.07   9.8  -0.01       92.5  
   2.600  108.06   9.8  -0.01       92.5  
   2.620  108.07   9.8  -0.01       92.5  
   2.640  108.06   9.8  -0.01       92.5  
   2.660  108.07   9.8  -0.00       92.5  
   2.680  108.07   9.8  0.00        92.5  
   2.700  108.08   9.8  -0.02       92.5  
   2.720  108.07   9.7  -0.01       92.5  
   2.740  108.09   9.7  -0.00       92.5  
   2.760  108.08   9.7  -0.01       92.5  
   2.780  108.07   9.7  -0.00       92.5  
   2.800  108.07   9.7  -0.01       92.5  
   2.820  108.08   9.7  -0.00       92.5  
   2.840  108.07   9.7  -0.00       92.5  
   2.860  108.07   9.7  -0.00       92.5  
   2.880  108.10   9.7  -0.01       92.5  
   2.900  108.09   9.7  -0.00       92.5  
   2.920  108.09   9.7  -0.00       92.5  
   2.940  108.10   9.7  -0.00       92.5  
   2.960  108.09   9.7  -0.01       92.5  
   2.980  108.09   9.7  -0.00       92.5  
   3.000  108.10   9.7  -0.01       92.5  
   3.020  108.11   9.7  -0.01       92.5  
   3.040  108.10   9.7  -0.01       92.5  
   3.060  108.10   9.7  -0.00       92.5  
   3.080  108.10   9.7  0.00        92.5  
   3.100  108.11   9.7  -0.00       92.5  
   3.120  108.10   9.7  -0.00       92.5  
   3.140  108.10   9.7  -0.00       92.5  
   3.160  108.10   9.6  -0.01       92.5  
   3.180  108.11   9.6  0.00        92.5  
   3.200  108.12   9.6  0.00        92.5  
   3.220  108.12   9.6  -0.00       92.5  
   3.240  108.12   9.6  0.00        92.5  
   3.260  108.12   9.6  0.00        92.5  
   3.280  108.12   9.6  0.00        92.5  
   3.300  108.12   9.6  0.00        92.5  
   3.320  108.12   9.6  0.00        92.5  
   3.340  108.12   9.6  -0.00       92.5  
   3.360  108.13   9.6  0.00        92.5  
   3.380  108.13   9.6  0.00        92.5  
   3.400  108.13   9.6  0.00        92.5  
   3.420  108.13   9.6  0.01        92.5  
   3.440  108.10   9.7  0.00        92.5  
   3.460  108.13   9.7  0.01        92.5  
   3.480  108.12   9.7  0.01        92.5  
   3.500  108.12   9.7  0.01        92.5  
   3.520  108.12   9.7  0.00        92.5  
   3.540  108.14   9.7  0.00        92.5  
   3.560  108.13   9.7  0.00        92.5  
   3.580  108.14   9.7  0.04        92.5  
   3.600  108.14   9.7  0.01        92.5  
   3.620  108.14   9.8  0.01        92.5  
   3.640  108.14   9.8  0.00        92.5  
   3.660  108.14   9.8  0.01        92.5  
   3.680  108.14   9.8  0.02        92.5  
   3.700  108.14   9.8  0.01        92.5  
   3.720  108.15   9.8  0.01        92.5  
   3.740  108.15   9.8  0.00        92.5  
   3.760  108.15   9.8  0.01        92.5  
   3.780  108.14   9.8  0.01        92.5  
   3.800  108.15   9.8  0.00        92.5  
   3.820  108.15   9.8  0.00        92.5  
   3.840  108.14   9.8  0.00        92.5  
   3.860  108.14   9.9  0.04        92.5  
   3.880  108.14   9.9  0.00        92.5  
   3.900  108.15   9.9  0.01        92.5  
   3.920  108.15   9.9  0.01        92.5  
