~Version Information
 VERS.                2.0:  CWLS LOG ASCII STANDARD -VERSION 2.0
 WRAP.                 NO:  ONE LINE PER DEPTH STEP
~WELL INFORMATION BLOCK
#MNEM.UNIT       DATA		            DESCRIPTION OF MNEMONIC
#---------    -------------            ------------------------
 STRT.M   0.200                          :START DEPTH
 STOP.M   459.120                        :STOP DEPTH
 STEP.M   0.020                          :STEP  DOWN_HOLE  
 NULL.    0                              :NULL VALUE
 COMP.                              IMC  :COMPANY
 WELL.                  Essington South  :WELL
 FLD .                           Durham  :FIELD
 LOC .    None  None  None               :LOCATION
 CNTY.                      Northumbria  :COUNTY
 STAT.                   None            :STATE
 SRVC.          TRANS                    :SERVICE COMPANY
 DATE.   01/28/00                        :LOG DATE
 UWI .                       	         :UNIQUE WELL ID
 LIC .                                   :LICENSE NUMBER
~Curve Information Block
#MNEM.UNIT      API CODE     Curve Description
#---------    -------------  ------------------------
 DEPT     .M         00 001 00 00          :  1  DEPTH   
 RES(FL)  .OHM-M     00 000 00 00          :  2              RES(FL)
 TEMP     .DEG C     00 660 00 00          :  3                 TEMP
 DEL TEMP .DEG C     00 000 00 00          :  4             DEL TEMP
 SP COND  .US/CM     00 000 00 00          :  5              SP COND
~Parameter Information Block
#MNEM.UNIT   Information     Description
#---------- ---------------  ------------------------
~Other Information
#MNEM.UNIT  Information      Description
#---------- ---------------  ------------------------
 FILE.      ORIGINAL           File Type
 FIID.      9042C              File Type Identifier
 VERS.      1.0                System Version
 SER .      1                  System Serial Number
 TRUK.      0.5                Truck Calibration Number
 TOOL.         870             Tool Serial Number
 TIME.      09:33:             Time
 LAT .          None           Latitude
 LON .          None           Longitude
 LMF .         T.G.L           Log Measured From
 DMF .          None           Driller Measured From
 PD  .          None           Permanent Data
 PDEV.          None           Elevation Permanent Data
 EKB .M         None           Elevation Kelly Bushing
 ELEV.DF        None           Elevation DF
 EGL .M         None           Elevation Ground Level
 DRDP.         36.00           Driller's Depth
 CASD.        11               Casing Diameter
 CASB.         25.00           Casing Bottom
 CASX.       PLASTIC           Casing Type
 CAST.       0.5               Casing Thickness
 TNOC.          None           Time Circulation Stopped
 LOGU.       CENT              Logging Unit
 RECB.             MS/DW       Recorded By
 OSR1.          none           Other Services
 OSR2.          None           Other Services
 OSR3.          None           Other Services
 BS  .MM       11.00           Bit Size
 MST .                         Mean Surface Temperature
 TGRD.        0                Temperature Gradiant
 MAGN.            -6           Magnetic Declination
 MDEN.      2.71               Density Matrix
 MATR.      Limestone          Neutron Matrix
 DTMT.           140           Delta T Matrix
 DTFL.                         Delta T Fluid
 MUDS.               0         Mud Sample Source
 MRS .           0             Mud Resistivity
 MTP .           0             Mud Temperature
 MFRS.                         Resistivity Mud Filtrate
 MFTP.                         Temperature Mud Filtrate
 MCRS.         0               Resistivity Mud Cake
 MCTP.                         Temperature Mud Cake
 FTYP.           H20           Fluid Type
 FD  .K/M3                     Fluid Density
 DFV .S                        Fluid Viscosity
 FPH .                         Fuild PH
 ELCO.        2500             Electron Cutoff
# -------------------------- 
~A DEPTH  RES(FL) TEMP  DEL TEMP SP COND  
# ...
 123.620  110.00  11.5  0.00        90.9  
 123.640  110.00  11.5  0.00        90.9  
 123.660  110.00  11.5  0.00        90.9  
 123.680  110.00  11.5  0.00        90.9  
 123.700  110.00  11.5  0.00        90.9  
 123.720  110.01  11.5  0.00        90.9  
 123.740  110.01  11.5  0.00        90.9  
 123.760  110.00  11.5  0.00        90.9  
 123.780  110.00  11.5  0.00        90.9  
 123.800  110.01  11.5  0.00        90.9  
 123.820  110.01  11.5  -0.00       90.9  
 123.840  110.00  11.5  0.00        90.9  
 123.860  110.01  11.5  -0.00       90.9  
 123.880  110.01  11.5  0.00        90.9  
 123.900  110.01  11.5  -0.00       90.9  
 123.920  110.01  11.5  0.00        90.9  
 123.940  110.00  11.5  -0.00       90.9  
 123.960  110.00  11.5  0.00        90.9  
 123.980  110.00  11.5  -0.00       90.9  
 124.000  110.00  11.5  -0.00       90.9  
 124.020  110.01  11.5  0.00        90.9  
 124.040  110.01  11.5  -0.00       90.9  
 124.060  110.00  11.5  0.00        90.9  
 124.080  110.00  11.5  0.00        90.9  
 124.100  110.00  11.5  0.00        90.9  
 124.120  110.00  11.5  0.00        90.9  
 124.140  110.01  11.5  0.00        90.9  
 124.160  110.01  11.5  0.00        90.9  
 124.180  110.01  11.5  0.00        90.9  
 124.200  110.01  11.5  0.00        90.9  
 124.220  110.01  11.5  0.00        90.9  
 124.240  110.01  11.5  0.00        90.9  
 124.260  110.00  11.5  0.00        90.9  
 124.280  110.00  11.5  0.00        90.9  
 124.300  110.01  11.5  0.00        90.9  
 124.320  110.01  11.5  0.00        90.9  
 124.340  110.01  11.5  0.00        90.9  
 124.360  110.01  11.5  0.00        90.9  
 124.380  110.01  11.5  0.00        90.9  
 124.400  110.01  11.5  0.00        90.9  
 124.420  110.01  11.5  0.00        90.9  
 124.440  110.01  11.5  0.00        90.9  
 124.460  110.01  11.5  0.00        90.9  
 124.480  110.01  11.5  0.00        90.9  
 124.500  110.01  11.5  0.00        90.9  
 124.520  110.01  11.5  0.00        90.9  
 124.540  110.01  11.5  0.00        90.9  
 124.560  110.01  11.5  0.00        90.9  
 124.580  110.01  11.5  0.00        90.9  
 124.600  110.01  11.5  0.00        90.9  
 124.620  110.01  11.5  0.00        90.9  
 124.640  110.01  11.5  0.00        90.9  
 124.660  110.01  11.5  0.00        90.9  
 124.680  110.01  11.5  0.00        90.9  
 124.700  110.01  11.5  0.00        90.9  
 124.720  110.01  11.5  0.00        90.9  
 124.740  110.01  11.5  0.00        90.9  
 124.760  110.01  11.5  0.00        90.9  
 124.780  110.01  11.5  0.00        90.9  
 124.800  110.01  11.5  -0.01       90.9  
 124.820  110.01  11.5  0.00        90.9  
 124.840  110.02  11.5  -0.00       90.9  
 124.860  110.02  11.5  0.00        90.9  
 124.880  110.01  11.5  0.00        90.9  
 124.900  110.01  11.5  0.00        90.9  
 124.920  110.01  11.5  0.00        90.9  
 124.940  110.01  11.5  0.00        90.9  
 124.960  110.02  11.5  0.00        90.9  
 124.980  110.02  11.5  -0.00       90.9  
 125.000  110.01  11.5  0.00        90.9  
 125.020  110.01  11.5  -0.00       90.9  
 125.040  110.02  11.5  0.00        90.9  
 125.060  110.02  11.5  0.00        90.9  
 125.080  110.01  11.5  0.00        90.9  
 125.100  110.01  11.5  0.00        90.9  
 125.120  110.02  11.5  0.00        90.9  
 125.140  110.02  11.5  0.00        90.9  
 125.160  110.02  11.5  0.00        90.9  
 125.180  110.02  11.5  0.00        90.9  
 125.200  110.02  11.5  0.00        90.9  
 125.220  110.02  11.5  0.00        90.9  
 125.240  110.02  11.5  0.00        90.9  
 125.260  110.02  11.5  0.00        90.9  
 125.280  110.02  11.5  0.00        90.9  
 125.300  110.02  11.5  0.00        90.9  
 125.320  110.02  11.5  0.00        90.9  
 125.340  110.02  11.5  0.00        90.9  
 125.360  110.02  11.5  0.00        90.9  
 125.380  110.02  11.5  0.00        90.9  
 125.400  110.02  11.5  0.00        90.9  
 125.420  110.01  11.5  0.00        90.9  
 125.440  110.01  11.5  0.00        90.9  
 125.460  110.02  11.5  0.00        90.9  
 125.480  110.02  11.5  0.00        90.9  
 125.500  110.01  11.5  0.00        90.9  
 125.520  110.01  11.5  0.00        90.9  
 125.540  110.01  11.5  0.00        90.9  
 125.560  110.01  11.5  0.00        90.9  
 125.580  110.02  11.5  0.00        90.9  
 125.600  110.02  11.5  0.00        90.9  
 125.620  110.02  11.5  0.00        90.9  
 125.640  110.02  11.5  0.00        90.9  
 125.660  110.02  11.5  0.00        90.9  
 125.680  110.02  11.5  0.00        90.9  
 125.700  110.02  11.5  0.00        90.9  
 125.720  110.02  11.5  0.00        90.9  
 125.740  110.02  11.5  0.00        90.9  
 125.760  110.02  11.5  0.00        90.9  
 125.780  110.02  11.5  0.00        90.9  
 125.800  110.02  11.5  0.00        90.9  
 125.820  110.02  11.5  0.01        90.9  
 125.840  110.03  11.5  0.00        90.9  
 125.860  110.03  11.6  0.00        90.9  
 125.880  110.02  11.6  0.00        90.9  
 125.900  110.02  11.6  0.00        90.9  
 125.920  110.02  11.6  0.00        90.9  
 125.940  110.02  11.6  0.00        90.9  
 125.960  110.03  11.6  0.00        90.9  
 125.980  110.03  11.6  0.00        90.9  
 126.000  110.02  11.6  0.00        90.9  
 126.020  110.02  11.6  0.00        90.9  
 126.040  110.02  11.6  0.00        90.9  
 126.060  110.02  11.6  0.00        90.9  
 126.080  110.02  11.6  0.00        90.9  
 126.100  110.02  11.6  0.00        90.9  
 126.120  110.03  11.6  0.00        90.9  
 126.140  110.02  11.6  0.00        90.9  
 126.160  110.02  11.6  0.00        90.9  
 126.180  110.03  11.6  0.00        90.9  
 126.200  110.03  11.6  0.00        90.9  
 126.220  110.03  11.6  0.00        90.9  
 126.240  110.03  11.6  0.00        90.9  
 126.260  110.02  11.6  0.00        90.9  
 126.280  110.02  11.6  0.00        90.9  
 126.300  110.03  11.6  0.00        90.9  
 126.320  110.03  11.6  0.00        90.9  
 126.340  110.03  11.6  0.00        90.9  
 126.360  110.03  11.6  0.00        90.9  
 126.380  110.02  11.6  0.00        90.9  
 126.400  110.02  11.6  0.00        90.9  
 126.420  110.02  11.6  0.00        90.9  
 126.440  110.02  11.6  0.00        90.9  
 126.460  110.02  11.6  0.00        90.9  
 126.480  110.02  11.6  -0.00       90.9  
 126.500  110.03  11.6  0.00        90.9  
 126.520  110.03  11.6  0.00        90.9  
 126.540  110.03  11.6  0.00        90.9  
 126.560  110.03  11.6  0.00        90.9  
 126.580  110.03  11.6  0.00        90.9  
 126.600  110.03  11.6  0.00        90.9  
 126.620  110.03  11.6  0.00        90.9  
 126.640  110.03  11.6  -0.00       90.9  
 126.660  110.03  11.6  0.00        90.9  
 126.680  110.03  11.6  0.00        90.9  
 126.700  110.03  11.6  -0.00       90.9  
 126.720  110.03  11.6  0.00        90.9  
 126.740  110.03  11.6  0.00        90.9  
 126.760  110.03  11.6  0.00        90.9  
 126.780  110.03  11.6  -0.00       90.9  
 126.800  110.03  11.6  0.00        90.9  
 126.820  110.03  11.6  0.00        90.9  
 126.840  110.03  11.6  0.00        90.9  
 126.860  110.03  11.6  0.00        90.9  
 126.880  110.03  11.6  0.00        90.9  
 126.900  110.03  11.6  0.00        90.9  
 126.920  110.03  11.6  0.00        90.9  
 126.940  110.03  11.6  0.00        90.9  
 126.960  110.03  11.6  0.00        90.9  
 126.980  110.03  11.6  0.00        90.9  
 127.000  110.03  11.6  0.00        90.9  
 127.020  110.03  11.6  0.00        90.9  
 127.040  110.03  11.6  0.00        90.9  
 127.060  110.03  11.6  0.00        90.9  
 127.080  110.03  11.6  0.00        90.9  
 127.100  110.03  11.6  0.00        90.9  
 127.120  110.03  11.6  0.00        90.9  
 127.140  110.03  11.6  0.00        90.9  
 127.160  110.03  11.6  0.00        90.9  
 127.180  110.03  11.6  -0.00       90.9  
 127.200  110.03  11.6  0.00        90.9  
 127.220  110.04  11.6  0.00        90.9  
 127.240  110.04  11.6  0.00        90.9  
 127.260  110.03  11.6  0.00        90.9  
 127.280  110.03  11.6  0.00        90.9  
 127.300  110.04  11.6  0.00        90.9  
 127.320  110.04  11.6  0.00        90.9  
 127.340  110.03  11.6  0.00        90.9  
