#Written by Robertson Geologging WinLogger V1.0/406
~VERSION INFORMATION
#------------------------------------------------------------------------------
 VERS. 2.0 : CWLS LOG ASCII STANDARD - VERSION 2.0
 WRAP. NO  : ONE LINE PER DEPTH STEP
~WELL INFORMATION
#MNEM.UNIT         DATA                                DESCRIPTION OF MNEMONIC
#------------------------------------------------------------------------------
 STRT.M         71.1200                            :   START DEPTH
 STOP.M        471.0000                            :   STOP DEPTH
 STEP.M          0.0100                            :   STEP VALUE
 NULL.        -999.2500                            :   NULL VALUE
 COMP.    Coal Authority                           :   COMPANY NAME
 WELL.    EasingtonShaft                           :   WELL NAME
 FLD.     Easington                                :   FIELD NAME
 LOC.     N/A                                      :   LOCATION
 PROV.    N/A                                      :   PROVINCE
 SRVC.    N/A                                      :   SERVICE COMPANY NAME
 DATE.    27 Aug 08                                :   DATE
 UWI.     N/A                                      :   UNIQUE WELL IDENTIFIER
~PARAMETER INFORMATION
#MNEMO.UNIT         VALUE                 DESCRIPTION OF MNEMONIC
#------------------------------------------------------------------------------
~OTHER INFORMATION SECTION
#------------------------------------------------------------------------------
 TCGS 1365
~CURVE INFORMATION
#MNEMO.UNIT         API CODE              CURVE DESCRIPTION
#------------------------------------------------------------------------------
 DEPTH.M                                 :   0     Depth
 TEMP.DegC                               :   1     Temperature
 CN25.uS/cm                              :   2     Conductivity@25DegC
 DELT.DegC                               :   3     Delta T
 DELC.uS/cm                              :   4     Delta C
 NGAM.CPS                                :   5     Natural Gamma
 COND.uS/cm                              :   6     Conductivity
#------------------------------------------------------------------------------
~A  DEPTH     TEMP      CN25      DELT      DELC      NGAM      COND      
# ...
   363.79     18.15     83.23     -0.04      0.13      0.00     72.06 
   363.80     18.15     83.22     -0.04      0.15      0.00     72.05 
   363.81     18.16     83.20     -0.03      0.10      0.00     72.06 
   363.82     18.18     83.19     -0.02      0.14      0.00     72.09 
   363.83     18.18     83.15     -0.02      0.07     14.00     72.06 
   363.84     18.19     83.11      0.00      0.05      7.00     72.06 
   363.85     18.20     83.12      0.01      0.01      0.00     72.09 
   363.86     18.20     83.09      0.02     -0.01      0.00     72.06 
   363.87     18.18     83.18      0.00      0.04      0.00     72.09 
   363.88     18.18     83.15      0.00      0.05      0.00     72.06 
   363.89     18.16     83.20     -0.02      0.05      0.00     72.05 
   363.90     18.15     83.24     -0.03      0.16      0.00     72.06 
   363.91     18.17     83.21     -0.01      0.12      8.00     72.09 
   363.92     18.17     83.14     -0.01     -0.00      0.00     72.02 
   363.93     18.19     83.15      0.01     -0.01      0.00     72.09 
   363.94     18.19     83.12      0.01     -0.03      0.00     72.06 
   363.95     18.18     83.18     -0.01      0.08      0.00     72.09 
   363.96     18.18     83.14     -0.02      0.06      7.00     72.06 
   363.97     18.17     83.23     -0.03      0.20      7.00     72.10 
   363.98     18.16     83.19     -0.05      0.15      0.00     72.05 
   363.99     18.14     83.30     -0.04      0.17      0.00     72.10 
   364.00     18.15     83.27     -0.02      0.12      0.00     72.10 
   364.01     18.16     83.19     -0.02      0.06      8.00     72.05 
   364.02     18.19     83.17      0.00      0.03      0.00     72.10 
   364.03     18.20     83.12      0.00      0.05      0.00     72.09 
   364.04     18.20     83.09     -0.01      0.04      0.00     72.06 
   364.05     18.19     83.12     -0.01      0.08      0.00     72.06 
   364.06     18.18     83.18     -0.01      0.03      8.00     72.09 
   364.07     18.18     83.14     -0.01      0.09      7.00     72.06 
   364.08     18.18     83.19     -0.00      0.05      0.00     72.09 
   364.09     18.17     83.18     -0.03      0.10      7.00     72.06 
   364.10     18.16     83.26     -0.05      0.21      0.00     72.10 
   364.11     18.17     83.17     -0.02      0.05      0.00     72.05 
   364.12     18.17     83.21     -0.02      0.13      0.00     72.10 
   364.13     18.19     83.11      0.01     -0.04      7.00     72.06 
   364.14     18.20     83.13      0.03     -0.04     16.00     72.09 
   364.15     18.19     83.15      0.00      0.03      0.00     72.10 
   364.16     18.19     83.10      0.00     -0.03      0.00     72.05 
   364.17     18.17     83.21     -0.02      0.07      0.00     72.10 
   364.18     18.15     83.24     -0.05      0.20      0.00     72.06 
   364.19     18.14     83.30     -0.05      0.15      0.00     72.09 
   364.20     18.14     83.30     -0.05      0.22      0.00     72.10 
   364.21     18.15     83.28     -0.04      0.17      0.00     72.09 
   364.22     18.17     83.18     -0.03      0.12      0.00     72.06 
   364.23     18.18     83.19     -0.02      0.14      8.00     72.09 
   364.24     18.18     83.18     -0.01      0.10     14.00     72.10 
   364.25     18.18     83.18     -0.02      0.10      0.00     72.09 
   364.26     18.18     83.15     -0.01      0.04      0.00     72.06 
   364.27     18.17     83.16     -0.02      0.06      8.00     72.05 
   364.28     18.18     83.20     -0.02      0.13      0.00     72.10 
   364.29     18.19     83.16     -0.02      0.10      0.00     72.09 
   364.30     18.20     83.12     -0.02      0.13     14.00     72.10 
   364.31     18.20     83.12     -0.01      0.08      0.00     72.09 
   364.32     18.19     83.10     -0.00      0.00      0.00     72.05 
   364.33     18.19     83.17     -0.00      0.07      0.00     72.10 
   364.34     18.18     83.18      0.00      0.02      0.00     72.09 
   364.35     18.18     83.14      0.00     -0.00      0.00     72.06 
   364.36     18.16     83.24     -0.02      0.12      0.00     72.10 
   364.37     18.17     83.21     -0.01      0.07      0.00     72.09 
   364.38     18.16     83.26     -0.02      0.12      7.00     72.10 
   364.39     18.16     83.19     -0.02      0.07      8.00     72.05 
   364.40     18.18     83.18      0.00      0.03     14.00     72.10 
   364.41     18.18     83.18      0.00      0.05      0.00     72.09 
   364.42     18.18     83.18     -0.00      0.06      0.00     72.10 
   364.43     18.18     83.14      0.00     -0.01      0.00     72.06 
   364.44     18.17     83.21     -0.00      0.07      0.00     72.09 
   364.45     18.15     83.27     -0.03      0.14      0.00     72.10 
   364.46     18.16     83.24     -0.03      0.10      0.00     72.09 
   364.47     18.15     83.27     -0.03      0.20      0.00     72.10 
   364.48     18.15     83.23     -0.02      0.07      7.00     72.06 
   364.49     18.17     83.22     -0.01      0.03      0.00     72.09 
   364.50     18.16     83.26      0.01      0.06      0.00     72.10 
   364.51     18.17     83.22     -0.00      0.01      0.00     72.09 
   364.52     18.17     83.21     -0.00      0.11     14.00     72.10 
   364.53     18.17     83.17     -0.00     -0.02      0.00     72.06 
   364.54     18.16     83.25     -0.01      0.13      0.00     72.09 
   364.55     18.15     83.27     -0.01      0.04      0.00     72.10 
   364.56     18.17     83.22      0.00      0.02      0.00     72.09 
   364.57     18.16     83.26      0.00      0.09      0.00     72.10 
   364.58     18.19     83.11      0.00      0.00      0.00     72.05 
   364.59     18.18     83.14      0.00     -0.01      0.00     72.06 
   364.60     18.16     83.25     -0.02      0.11      0.00     72.09 
   364.61     18.16     83.24     -0.01      0.09      0.00     72.10 
   364.62     18.15     83.24     -0.01      0.04      7.00     72.06 
   364.63     18.16     83.24     -0.01      0.08      8.00     72.09 
   364.64     18.18     83.20      0.00     -0.01      0.00     72.10 
   364.65     18.18     83.18      0.01      0.02      8.00     72.09 
   364.66     18.18     83.20      0.00      0.05      0.00     72.10 
   364.67     18.19     83.16      0.00      0.04      0.00     72.09 
   364.68     18.18     83.20     -0.01      0.04      0.00     72.10 
   364.69     18.17     83.21     -0.03      0.14      8.00     72.09 
   364.70     18.17     83.23     -0.03      0.15      0.00     72.10 
   364.71     18.15     83.27     -0.04      0.14      0.00     72.10 
   364.72     18.17     83.22     -0.02      0.11      0.00     72.09 
   364.73     18.15     83.27     -0.03      0.16     14.00     72.10 
   364.74     18.15     83.27     -0.03      0.15      7.00     72.10 
   364.75     18.14     83.31     -0.04      0.13      0.00     72.09 
   364.76     18.13     83.33     -0.04      0.18      0.00     72.10 
   364.77     18.15     83.34     -0.01      0.09      0.00     72.14 
   364.78     18.15     83.29     -0.00      0.06      7.00     72.10 
   364.79     18.15     83.28     -0.00      0.07      0.00     72.09 
   364.80     18.15     83.29     -0.01      0.09      0.00     72.10 
   364.81     18.15     83.27     -0.02      0.07      8.00     72.09 
   364.82     18.15     83.29     -0.03      0.14      0.00     72.10 
   364.83     18.17     83.22     -0.02      0.11      0.00     72.09 
   364.84     18.17     83.23     -0.03      0.11      0.00     72.10 
   364.85     18.17     83.21     -0.02      0.11      8.00     72.09 
   364.86     18.17     83.23     -0.01      0.05      0.00     72.10 
   364.87     18.17     83.28     -0.01      0.13      0.00     72.14 
   364.88     18.17     83.23      0.01      0.03      7.00     72.10 
   364.89     18.16     83.26      0.01      0.02      7.00     72.10 
   364.90     18.16     83.24     -0.01      0.03      0.00     72.09 
   364.91     18.13     83.33     -0.03      0.20      7.00     72.10 
