#Written by Robertson Geologging WinLogger V1.0/406
~VERSION INFORMATION
#------------------------------------------------------------------------------
 VERS. 2.0 : CWLS LOG ASCII STANDARD - VERSION 2.0
 WRAP. NO  : ONE LINE PER DEPTH STEP
~WELL INFORMATION
#MNEM.UNIT         DATA                                DESCRIPTION OF MNEMONIC
#------------------------------------------------------------------------------
 STRT.M         71.1200                            :   START DEPTH
 STOP.M        471.0000                            :   STOP DEPTH
 STEP.M          0.0100                            :   STEP VALUE
 NULL.        -999.2500                            :   NULL VALUE
 COMP.    Coal Authority                           :   COMPANY NAME
 WELL.    EasingtonShaft                           :   WELL NAME
 FLD.     Easington                                :   FIELD NAME
 LOC.     N/A                                      :   LOCATION
 PROV.    N/A                                      :   PROVINCE
 SRVC.    N/A                                      :   SERVICE COMPANY NAME
 DATE.    27 Aug 08                                :   DATE
 UWI.     N/A                                      :   UNIQUE WELL IDENTIFIER
~PARAMETER INFORMATION
#MNEMO.UNIT         VALUE                 DESCRIPTION OF MNEMONIC
#------------------------------------------------------------------------------
~OTHER INFORMATION SECTION
#------------------------------------------------------------------------------
 TCGS 1365
~CURVE INFORMATION
#MNEMO.UNIT         API CODE              CURVE DESCRIPTION
#------------------------------------------------------------------------------
 DEPTH.M                                 :   0     Depth
 TEMP.DegC                               :   1     Temperature
 CN25.uS/cm                              :   2     Conductivity@25DegC
 DELT.DegC                               :   3     Delta T
 DELC.uS/cm                              :   4     Delta C
 NGAM.CPS                                :   5     Natural Gamma
 COND.uS/cm                              :   6     Conductivity
#------------------------------------------------------------------------------
~A  DEPTH     TEMP      CN25      DELT      DELC      NGAM      COND      
# ...
   442.89     19.24     87.47      0.07     -0.27      0.00     78.77 
   442.90     19.23     87.54      0.06     -0.16      7.00     78.80 
   442.91     19.24     87.51      0.06     -0.14     14.00     78.80 
   442.92     19.25     87.49      0.05     -0.12      0.00     78.81 
   442.93     19.25     87.48      0.06     -0.16      0.00     78.80 
   442.94     19.24     87.54      0.05     -0.08      0.00     78.84 
   442.95     19.25     87.48      0.08     -0.25      7.00     78.80 
   442.96     19.24     87.46      0.07     -0.23      0.00     78.77 
   442.97     19.25     87.53      0.07     -0.14      0.00     78.84 
   442.98     19.25     87.46      0.08     -0.22      7.00     78.80 
   442.99     19.26     87.45      0.07     -0.19      7.00     78.80 
   443.00     19.28     87.40      0.09     -0.24      8.00     78.81 
   443.01     19.27     87.42      0.10     -0.26     14.00     78.80 
   443.02     19.27     87.45      0.10     -0.22      0.00     78.84 
   443.03     19.27     87.41      0.09     -0.30      0.00     78.81 
   443.04     19.26     87.45      0.07     -0.19      0.00     78.80 
   443.05     19.26     87.43      0.07     -0.19      7.00     78.80 
   443.06     19.25     87.48      0.06     -0.13      0.00     78.81 
   443.07     19.25     87.46      0.06     -0.14      0.00     78.80 
   443.08     19.24     87.54      0.06     -0.09      0.00     78.84 
   443.09     19.25     87.48      0.07     -0.16      0.00     78.81 
   443.10     19.26     87.43      0.07     -0.25     21.00     78.80 
   443.11     19.26     87.45      0.08     -0.20      0.00     78.80 
   443.12     19.28     87.40      0.09     -0.22      8.00     78.81 
   443.13     19.27     87.40      0.06     -0.16      0.00     78.80 
   443.14     19.27     87.42      0.07     -0.17      7.00     78.80 
   443.15     19.26     87.45      0.05     -0.16     16.00     78.81 
   443.16     19.26     87.48      0.06     -0.10      0.00     78.84 
   443.17     19.25     87.48      0.05     -0.11      0.00     78.80 
   443.18     19.25     87.48      0.05     -0.16      0.00     78.81 
   443.19     19.25     87.51      0.06     -0.06      7.00     78.84 
   443.20     19.24     87.54      0.06     -0.11      7.00     78.84 
   443.21     19.26     87.45      0.09     -0.27     16.00     78.81 
   443.22     19.27     87.45      0.08     -0.18      0.00     78.84 
   443.23     19.29     87.36      0.09     -0.25     14.00     78.80 
   443.24     19.30     87.40      0.09     -0.22      8.00     78.86 
   443.25     19.30     87.32      0.09     -0.26      7.00     78.80 
   443.26     19.30     87.40      0.10     -0.21      0.00     78.86 
   443.27     19.30     87.35      0.10     -0.29      7.00     78.84 
   443.28     19.30     87.31      0.09     -0.25      7.00     78.80 
   443.29     19.30     87.38      0.09     -0.18      0.00     78.86 
   443.30     19.28     87.37      0.07     -0.23      0.00     78.80 
   443.31     19.29     87.43      0.07     -0.12      0.00     78.86 
   443.32     19.27     87.40      0.07     -0.25      0.00     78.80 
   443.33     19.26     87.48      0.07     -0.14      0.00     78.84 
   443.34     19.28     87.38      0.09     -0.28      0.00     78.81 
   443.35     19.26     87.49      0.06     -0.09      0.00     78.84 
   443.36     19.26     87.50      0.05     -0.08      8.00     78.86 
   443.37     19.26     87.45      0.03     -0.05      7.00     78.80 
   443.38     19.26     87.52      0.04     -0.07      8.00     78.86 
   443.39     19.27     87.42      0.05     -0.13      7.00     78.80 
   443.40     19.27     87.45      0.07     -0.17     14.00     78.84 
   443.41     19.28     87.38      0.09     -0.24      0.00     78.81 
   443.42     19.29     87.40      0.08     -0.23      0.00     78.84 
   443.43     19.30     87.40      0.09     -0.16      8.00     78.86 
   443.44     19.31     87.29      0.10     -0.33      0.00     78.80 
   443.45     19.31     87.28      0.09     -0.31      0.00     78.80 
   443.46     19.31     87.32      0.10     -0.23      7.00     78.84 
   443.47     19.34     87.27      0.12     -0.32     25.00     78.86 
   443.48     19.32     87.31      0.10     -0.28      0.00     78.84 
   443.49     19.31     87.32      0.10     -0.22      0.00     78.84 
   443.50     19.31     87.31      0.10     -0.27     16.00     78.81 
   443.51     19.29     87.39      0.10     -0.28     14.00     78.84 
   443.52     19.31     87.34      0.11     -0.27      0.00     78.84 
   443.53     19.31     87.35      0.10     -0.25      0.00     78.86 
   443.54     19.30     87.35      0.08     -0.22      7.00     78.84 
   443.55     19.30     87.35      0.07     -0.14      0.00     78.84 
   443.56     19.33     87.30      0.10     -0.25      0.00     78.86 
   443.57     19.33     87.26      0.10     -0.29      0.00     78.84 
   443.58     19.34     87.28      0.12     -0.24      7.00     78.88 
   443.59     19.34     87.20      0.12     -0.38      8.00     78.81 
   443.60     19.33     87.32      0.09     -0.22      7.00     78.88 
   443.61     19.33     87.23      0.10     -0.31      8.00     78.81 
   443.62     19.32     87.34      0.10     -0.17      0.00     78.88 
   443.63     19.30     87.35      0.07     -0.18      7.00     78.84 
   443.64     19.32     87.33      0.09     -0.21      0.00     78.86 
   443.65     19.31     87.32      0.08     -0.20      0.00     78.84 
   443.66     19.31     87.37      0.06     -0.07      7.00     78.88 
   443.67     19.33     87.30      0.09     -0.22      0.00     78.86 
   443.68     19.32     87.31      0.08     -0.23      7.00     78.84 
   443.69     19.33     87.29      0.11     -0.29      0.00     78.86 
   443.70     19.34     87.23      0.12     -0.30     14.00     78.84 
   443.71     19.35     87.24      0.14     -0.36      0.00     78.86 
   443.72     19.34     87.28      0.12     -0.31      0.00     78.88 
   443.73     19.35     87.24      0.12     -0.30      0.00     78.86 
   443.74     19.34     87.23      0.13     -0.37      7.00     78.84 
   443.75     19.35     87.18      0.11     -0.30      0.00     78.81 
   443.76     19.35     87.23      0.14     -0.36      0.00     78.88 
   443.77     19.35     87.18      0.12     -0.34      0.00     78.84 
   443.78     19.35     87.28      0.12     -0.25      0.00     78.91 
   443.79     19.36     87.17      0.13     -0.37      7.00     78.84 
   443.80     19.36     87.18      0.13     -0.33      0.00     78.86 
   443.81     19.35     87.23      0.14     -0.30      7.00     78.88 
   443.82     19.35     87.18      0.13     -0.36      0.00     78.84 
   443.83     19.35     87.24      0.11     -0.29      0.00     78.86 
   443.84     19.35     87.24      0.11     -0.27      0.00     78.88 
   443.85     19.35     87.23      0.10     -0.20      7.00     78.88 
   443.86     19.37     87.15      0.13     -0.39      8.00     78.86 
   443.87     19.39     87.08      0.15     -0.45      0.00     78.84 
   443.88     19.39     87.11      0.15     -0.37     21.00     78.88 
   443.89     19.40     87.09      0.17     -0.45      0.00     78.88 
   443.90     19.40     87.07      0.16     -0.44      0.00     78.86 
   443.91     19.39     87.12      0.14     -0.37      0.00     78.88 
   443.92     19.39     87.11      0.14     -0.37      0.00     78.88 
   443.93     19.39     87.09      0.15     -0.46      8.00     78.86 
   443.94     19.38     87.15      0.13     -0.33     14.00     78.88 
   443.95     19.39     87.11      0.15     -0.35      0.00     78.88 
   443.96     19.38     87.11      0.13     -0.42      0.00     78.84 
   443.97     19.39     87.14      0.14     -0.33      8.00     78.91 
   443.98     19.41     87.04      0.15     -0.41      0.00     78.88 
   443.99     19.41     87.06      0.13     -0.34      7.00     78.88 
   444.00     19.42     87.01      0.15     -0.41      0.00     78.88 
   444.01     19.42     86.99      0.15     -0.45      0.00     78.86 
