#Written by Robertson Geologging WinLogger V1.0/406
~VERSION INFORMATION
#------------------------------------------------------------------------------
 VERS. 2.0 : CWLS LOG ASCII STANDARD - VERSION 2.0
 WRAP. NO  : ONE LINE PER DEPTH STEP
~WELL INFORMATION
#MNEM.UNIT         DATA                                DESCRIPTION OF MNEMONIC
#------------------------------------------------------------------------------
 STRT.M         71.1200                            :   START DEPTH
 STOP.M        471.0000                            :   STOP DEPTH
 STEP.M          0.0100                            :   STEP VALUE
 NULL.        -999.2500                            :   NULL VALUE
 COMP.    Coal Authority                           :   COMPANY NAME
 WELL.    EasingtonShaft                           :   WELL NAME
 FLD.     Easington                                :   FIELD NAME
 LOC.     N/A                                      :   LOCATION
 PROV.    N/A                                      :   PROVINCE
 SRVC.    N/A                                      :   SERVICE COMPANY NAME
 DATE.    27 Aug 08                                :   DATE
 UWI.     N/A                                      :   UNIQUE WELL IDENTIFIER
~PARAMETER INFORMATION
#MNEMO.UNIT         VALUE                 DESCRIPTION OF MNEMONIC
#------------------------------------------------------------------------------
~OTHER INFORMATION SECTION
#------------------------------------------------------------------------------
 TCGS 1365
~CURVE INFORMATION
#MNEMO.UNIT         API CODE              CURVE DESCRIPTION
#------------------------------------------------------------------------------
 DEPTH.M                                 :   0     Depth
 TEMP.DegC                               :   1     Temperature
 CN25.uS/cm                              :   2     Conductivity@25DegC
 DELT.DegC                               :   3     Delta T
 DELC.uS/cm                              :   4     Delta C
 NGAM.CPS                                :   5     Natural Gamma
 COND.uS/cm                              :   6     Conductivity
#------------------------------------------------------------------------------
~A  DEPTH     TEMP      CN25      DELT      DELC      NGAM      COND      
# ...
   336.67     18.28     73.01     -0.02      0.11      0.00     63.56 
   336.68     18.30     72.91     -0.01      0.03      0.00     63.51 
   336.69     18.31     72.94      0.00     -0.01      8.00     63.56 
   336.70     18.31     72.92      0.01      0.00      0.00     63.55 
   336.71     18.31     72.87      0.01     -0.03      0.00     63.51 
   336.72     18.31     72.94      0.00      0.05      8.00     63.56 
   336.73     18.30     72.96      0.00     -0.01      7.00     63.55 
   336.74     18.30     72.91      0.01     -0.03      0.00     63.51 
   336.75     18.30     72.96      0.01      0.01      0.00     63.56 
   336.76     18.29     72.93      0.01     -0.08      0.00     63.51 
   336.77     18.29     72.97      0.01      0.02      0.00     63.55 
   336.78     18.30     72.96      0.00      0.04      0.00     63.56 
   336.79     18.30     72.90      0.01     -0.09      0.00     63.51 
   336.80     18.31     72.93      0.03     -0.04      0.00     63.55 
   336.81     18.31     72.93      0.01      0.00      0.00     63.55 
   336.82     18.30     72.90      0.01     -0.08      0.00     63.51 
   336.83     18.28     73.00     -0.02      0.10      0.00     63.55 
   336.84     18.29     72.93     -0.01      0.03      0.00     63.51 
   336.85     18.31     72.92      0.02     -0.08      0.00     63.55 
   336.86     18.31     72.92      0.02     -0.02      0.00     63.55 
   336.87     18.32     72.91      0.03     -0.10      8.00     63.56 
   336.88     18.30     72.90      0.01     -0.04      0.00     63.51 
   336.89     18.30     72.96      0.01      0.06      0.00     63.56 
   336.90     18.29     72.97     -0.01      0.02      7.00     63.55 
   336.91     18.30     72.90     -0.01      0.04      0.00     63.51 
   336.92     18.32     72.91      0.00      0.05      0.00     63.56 
   336.93     18.31     72.94     -0.02      0.08      8.00     63.56 
   336.94     18.33     72.82      0.02     -0.06      7.00     63.51 
   336.95     18.33     72.87      0.03     -0.08      8.00     63.56 
   336.96     18.31     72.92      0.01      0.00      0.00     63.55 
   336.97     18.31     72.87      0.02     -0.10      0.00     63.51 
   336.98     18.30     72.94      0.01      0.02      0.00     63.55 
   336.99     18.28     73.01      0.00      0.01      8.00     63.56 
   337.00     18.29     72.94      0.01     -0.03      7.00     63.51 
   337.01     18.28     72.95      0.02     -0.10      0.00     63.51 
   337.02     18.28     73.00      0.02     -0.01      7.00     63.55 
   337.03     18.29     72.94      0.03     -0.13      0.00     63.51 
   337.04     18.28     73.00      0.02     -0.01      0.00     63.55 
   337.05     18.28     73.02     -0.02      0.06      8.00     63.56 
   337.06     18.29     72.93      0.00      0.00      0.00     63.51 
   337.07     18.28     73.02     -0.01      0.05      0.00     63.56 
   337.08     18.30     72.96      0.00      0.04      8.00     63.56 
   337.09     18.31     72.89      0.03     -0.13      7.00     63.51 
   337.10     18.31     72.92      0.02     -0.00      0.00     63.56 
   337.11     18.32     72.89      0.00     -0.01      0.00     63.55 
   337.12     18.31     72.89     -0.01      0.04      0.00     63.51 
   337.13     18.31     72.92     -0.01      0.03      7.00     63.55 
   337.14     18.31     72.94      0.00      0.01      8.00     63.56 
   337.15     18.31     72.87      0.01     -0.04      0.00     63.51 
   337.16     18.31     72.92      0.01     -0.05      0.00     63.55 
   337.17     18.31     72.94      0.00      0.04      0.00     63.56 
   337.18     18.30     72.94     -0.01      0.03      0.00     63.55 
   337.19     18.29     72.94     -0.01      0.03      0.00     63.51 
   337.20     18.28     73.01     -0.02      0.07      0.00     63.56 
   337.21     18.29     72.99     -0.01      0.03      0.00     63.55 
   337.22     18.28     72.97     -0.02      0.07      0.00     63.51 
   337.23     18.28     73.01     -0.02      0.06      0.00     63.56 
   337.24     18.28     73.00     -0.02      0.10      7.00     63.55 
   337.25     18.29     72.93     -0.02      0.02      8.00     63.51 
   337.26     18.31     72.94      0.01      0.07      0.00     63.56 
   337.27     18.30     72.94      0.00      0.00      0.00     63.55 
   337.28     18.31     72.92      0.02     -0.00      8.00     63.56 
   337.29     18.31     72.87      0.03     -0.14      0.00     63.51 
   337.30     18.31     72.92      0.03     -0.08      7.00     63.55 
   337.31     18.33     72.87      0.05     -0.10      8.00     63.56 
   337.32     18.32     72.90      0.02     -0.06      0.00     63.55 
   337.33     18.31     72.89     -0.00      0.01      8.00     63.51 
   337.34     18.30     72.96     -0.02      0.06      8.00     63.56 
   337.35     18.28     73.00     -0.04      0.12      0.00     63.55 
   337.36     18.29     72.93     -0.01      0.04      0.00     63.51 
   337.37     18.30     72.94      0.00      0.00      7.00     63.55 
   337.38     18.30     72.95      0.00      0.05      8.00     63.56 
   337.39     18.31     72.94      0.00     -0.01      0.00     63.56 
   337.40     18.31     72.82     -0.00     -0.04      0.00     63.47 
   337.41     18.30     72.96     -0.01      0.03      0.00     63.56 
   337.42     18.30     72.94     -0.00      0.06      0.00     63.55 
   337.43     18.30     72.95     -0.00      0.01      0.00     63.56 
   337.44     18.31     72.89      0.00     -0.06      0.00     63.51 
   337.45     18.29     72.97     -0.01      0.07      0.00     63.55 
   337.46     18.30     72.95     -0.01      0.03      8.00     63.56 
   337.47     18.28     73.00     -0.03      0.10      0.00     63.55 
   337.48     18.28     73.01     -0.03      0.13      0.00     63.56 
   337.49     18.31     72.89     -0.01     -0.00      0.00     63.51 
   337.50     18.30     72.95     -0.01      0.09      0.00     63.56 
   337.51     18.31     72.94      0.00     -0.01      0.00     63.56 
   337.52     18.31     72.93     -0.00      0.01      0.00     63.55 
   337.53     18.31     72.87      0.00      0.00      0.00     63.51 
   337.54     18.31     72.92      0.01     -0.03      0.00     63.55 
   337.55     18.30     72.95     -0.02      0.11      0.00     63.56 
   337.56     18.31     72.93     -0.00      0.01      0.00     63.55 
   337.57     18.29     72.94     -0.03      0.08      0.00     63.51 
   337.58     18.29     72.99     -0.03      0.10      0.00     63.56 
   337.59     18.31     72.92      0.00     -0.02      7.00     63.55 
   337.60     18.31     72.94     -0.00      0.06      0.00     63.56 
   337.61     18.31     72.92      0.02     -0.06      0.00     63.55 
   337.62     18.30     72.90      0.00     -0.01      0.00     63.51 
   337.63     18.29     72.99     -0.00      0.06      8.00     63.56 
   337.64     18.28     73.01      0.00     -0.01      0.00     63.56 
   337.65     18.29     72.99      0.00      0.03      0.00     63.55 
   337.66     18.29     72.93      0.01     -0.08      0.00     63.51 
   337.67     18.29     72.99     -0.01      0.08      0.00     63.56 
   337.68     18.29     72.99     -0.02      0.06      0.00     63.56 
   337.69     18.29     72.97     -0.02      0.06      0.00     63.55 
   337.70     18.29     72.98     -0.02      0.11      8.00     63.56 
   337.71     18.29     72.93     -0.01     -0.01      0.00     63.51 
   337.72     18.30     72.96      0.00      0.01      0.00     63.56 
   337.73     18.28     73.00     -0.01      0.09      0.00     63.55 
   337.74     18.30     72.96      0.00      0.00      0.00     63.56 
   337.75     18.29     72.93      0.00      0.00      0.00     63.51 
   337.76     18.29     72.97      0.00      0.00      0.00     63.55 
   337.77     18.30     72.95      0.00     -0.01      0.00     63.56 
   337.78     18.31     72.87      0.01     -0.03      0.00     63.51 
   337.79     18.31     72.94      0.00      0.01      8.00     63.56 
