#Written by Robertson Geologging WinLogger V1.0/406
~VERSION INFORMATION
#------------------------------------------------------------------------------
 VERS. 2.0 : CWLS LOG ASCII STANDARD - VERSION 2.0
 WRAP. NO  : ONE LINE PER DEPTH STEP
~WELL INFORMATION
#MNEM.UNIT         DATA                                DESCRIPTION OF MNEMONIC
#------------------------------------------------------------------------------
 STRT.M         71.1200                            :   START DEPTH
 STOP.M        471.0000                            :   STOP DEPTH
 STEP.M          0.0100                            :   STEP VALUE
 NULL.        -999.2500                            :   NULL VALUE
 COMP.    Coal Authority                           :   COMPANY NAME
 WELL.    EasingtonShaft                           :   WELL NAME
 FLD.     Easington                                :   FIELD NAME
 LOC.     N/A                                      :   LOCATION
 PROV.    N/A                                      :   PROVINCE
 SRVC.    N/A                                      :   SERVICE COMPANY NAME
 DATE.    27 Aug 08                                :   DATE
 UWI.     N/A                                      :   UNIQUE WELL IDENTIFIER
~PARAMETER INFORMATION
#MNEMO.UNIT         VALUE                 DESCRIPTION OF MNEMONIC
#------------------------------------------------------------------------------
~OTHER INFORMATION SECTION
#------------------------------------------------------------------------------
 TCGS 1365
~CURVE INFORMATION
#MNEMO.UNIT         API CODE              CURVE DESCRIPTION
#------------------------------------------------------------------------------
 DEPTH.M                                 :   0     Depth
 TEMP.DegC                               :   1     Temperature
 CN25.uS/cm                              :   2     Conductivity@25DegC
 DELT.DegC                               :   3     Delta T
 DELC.uS/cm                              :   4     Delta C
 NGAM.CPS                                :   5     Natural Gamma
 COND.uS/cm                              :   6     Conductivity
#------------------------------------------------------------------------------
~A  DEPTH     TEMP      CN25      DELT      DELC      NGAM      COND      
# ...
   177.34     12.29     10.82      0.02      0.06      0.00      3.58 
   177.35     12.31     10.76      0.04     -0.05      0.00      3.56 
   177.36     12.31     10.76      0.04     -0.05      0.00      3.56 
   177.37     12.31     10.80      0.04      0.03      0.00      3.58 
   177.38     12.31     10.76      0.04     -0.05      0.00      3.56 
   177.39     12.30     10.81      0.04     -0.00      0.00      3.58 
   177.40     12.30     10.77      0.03      0.01      0.00      3.56 
   177.41     12.30     10.77      0.03     -0.03      0.00      3.56 
   177.42     12.30     10.80      0.04     -0.01      6.00      3.58 
   177.43     12.30     10.78      0.03      0.01      0.00      3.56 
   177.44     12.30     10.77      0.04     -0.04      0.00      3.56 
   177.45     12.30     10.81      0.04     -0.01      0.00      3.58 
   177.46     12.30     10.77      0.03     -0.04      0.00      3.56 
   177.47     12.30     10.81      0.03      0.01      7.00      3.58 
   177.48     12.30     10.78      0.02     -0.02      7.00      3.56 
   177.49     12.30     10.77      0.02     -0.03      7.00      3.56 
   177.50     12.30     10.81      0.03      0.00      0.00      3.58 
   177.51     12.31     10.77      0.03     -0.04      0.00      3.56 
   177.52     12.30     10.81      0.03      0.00      0.00      3.58 
   177.53     12.30     10.78      0.03     -0.03      0.00      3.56 
   177.54     12.30     10.78      0.02     -0.02      0.00      3.56 
   177.55     12.30     10.82      0.02      0.01      0.00      3.58 
   177.56     12.31     10.77      0.03     -0.04      7.00      3.56 
   177.57     12.31     10.80      0.03      0.01      0.00      3.58 
   177.58     12.31     10.76      0.03     -0.04      0.00      3.56 
   177.59     12.32     10.75      0.04     -0.08      0.00      3.56 
   177.60     12.33     10.78      0.04     -0.01      0.00      3.58 
   177.61     12.33     10.74      0.04     -0.05      0.00      3.56 
   177.62     12.33     10.78      0.04     -0.00      7.00      3.58 
   177.63     12.32     10.75      0.03     -0.04      0.00      3.56 
   177.64     12.32     10.76      0.02     -0.03      7.00      3.56 
   177.65     12.32     10.79      0.02     -0.02      7.00      3.58 
   177.66     12.32     10.76      0.02     -0.03      0.00      3.56 
   177.67     12.31     10.80      0.02      0.02      0.00      3.58 
   177.68     12.30     10.77      0.02     -0.02      0.00      3.56 
   177.69     12.30     10.77      0.02     -0.06      7.00      3.56 
   177.70     12.30     10.82      0.01      0.02      0.00      3.58 
   177.71     12.31     10.77      0.02     -0.03      0.00      3.56 
   177.72     12.31     10.80      0.03      0.01      7.00      3.58 
   177.73     12.31     10.77      0.02     -0.06      0.00      3.56 
   177.74     12.31     10.79      0.02      0.01      6.00      3.58 
   177.75     12.31     10.76      0.01     -0.01      0.00      3.56 
   177.76     12.30     10.77     -0.00      0.01      0.00      3.56 
   177.77     12.30     10.81      0.00      0.00     14.00      3.58 
   177.78     12.30     10.77      0.00      0.00      0.00      3.56 
   177.79     12.31     10.79      0.02      0.01      0.00      3.58 
   177.80     12.32     10.75      0.03     -0.03      7.00      3.56 
   177.81     12.32     10.79      0.02     -0.03      0.00      3.58 
   177.82     12.33     10.74      0.03     -0.03      0.00      3.56 
   177.83     12.32     10.76      0.01     -0.01     12.00      3.56 
   177.84     12.31     10.80      0.00     -0.01      0.00      3.58 
   177.85     12.31     10.76      0.01     -0.01      0.00      3.56 
   177.86     12.30     10.81      0.00      0.03      0.00      3.58 
   177.87     12.31     10.77      0.02     -0.02      0.00      3.56 
   177.88     12.31     10.80      0.02     -0.03      0.00      3.58 
   177.89     12.31     10.76      0.02     -0.02      0.00      3.56 
   177.90     12.32     10.76      0.01     -0.01      7.00      3.56 
   177.91     12.31     10.80      0.00      0.00      0.00      3.58 
   177.92     12.31     10.76      0.00      0.00      6.00      3.56 
   177.93     12.31     10.80     -0.00      0.04      7.00      3.58 
   177.94     12.30     10.77     -0.01     -0.03      0.00      3.56 
   177.95     12.30     10.81     -0.02      0.06      0.00      3.58 
   177.96     12.30     10.77     -0.02      0.03     21.00      3.56 
   177.97     12.31     10.77     -0.01     -0.03      0.00      3.56 
   177.98     12.30     10.81     -0.01      0.05      0.00      3.58 
   177.99     12.32     10.75      0.01     -0.01      7.00      3.56 
   178.00     12.32     10.79      0.00      0.00      0.00      3.58 
   178.01     12.32     10.76      0.00      0.00      0.00      3.56 
   178.02     12.33     10.78      0.01      0.02      0.00      3.58 
   178.03     12.31     10.76      0.00     -0.04     12.00      3.56 
   178.04     12.31     10.80      0.01      0.03      0.00      3.58 
   178.05     12.31     10.76      0.01     -0.01      7.00      3.56 
   178.06     12.31     10.77      0.00     -0.04      0.00      3.56 
   178.07     12.31     10.80      0.01      0.03      0.00      3.58 
   178.08     12.32     10.75      0.02     -0.03      7.00      3.56 
   178.09     12.32     10.78      0.03     -0.04      6.00      3.58 
   178.10     12.33     10.74      0.04     -0.05      0.00      3.56 
   178.11     12.32     10.79      0.03     -0.03     14.00      3.58 
   178.12     12.31     10.76      0.01     -0.01      0.00      3.56 
   178.13     12.32     10.79      0.01      0.02      0.00      3.58 
   178.14     12.31     10.77     -0.01     -0.02      0.00      3.56 
   178.15     12.31     10.80     -0.01      0.05      0.00      3.58 
   178.16     12.31     10.76      0.00      0.00      0.00      3.56 
   178.17     12.31     10.80      0.00      0.00      0.00      3.58 
   178.18     12.31     10.76      0.02     -0.02      6.00      3.56 
   178.19     12.31     10.76      0.01     -0.02      0.00      3.56 
   178.20     12.31     10.80      0.01     -0.01      0.00      3.58 
   178.21     12.30     10.77     -0.01      0.01      7.00      3.56 
   178.22     12.31     10.80     -0.01      0.01      0.00      3.58 
   178.23     12.31     10.76      0.00      0.00      0.00      3.56 
   178.24     12.31     10.80      0.00      0.04      0.00      3.58 
   178.25     12.32     10.76      0.00     -0.04      0.00      3.56 
   178.26     12.31     10.80      0.00      0.03      0.00      3.58 
   178.27     12.30     10.77     -0.01      0.02      0.00      3.56 
   178.28     12.31     10.80     -0.00      0.01      7.00      3.58 
   178.29     12.31     10.77     -0.00      0.01      0.00      3.56 
   178.30     12.32     10.78      0.01     -0.02      0.00      3.58 
   178.31     12.33     10.74      0.02     -0.03      7.00      3.56 
   178.32     12.32     10.79      0.02      0.02      0.00      3.58 
   178.33     12.33     10.74      0.04     -0.08      7.00      3.56 
   178.34     12.33     10.78      0.02      0.02      7.00      3.58 
   178.35     12.34     10.73      0.02     -0.03      6.00      3.56 
   178.36     12.34     10.77      0.02     -0.03      0.00      3.58 
   178.37     12.33     10.74      0.01     -0.02      0.00      3.56 
   178.38     12.32     10.75      0.02     -0.06      0.00      3.56 
   178.39     12.31     10.79      0.01      0.02      0.00      3.58 
   178.40     12.31     10.76      0.01     -0.01      7.00      3.56 
   178.41     12.32     10.79      0.01     -0.01      7.00      3.58 
   178.42     12.33     10.74      0.03     -0.03      0.00      3.56 
   178.43     12.34     10.77      0.03     -0.00      0.00      3.58 
   178.44     12.34     10.73      0.03     -0.08      7.00      3.56 
   178.45     12.32     10.79      0.02      0.02      0.00      3.58 
   178.46     12.32     10.75      0.02     -0.06      7.00      3.56 
