#Written by Robertson Geologging WinLogger V1.0/406
~VERSION INFORMATION
#------------------------------------------------------------------------------
 VERS. 2.0 : CWLS LOG ASCII STANDARD - VERSION 2.0
 WRAP. NO  : ONE LINE PER DEPTH STEP
~WELL INFORMATION
#MNEM.UNIT         DATA                                DESCRIPTION OF MNEMONIC
#------------------------------------------------------------------------------
 STRT.M         71.1200                            :   START DEPTH
 STOP.M        471.0000                            :   STOP DEPTH
 STEP.M          0.0100                            :   STEP VALUE
 NULL.        -999.2500                            :   NULL VALUE
 COMP.    Coal Authority                           :   COMPANY NAME
 WELL.    EasingtonShaft                           :   WELL NAME
 FLD.     Easington                                :   FIELD NAME
 LOC.     N/A                                      :   LOCATION
 PROV.    N/A                                      :   PROVINCE
 SRVC.    N/A                                      :   SERVICE COMPANY NAME
 DATE.    27 Aug 08                                :   DATE
 UWI.     N/A                                      :   UNIQUE WELL IDENTIFIER
~PARAMETER INFORMATION
#MNEMO.UNIT         VALUE                 DESCRIPTION OF MNEMONIC
#------------------------------------------------------------------------------
~OTHER INFORMATION SECTION
#------------------------------------------------------------------------------
 TCGS 1365
~CURVE INFORMATION
#MNEMO.UNIT         API CODE              CURVE DESCRIPTION
#------------------------------------------------------------------------------
 DEPTH.M                                 :   0     Depth
 TEMP.DegC                               :   1     Temperature
 CN25.uS/cm                              :   2     Conductivity@25DegC
 DELT.DegC                               :   3     Delta T
 DELC.uS/cm                              :   4     Delta C
 NGAM.CPS                                :   5     Natural Gamma
 COND.uS/cm                              :   6     Conductivity
#------------------------------------------------------------------------------
~A  DEPTH     TEMP      CN25      DELT      DELC      NGAM      COND      
# ...
   124.23     11.60      9.05      0.02     -0.06      8.00      1.73 
   124.24     11.60      9.09      0.02      0.01      0.00      1.76 
   124.25     11.60      9.05      0.04     -0.04      0.00      1.73 
   124.26     11.60      9.06      0.03     -0.03      0.00      1.73 
   124.27     11.60      9.10      0.03     -0.03      0.00      1.76 
   124.28     11.59      9.06      0.01     -0.01      0.00      1.73 
   124.29     11.58      9.07     -0.01      0.01      0.00      1.73 
   124.30     11.59      9.10     -0.00      0.00      0.00      1.76 
   124.31     11.59      9.06      0.00      0.00      0.00      1.73 
   124.32     11.59      9.06      0.00     -0.00      7.00      1.73 
   124.33     11.60      9.10      0.02     -0.02      0.00      1.76 
   124.34     11.59      9.06      0.02     -0.02      0.00      1.73 
   124.35     11.59      9.06      0.02     -0.02      0.00      1.73 
   124.36     11.59      9.10      0.01     -0.01      7.00      1.76 
   124.37     11.59      9.06      0.01     -0.01      0.00      1.73 
   124.38     11.60      9.06      0.01     -0.01      0.00      1.73 
   124.39     11.60      9.10      0.01     -0.01     21.00      1.76 
   124.40     11.61      9.05      0.01     -0.01      0.00      1.73 
   124.41     11.60      9.05      0.03     -0.03      0.00      1.73 
   124.42     11.59      9.10      0.02     -0.02      0.00      1.76 
   124.43     11.59      9.06      0.02     -0.02      0.00      1.73 
   124.44     11.59      9.07      0.02     -0.02      0.00      1.73 
   124.45     11.59      9.10      0.01      0.02      0.00      1.76 
   124.46     11.59      9.07      0.00     -0.04     14.00      1.73 
   124.47     11.58      9.07     -0.00      0.00      0.00      1.73 
   124.48     11.58      9.11     -0.00      0.04      0.00      1.76 
   124.49     11.58      9.07      0.00     -0.04      0.00      1.73 
   124.50     11.58      9.07      0.01     -0.01      0.00      1.73 
   124.51     11.59      9.11      0.01      0.03      0.00      1.77 
   124.52     11.59      9.07      0.00     -0.04      0.00      1.73 
   124.53     11.59      9.07     -0.01      0.01      0.00      1.73 
   124.54     11.58      9.07     -0.02      0.02      0.00      1.73 
   124.55     11.58      9.11     -0.02      0.02      0.00      1.76 
   124.56     11.59      9.06      0.00      0.00      7.00      1.73 
   124.57     11.60      9.06      0.01     -0.01      8.00      1.73 
   124.58     11.61      9.09      0.02     -0.02      0.00      1.76 
   124.59     11.61      9.04      0.04     -0.04      0.00      1.73 
   124.60     11.61      9.05      0.04     -0.04      7.00      1.73 
   124.61     11.60      9.09      0.04     -0.04      0.00      1.76 
   124.62     11.60      9.06      0.03     -0.03      0.00      1.73 
   124.63     11.59      9.07      0.00     -0.00      0.00      1.73 
   124.64     11.59      9.10      0.01     -0.02      0.00      1.76 
   124.65     11.59      9.06      0.00     -0.00      0.00      1.73 
   124.66     11.59      9.06      0.00      0.00      0.00      1.73 
   124.67     11.60      9.10      0.01     -0.01      0.00      1.76 
   124.68     11.59      9.07     -0.00      0.00      7.00      1.73 
   124.69     11.58      9.07     -0.01      0.01      0.00      1.73 
   124.70     11.57      9.12     -0.01      0.05      0.00      1.76 
   124.71     11.57      9.08     -0.02     -0.02      0.00      1.73 
   124.72     11.58      9.08     -0.02      0.02      0.00      1.73 
   124.73     11.59      9.06      0.00      0.00      0.00      1.73 
   124.74     11.60      9.10      0.00     -0.00      7.00      1.76 
   124.75     11.59      9.07     -0.00      0.00      0.00      1.73 
   124.76     11.58      9.07      0.00     -0.00      0.00      1.73 
   124.77     11.57      9.12     -0.01      0.01      0.00      1.76 
   124.78     11.57      9.08     -0.01      0.01      0.00      1.73 
   124.79     11.58      9.08     -0.00      0.00      7.00      1.73 
   124.80     11.59      9.10     -0.00      0.00      7.00      1.76 
   124.81     11.60      9.06      0.00      0.00      0.00      1.73 
   124.82     11.60      9.06      0.00     -0.00      0.00      1.73 
   124.83     11.59      9.10      0.00      0.00      7.00      1.76 
   124.84     11.59      9.06      0.00     -0.00      8.00      1.73 
   124.85     11.60      9.06      0.01     -0.01      6.00      1.73 
   124.86     11.60      9.10      0.00      0.01      8.00      1.77 
   124.87     11.60      9.05      0.01     -0.01      0.00      1.73 
   124.88     11.60      9.05      0.01     -0.01      8.00      1.73 
   124.89     11.60      9.09      0.01     -0.01      0.00      1.76 
   124.90     11.61      9.05      0.03     -0.03     14.00      1.73 
   124.91     11.60      9.06      0.03     -0.03      0.00      1.73 
   124.92     11.59      9.10      0.03     -0.03      0.00      1.76 
   124.93     11.59      9.07      0.02     -0.02      7.00      1.73 
   124.94     11.58      9.08      0.00     -0.00      0.00      1.73 
   124.95     11.58      9.11      0.00      0.00      0.00      1.76 
   124.96     11.58      9.07      0.01     -0.01      7.00      1.73 
   124.97     11.58      9.08      0.01     -0.01      0.00      1.73 
   124.98     11.59      9.10      0.01     -0.01      7.00      1.76 
   124.99     11.59      9.07      0.01     -0.01      0.00      1.73 
   125.00     11.59      9.06      0.01     -0.01      0.00      1.73 
   125.01     11.60      9.10      0.02     -0.02      0.00      1.76 
   125.02     11.59      9.07      0.02     -0.02      0.00      1.73 
   125.03     11.59      9.07      0.02     -0.02      0.00      1.73 
   125.04     11.57      9.08     -0.00     -0.03      0.00      1.73 
   125.05     11.56      9.13     -0.01      0.05      7.00      1.76 
   125.06     11.56      9.09     -0.02      0.02      0.00      1.73 
   125.07     11.57      9.09     -0.02     -0.02      0.00      1.73 
   125.08     11.58      9.11      0.00      0.04      7.00      1.76 
   125.09     11.60      9.06      0.01     -0.01      0.00      1.73 
   125.10     11.59      9.06      0.00     -0.04      0.00      1.73 
   125.11     11.59      9.10      0.00      0.03     14.00      1.76 
   125.12     11.57      9.08     -0.02      0.02      0.00      1.73 
   125.13     11.56      9.10     -0.04      0.00      0.00      1.73 
   125.14     11.56      9.13     -0.03      0.07      7.00      1.76 
   125.15     11.56      9.10     -0.04      0.04      7.00      1.73 
   125.16     11.56      9.09     -0.03      0.03      7.00      1.73 
   125.17     11.57      9.12     -0.01      0.01      0.00      1.76 
   125.18     11.57      9.08      0.00      0.00      0.00      1.73 
   125.19     11.58      9.08      0.00     -0.00      7.00      1.73 
   125.20     11.58      9.11      0.00      0.00      0.00      1.76 
   125.21     11.57      9.08     -0.01      0.01      0.00      1.73 
   125.22     11.57      9.08     -0.03      0.03      7.00      1.73 
   125.23     11.58      9.11     -0.02      0.02      0.00      1.76 
   125.24     11.58      9.07     -0.02      0.02     14.00      1.73 
   125.25     11.59      9.07     -0.01      0.01      0.00      1.73 
   125.26     11.60      9.10      0.00      0.00      0.00      1.76 
   125.27     11.59      9.06      0.00      0.00      7.00      1.73 
   125.28     11.59      9.06      0.01     -0.01      7.00      1.73 
   125.29     11.58      9.11     -0.01      0.01      7.00      1.76 
   125.30     11.57      9.09     -0.02      0.02      0.00      1.73 
   125.31     11.57      9.08     -0.02      0.02      0.00      1.73 
   125.32     11.56      9.13     -0.03      0.03      0.00      1.76 
   125.33     11.57      9.08     -0.02      0.02      0.00      1.73 
   125.34     11.57      9.08     -0.02      0.02      0.00      1.73 
   125.35     11.57      9.12     -0.02      0.02      0.00      1.76 
