#Written by Robertson Geologging WinLogger V1.0/406
~VERSION INFORMATION
#------------------------------------------------------------------------------
 VERS. 2.0 : CWLS LOG ASCII STANDARD - VERSION 2.0
 WRAP. NO  : ONE LINE PER DEPTH STEP
~WELL INFORMATION
#MNEM.UNIT         DATA                                DESCRIPTION OF MNEMONIC
#------------------------------------------------------------------------------
 STRT.M         71.1200                            :   START DEPTH
 STOP.M        471.0000                            :   STOP DEPTH
 STEP.M          0.0100                            :   STEP VALUE
 NULL.        -999.2500                            :   NULL VALUE
 COMP.    Coal Authority                           :   COMPANY NAME
 WELL.    EasingtonShaft                           :   WELL NAME
 FLD.     Easington                                :   FIELD NAME
 LOC.     N/A                                      :   LOCATION
 PROV.    N/A                                      :   PROVINCE
 SRVC.    N/A                                      :   SERVICE COMPANY NAME
 DATE.    27 Aug 08                                :   DATE
 UWI.     N/A                                      :   UNIQUE WELL IDENTIFIER
~PARAMETER INFORMATION
#MNEMO.UNIT         VALUE                 DESCRIPTION OF MNEMONIC
#------------------------------------------------------------------------------
~OTHER INFORMATION SECTION
#------------------------------------------------------------------------------
 TCGS 1365
~CURVE INFORMATION
#MNEMO.UNIT         API CODE              CURVE DESCRIPTION
#------------------------------------------------------------------------------
 DEPTH.M                                 :   0     Depth
 TEMP.DegC                               :   1     Temperature
 CN25.uS/cm                              :   2     Conductivity@25DegC
 DELT.DegC                               :   3     Delta T
 DELC.uS/cm                              :   4     Delta C
 NGAM.CPS                                :   5     Natural Gamma
 COND.uS/cm                              :   6     Conductivity
#------------------------------------------------------------------------------
~A  DEPTH     TEMP      CN25      DELT      DELC      NGAM      COND      
    71.12     11.98      7.93      0.00      0.00      8.00      1.20 
    71.13     11.96      7.95      0.00      0.00      0.00      1.19 
    71.14     11.94      7.98      0.00      0.00     16.00      1.20 
    71.15     11.91      8.01      0.00      0.00      8.00      1.20 
    71.16     11.89      8.02      0.00      0.00      8.00      1.20 
    71.17     11.88      8.09      0.00      0.00     16.00      1.23 
    71.18     11.86      8.05      0.00      0.00      0.00      1.20 
    71.19     11.84      8.04      0.00      0.00      0.00      1.17 
    71.20     11.83      8.09      0.00      0.00      8.00      1.20 
    71.21     11.80      8.12      0.00      0.00      8.00      1.20 
    71.22     11.79      8.15      0.00      0.00      0.00      1.21 
    71.23     11.78      8.14      0.00      0.00      8.00      1.20 
    71.24     11.76      8.16      0.00      0.00      8.00      1.20 
    71.25     11.76      8.18      0.00      0.00     20.00      1.21 
    71.26     11.75      8.17      0.00      0.00      8.00      1.20 
    71.27     11.75      8.19      0.00      0.00     10.00      1.21 
    71.28     11.74      8.18      0.00      0.00     33.00      1.20 
    71.29     11.73      8.15      0.00      0.00     10.00      1.17 
    71.30     11.72      8.20      0.00      0.00      0.00      1.20 
    71.31     11.72      8.22      0.00      0.00      0.00      1.21 
    71.32     11.72      8.20      0.00      0.00      0.00      1.20 
    71.33     11.71      8.21      0.00      0.00     16.00      1.20 
    71.34     11.71      8.21      0.00      0.00      8.00      1.20 
    71.35     11.69      8.23      0.00      0.00      8.00      1.20 
    71.36     11.68      8.24      0.00      0.00      8.00      1.20 
    71.37     11.67      8.25      0.00      0.00      0.00      1.20 
    71.38     11.66      8.26      0.00      0.00      0.00      1.20 
    71.39     11.65      8.27      0.00      0.00      0.00      1.20 
    71.40     11.64      8.28      0.00      0.00      8.00      1.20 
    71.41     11.65      8.27      0.00      0.00      8.00      1.20 
    71.42     11.65      8.27      0.00      0.00      8.00      1.20 
    71.43     11.64      8.30      0.00      0.00      7.00      1.22 
    71.44     11.65      8.27      0.00      0.00      0.00      1.20 
    71.45     11.63      8.28      0.00      0.00     14.00      1.19 
    71.46     11.62      8.30      0.00      0.00      8.00      1.20 
    71.47     11.62      8.29      0.00      0.00     14.00      1.19 
    71.48     11.61      8.31      0.00      0.00      0.00      1.20 
    71.49     11.62      8.33      0.00      0.00      7.00      1.22 
    71.50     11.61      8.30      0.00      0.00     14.00      1.19 
    71.51     11.61      8.30      0.00      0.00      0.00      1.19 
    71.52     11.60      8.34      0.00      0.00      7.00      1.22 
    71.53     11.59      8.32      0.00      0.00      7.00      1.19 
    71.54     11.59      8.32      0.00      0.00      7.00      1.19 
    71.55     11.58      8.37      0.00      0.00     21.00      1.22 
    71.56     11.59      8.32      0.00      0.00     28.00      1.19 
    71.57     11.59      8.33      0.00      0.00     16.00      1.20 
    71.58     11.59      8.32      0.00      0.00      0.00      1.19 
    71.59     11.60      8.34      0.00      0.00      7.00      1.22 
    71.60     11.60      8.31      0.00      0.00      7.00      1.19 
    71.61     11.58      8.32      0.00      0.00      0.00      1.19 
    71.62     11.58      8.36      0.00      0.00      0.00      1.22 
    71.63     11.57      8.33      0.00      0.00      0.00      1.19 
    71.64     11.56      8.34      0.00      0.00      0.00      1.19 
    71.65     11.57      8.33      0.00      0.00      0.00      1.19 
    71.66     11.57      8.37      0.00      0.00      0.00      1.22 
    71.67     11.57      8.33      0.00      0.00      0.00      1.18 
    71.68     11.56      8.39      0.00      0.00      0.00      1.22 
    71.69     11.56      8.35      0.00      0.00      0.00      1.19 
    71.70     11.55      8.36      0.00      0.00      0.00      1.19 
    71.71     11.55      8.40      0.00      0.00      0.00      1.22 
    71.72     11.55      8.36      0.00      0.00      0.00      1.19 
    71.73     11.54      8.37      0.00      0.00      0.00      1.19 
    71.74     11.54      8.37      0.00      0.00      7.00      1.19 
    71.75     11.54      8.41      0.00      0.00      0.00      1.22 
    71.76     11.53      8.38      0.00      0.00      0.00      1.19 
    71.77     11.53      8.38      0.00      0.00     14.00      1.19 
    71.78     11.54      8.37      0.00      0.00      0.00      1.19 
    71.79     11.55      8.36      0.00      0.00     14.00      1.19 
    71.80     11.54      8.37      0.00      0.00      7.00      1.19 
    71.81     11.55      8.36      0.00      0.00      0.00      1.19 
    71.82     11.54      8.41      0.00      0.00      7.00      1.22 
    71.83     11.53      8.38      0.00      0.00      0.00      1.19 
    71.84     11.53      8.38      0.00      0.00      7.00      1.19 
    71.85     11.53      8.38      0.00      0.00      7.00      1.19 
    71.86     11.53      8.42      0.00      0.00      0.00      1.22 
    71.87     11.53      8.38     -1.02      0.99      0.00      1.19 
    71.88     11.52      8.39     -1.01      1.00      7.00      1.19 
    71.89     11.53      8.39     -0.98      0.98      0.00      1.20 
    71.90     11.53      8.38     -0.96      0.93      0.00      1.19 
    71.91     11.54      8.41     -0.93      0.94      7.00      1.22 
    71.92     11.55      8.36     -0.88      0.85      7.00      1.19 
    71.93     11.55      8.36     -0.86      0.85      0.00      1.19 
    71.94     11.54      8.37     -0.85      0.84      0.00      1.19 
    71.95     11.53      8.42     -0.84      0.85      0.00      1.22 
    71.96     11.52      8.39     -0.83      0.82      7.00      1.19 
    71.97     11.52      8.39     -0.81      0.82      7.00      1.19 
    71.98     11.53      8.39     -0.77      0.75      8.00      1.20 
    71.99     11.54      8.37     -0.72      0.69      0.00      1.19 
    72.00     11.54      8.41     -0.70      0.73      0.00      1.22 
    72.01     11.54      8.38     -0.68      0.69      0.00      1.20 
    72.02     11.54      8.37     -0.66      0.65      7.00      1.19 
    72.03     11.53      8.38     -0.64      0.61      7.00      1.19 
    72.04     11.54      8.38     -0.61      0.61      0.00      1.20 
    72.05     11.53      8.38     -0.58      0.55      7.00      1.19 
    72.06     11.52      8.40     -0.56      0.57      0.00      1.20 
    72.07     11.53      8.38     -0.54      0.53     14.00      1.19 
    72.08     11.54      8.38     -0.51      0.53      0.00      1.20 
    72.09     11.54      8.41     -0.49      0.52     14.00      1.22 
    72.10     11.55      8.33     -0.46      0.37      0.00      1.16 
    72.11     11.54      8.41     -0.45      0.48      0.00      1.22 
    72.12     11.54      8.38     -0.42      0.43      0.00      1.20 
    72.13     11.53      8.38     -0.42      0.41      0.00      1.19 
    72.14     11.52      8.40     -0.39      0.39      0.00      1.20 
    72.15     11.52      8.40     -0.37      0.37      8.00      1.20 
    72.16     11.52      8.39     -0.36      0.30      0.00      1.19 
    72.17     11.52      8.40     -0.34      0.34      0.00      1.20 
    72.18     11.52      8.40     -0.33      0.36      0.00      1.20 
    72.19     11.52      8.39     -0.31      0.30      0.00      1.19 
    72.20     11.52      8.40     -0.28      0.28      8.00      1.20 
    72.21     11.52      8.40     -0.27      0.25      8.00      1.20 
    72.22     11.52      8.39     -0.26      0.25      0.00      1.19 
    72.23     11.52      8.40     -0.25      0.25      0.00      1.20 
    72.24     11.50      8.41     -0.26      0.23      0.00      1.19 
