#Written by Robertson Geologging WinLogger V1.0/406
~VERSION INFORMATION
#------------------------------------------------------------------------------
 VERS. 2.0 : CWLS LOG ASCII STANDARD - VERSION 2.0
 WRAP. NO  : ONE LINE PER DEPTH STEP
~WELL INFORMATION
#MNEM.UNIT         DATA                                DESCRIPTION OF MNEMONIC
#------------------------------------------------------------------------------
 STRT.M         71.1200                            :   START DEPTH
 STOP.M        471.0000                            :   STOP DEPTH
 STEP.M          0.0100                            :   STEP VALUE
 NULL.        -999.2500                            :   NULL VALUE
 COMP.    Coal Authority                           :   COMPANY NAME
 WELL.    EasingtonShaft                           :   WELL NAME
 FLD.     Easington                                :   FIELD NAME
 LOC.     N/A                                      :   LOCATION
 PROV.    N/A                                      :   PROVINCE
 SRVC.    N/A                                      :   SERVICE COMPANY NAME
 DATE.    27 Aug 08                                :   DATE
 UWI.     N/A                                      :   UNIQUE WELL IDENTIFIER
~PARAMETER INFORMATION
#MNEMO.UNIT         VALUE                 DESCRIPTION OF MNEMONIC
#------------------------------------------------------------------------------
~OTHER INFORMATION SECTION
#------------------------------------------------------------------------------
 TCGS 1365
~CURVE INFORMATION
#MNEMO.UNIT         API CODE              CURVE DESCRIPTION
#------------------------------------------------------------------------------
 DEPTH.M                                 :   0     Depth
 TEMP.DegC                               :   1     Temperature
 CN25.uS/cm                              :   2     Conductivity@25DegC
 DELT.DegC                               :   3     Delta T
 DELC.uS/cm                              :   4     Delta C
 NGAM.CPS                                :   5     Natural Gamma
 COND.uS/cm                              :   6     Conductivity
#------------------------------------------------------------------------------
~A  DEPTH     TEMP      CN25      DELT      DELC      NGAM      COND      
# ...
    98.24     11.44      8.82     -0.00      0.00     21.00      1.44 
    98.25     11.45      8.81      0.00      0.00      0.00      1.44 
    98.26     11.44      8.82     -0.00      0.00      0.00      1.44 
    98.27     11.44      8.82     -0.00     -0.03      7.00      1.44 
    98.28     11.45      8.81      0.00      0.00      0.00      1.44 
    98.29     11.44      8.82     -0.01      0.01      0.00      1.44 
    98.30     11.45      8.81     -0.00      0.00      7.00      1.44 
    98.31     11.45      8.81      0.00     -0.00      0.00      1.44 
    98.32     11.45      8.81      0.01     -0.01      0.00      1.44 
    98.33     11.44      8.82      0.01     -0.01      0.00      1.44 
    98.34     11.44      8.86      0.00      0.03      0.00      1.47 
    98.35     11.44      8.82      0.00     -0.00      0.00      1.44 
    98.36     11.44      8.82      0.00      0.00      0.00      1.44 
    98.37     11.45      8.81      0.01     -0.01      0.00      1.44 
    98.38     11.44      8.82      0.00      0.00      7.00      1.44 
    98.39     11.45      8.81      0.01     -0.01      0.00      1.44 
    98.40     11.44      8.82      0.02     -0.06      0.00      1.44 
    98.41     11.44      8.82      0.01     -0.01      7.00      1.44 
    98.42     11.46      8.80      0.02     -0.01      0.00      1.44 
    98.43     11.45      8.81      0.01     -0.01      0.00      1.44 
    98.44     11.46      8.80      0.00     -0.00      7.00      1.44 
    98.45     11.45      8.85     -0.01      0.05      7.00      1.47 
    98.46     11.44      8.82     -0.02      0.02      0.00      1.44 
    98.47     11.44      8.82     -0.02      0.02      0.00      1.44 
    98.48     11.44      8.82     -0.00     -0.03      0.00      1.44 
    98.49     11.44      8.82      0.00      0.00      7.00      1.44 
    98.50     11.44      8.82     -0.00      0.00      0.00      1.44 
    98.51     11.44      8.82      0.00      0.00      0.00      1.44 
    98.52     11.44      8.82      0.00      0.00      7.00      1.44 
    98.53     11.44      8.82     -0.01      0.01      0.00      1.44 
    98.54     11.43      8.83     -0.01      0.03      0.00      1.44 
    98.55     11.43      8.83     -0.02     -0.01      7.00      1.44 
    98.56     11.43      8.83     -0.02      0.02      0.00      1.44 
    98.57     11.44      8.86     -0.01      0.05      0.00      1.47 
    98.58     11.44      8.82     -0.01      0.01      7.00      1.44 
    98.59     11.45      8.81     -0.00      0.00      7.00      1.44 
    98.60     11.45      8.79     -0.00     -0.01     16.00      1.43 
    98.61     11.45      8.81     -0.00      0.02     14.00      1.44 
    98.62     11.46      8.80      0.00     -0.04      7.00      1.44 
    98.63     11.46      8.80      0.00      0.00     14.00      1.44 
    98.64     11.46      8.84     -0.00      0.04      0.00      1.47 
    98.65     11.46      8.80      0.01     -0.01      0.00      1.44 
    98.66     11.45      8.81      0.00      0.00      0.00      1.44 
    98.67     11.43      8.83     -0.01      0.01      0.00      1.44 
    98.68     11.43      8.83     -0.01      0.03      0.00      1.44 
    98.69     11.43      8.83     -0.02      0.02      7.00      1.44 
    98.70     11.43      8.83     -0.00     -0.03      0.00      1.44 
    98.71     11.44      8.84      0.00      0.02      0.00      1.46 
    98.72     11.46      8.80      0.02     -0.02      7.00      1.44 
    98.73     11.46      8.80      0.03     -0.03      7.00      1.44 
    98.74     11.47      8.79      0.02     -0.02      0.00      1.44 
    98.75     11.46      8.80      0.01      0.01      0.00      1.44 
    98.76     11.44      8.82     -0.02      0.02      0.00      1.44 
    98.77     11.43      8.83     -0.02     -0.02      0.00      1.44 
    98.78     11.43      8.83     -0.02      0.02      0.00      1.44 
    98.79     11.44      8.85     -0.01      0.04      8.00      1.46 
    98.80     11.46      8.80      0.01     -0.01      0.00      1.44 
    98.81     11.47      8.79      0.00     -0.00      0.00      1.44 
    98.82     11.47      8.79      0.01     -0.01      0.00      1.44 
    98.83     11.47      8.79      0.01     -0.01      0.00      1.44 
    98.84     11.46      8.80      0.00     -0.00      0.00      1.44 
    98.85     11.45      8.81      0.00     -0.00      0.00      1.44 
    98.86     11.45      8.81      0.01     -0.01      0.00      1.44 
    98.87     11.45      8.81      0.00      0.00      0.00      1.44 
    98.88     11.46      8.84      0.00      0.03      0.00      1.47 
    98.89     11.45      8.81     -0.00     -0.03      7.00      1.44 
    98.90     11.45      8.81     -0.01      0.01      0.00      1.44 
    98.91     11.46      8.79      0.00     -0.02      0.00      1.43 
    98.92     11.46      8.80     -0.00      0.00      0.00      1.44 
    98.93     11.47      8.79      0.00     -0.00      7.00      1.44 
    98.94     11.46      8.84      0.01      0.03      0.00      1.47 
    98.95     11.46      8.80      0.00     -0.00      7.00      1.44 
    98.96     11.46      8.80      0.00      0.00      0.00      1.44 
    98.97     11.45      8.81     -0.00      0.00      0.00      1.44 
    98.98     11.46      8.80      0.00     -0.00      0.00      1.44 
    98.99     11.46      8.80      0.00     -0.00      0.00      1.44 
    99.00     11.46      8.80      0.01     -0.01      0.00      1.44 
    99.01     11.46      8.80      0.00     -0.04      0.00      1.44 
    99.02     11.45      8.81     -0.00      0.02      7.00      1.44 
    99.03     11.45      8.81     -0.01      0.01      0.00      1.44 
    99.04     11.44      8.82     -0.00      0.00      7.00      1.44 
    99.05     11.45      8.85      0.01      0.02      0.00      1.47 
    99.06     11.44      8.82      0.02     -0.02     14.00      1.44 
    99.07     11.46      8.80      0.04     -0.04      0.00      1.44 
    99.08     11.47      8.79      0.04     -0.07      0.00      1.44 
    99.09     11.47      8.78      0.02     -0.04      0.00      1.43 
    99.10     11.48      8.78      0.02     -0.02     14.00      1.44 
    99.11     11.48      8.78      0.02     -0.02      7.00      1.44 
    99.12     11.47      8.83      0.02      0.02      0.00      1.47 
    99.13     11.47      8.79      0.02     -0.02      0.00      1.44 
    99.14     11.46      8.80      0.00     -0.03      7.00      1.44 
    99.15     11.46      8.80     -0.01      0.01      7.00      1.44 
    99.16     11.45      8.81     -0.02      0.02      0.00      1.44 
    99.17     11.44      8.82     -0.03      0.03      7.00      1.44 
    99.18     11.45      8.81     -0.01      0.01      7.00      1.44 
    99.19     11.44      8.82     -0.02      0.02      7.00      1.44 
    99.20     11.45      8.81     -0.01      0.01      0.00      1.44 
    99.21     11.45      8.81     -0.01     -0.03      0.00      1.44 
    99.22     11.45      8.81     -0.00      0.00      0.00      1.44 
    99.23     11.45      8.85      0.01      0.03      7.00      1.47 
    99.24     11.45      8.81      0.00     -0.00      0.00      1.44 
    99.25     11.45      8.81      0.01     -0.01      7.00      1.44 
    99.26     11.45      8.80      0.01     -0.03      0.00      1.43 
    99.27     11.46      8.80      0.01     -0.01      0.00      1.44 
    99.28     11.46      8.80      0.02     -0.02      0.00      1.44 
    99.29     11.46      8.84      0.01      0.02      0.00      1.47 
    99.30     11.46      8.80      0.00     -0.00      0.00      1.44 
    99.31     11.46      8.80      0.01     -0.01      7.00      1.44 
    99.32     11.45      8.81      0.01     -0.01      0.00      1.44 
    99.33     11.46      8.78      0.02     -0.08      0.00      1.43 
    99.34     11.46      8.80      0.02     -0.02      0.00      1.44 
    99.35     11.46      8.80      0.02     -0.02      7.00      1.44 
    99.36     11.46      8.84      0.01      0.03      0.00      1.47 
