~Version Information
 VERS.                2.0:  CWLS LOG ASCII STANDARD -VERSION 2.0
 WRAP.                 NO:  ONE LINE PER DEPTH STEP
~WELL INFORMATION BLOCK
#MNEM.UNIT       DATA		            DESCRIPTION OF MNEMONIC
#---------    -------------            ------------------------
 STRT.M   0.200                          :START DEPTH
 STOP.M   459.120                        :STOP DEPTH
 STEP.M   0.020                          :STEP  DOWN_HOLE  
 NULL.    0                              :NULL VALUE
 COMP.                              IMC  :COMPANY
 WELL.                  Essington South  :WELL
 FLD .                           Durham  :FIELD
 LOC .    None  None  None               :LOCATION
 CNTY.                      Northumbria  :COUNTY
 STAT.                   None            :STATE
 SRVC.          TRANS                    :SERVICE COMPANY
 DATE.   01/28/00                        :LOG DATE
 UWI .                       	         :UNIQUE WELL ID
 LIC .                                   :LICENSE NUMBER
~Curve Information Block
#MNEM.UNIT      API CODE     Curve Description
#---------    -------------  ------------------------
 DEPT     .M         00 001 00 00          :  1  DEPTH   
 RES(FL)  .OHM-M     00 000 00 00          :  2              RES(FL)
 TEMP     .DEG C     00 660 00 00          :  3                 TEMP
 DEL TEMP .DEG C     00 000 00 00          :  4             DEL TEMP
 SP COND  .US/CM     00 000 00 00          :  5              SP COND
~Parameter Information Block
#MNEM.UNIT   Information     Description
#---------- ---------------  ------------------------
~Other Information
#MNEM.UNIT  Information      Description
#---------- ---------------  ------------------------
 FILE.      ORIGINAL           File Type
 FIID.      9042C              File Type Identifier
 VERS.      1.0                System Version
 SER .      1                  System Serial Number
 TRUK.      0.5                Truck Calibration Number
 TOOL.         870             Tool Serial Number
 TIME.      09:33:             Time
 LAT .          None           Latitude
 LON .          None           Longitude
 LMF .         T.G.L           Log Measured From
 DMF .          None           Driller Measured From
 PD  .          None           Permanent Data
 PDEV.          None           Elevation Permanent Data
 EKB .M         None           Elevation Kelly Bushing
 ELEV.DF        None           Elevation DF
 EGL .M         None           Elevation Ground Level
 DRDP.         36.00           Driller's Depth
 CASD.        11               Casing Diameter
 CASB.         25.00           Casing Bottom
 CASX.       PLASTIC           Casing Type
 CAST.       0.5               Casing Thickness
 TNOC.          None           Time Circulation Stopped
 LOGU.       CENT              Logging Unit
 RECB.             MS/DW       Recorded By
 OSR1.          none           Other Services
 OSR2.          None           Other Services
 OSR3.          None           Other Services
 BS  .MM       11.00           Bit Size
 MST .                         Mean Surface Temperature
 TGRD.        0                Temperature Gradiant
 MAGN.            -6           Magnetic Declination
 MDEN.      2.71               Density Matrix
 MATR.      Limestone          Neutron Matrix
 DTMT.           140           Delta T Matrix
 DTFL.                         Delta T Fluid
 MUDS.               0         Mud Sample Source
 MRS .           0             Mud Resistivity
 MTP .           0             Mud Temperature
 MFRS.                         Resistivity Mud Filtrate
 MFTP.                         Temperature Mud Filtrate
 MCRS.         0               Resistivity Mud Cake
 MCTP.                         Temperature Mud Cake
 FTYP.           H20           Fluid Type
 FD  .K/M3                     Fluid Density
 DFV .S                        Fluid Viscosity
 FPH .                         Fuild PH
 ELCO.        2500             Electron Cutoff
# -------------------------- 
~A DEPTH  RES(FL) TEMP  DEL TEMP SP COND  
# ...
  60.040  109.40  10.8  -0.00       91.4  
  60.060  109.41  10.8  0.00        91.4  
  60.080  109.40  10.8  0.00        91.4  
  60.100  109.40  10.8  0.00        91.4  
  60.120  109.40  10.8  0.00        91.4  
  60.140  109.40  10.8  0.00        91.4  
  60.160  109.40  10.8  -0.01       91.4  
  60.180  109.40  10.8  0.00        91.4  
  60.200  109.40  10.8  -0.00       91.4  
  60.220  109.40  10.8  0.00        91.4  
  60.240  109.40  10.8  0.00        91.4  
  60.260  109.40  10.8  -0.00       91.4  
  60.280  109.40  10.8  0.00        91.4  
  60.300  109.40  10.8  0.00        91.4  
  60.320  109.40  10.8  0.00        91.4  
  60.340  109.40  10.8  0.00        91.4  
  60.360  109.40  10.8  0.00        91.4  
  60.380  109.40  10.8  -0.00       91.4  
  60.400  109.40  10.8  0.00        91.4  
  60.420  109.41  10.8  0.00        91.4  
  60.440  109.41  10.8  0.00        91.4  
  60.460  109.41  10.8  0.00        91.4  
  60.480  109.41  10.8  0.00        91.4  
  60.500  109.40  10.8  0.00        91.4  
  60.520  109.40  10.8  0.00        91.4  
  60.540  109.41  10.8  0.00        91.4  
  60.560  109.41  10.8  -0.00       91.4  
  60.580  109.41  10.8  0.00        91.4  
  60.600  109.41  10.8  0.00        91.4  
  60.620  109.41  10.8  0.00        91.4  
  60.640  109.41  10.8  -0.00       91.4  
  60.660  109.41  10.8  0.00        91.4  
  60.680  109.41  10.8  0.00        91.4  
  60.700  109.41  10.8  -0.00       91.4  
  60.720  109.41  10.8  0.00        91.4  
  60.740  109.41  10.8  0.00        91.4  
  60.760  109.41  10.8  0.00        91.4  
  60.780  109.41  10.8  0.00        91.4  
  60.800  109.41  10.8  0.00        91.4  
  60.820  109.41  10.8  0.00        91.4  
  60.840  109.41  10.8  0.00        91.4  
  60.860  109.41  10.8  0.00        91.4  
  60.880  109.41  10.8  0.00        91.4  
  60.900  109.40  10.8  0.00        91.4  
  60.920  109.40  10.8  0.00        91.4  
  60.940  109.40  10.8  0.00        91.4  
  60.960  109.40  10.8  0.00        91.4  
  60.980  109.41  10.8  -0.00       91.4  
  61.000  109.41  10.8  0.00        91.4  
  61.020  109.41  10.8  0.00        91.4  
  61.040  109.41  10.8  0.00        91.4  
  61.060  109.41  10.8  0.00        91.4  
  61.080  109.41  10.8  0.00        91.4  
  61.100  109.41  10.8  0.00        91.4  
  61.120  109.42  10.8  0.00        91.4  
  61.140  109.42  10.8  0.00        91.4  
  61.160  109.42  10.8  0.00        91.4  
  61.180  109.42  10.8  0.00        91.4  
  61.200  109.42  10.8  -0.00       91.4  
  61.220  109.42  10.8  0.00        91.4  
  61.240  109.42  10.8  0.00        91.4  
  61.260  109.42  10.8  0.00        91.4  
  61.280  109.41  10.8  0.00        91.4  
  61.300  109.41  10.8  0.00        91.4  
  61.320  109.42  10.8  0.00        91.4  
  61.340  109.42  10.8  0.00        91.4  
  61.360  109.41  10.8  0.00        91.4  
  61.380  109.42  10.8  -0.00       91.4  
  61.400  109.42  10.8  0.00        91.4  
  61.420  109.41  10.8  0.00        91.4  
  61.440  109.41  10.8  0.00        91.4  
  61.460  109.41  10.8  0.00        91.4  
  61.480  109.41  10.8  0.00        91.4  
  61.500  109.42  10.8  0.00        91.4  
  61.520  109.42  10.8  -0.00       91.4  
  61.540  109.42  10.8  0.00        91.4  
  61.560  109.42  10.8  0.00        91.4  
  61.580  109.42  10.8  0.00        91.4  
  61.600  109.42  10.8  -0.00       91.4  
  61.620  109.42  10.8  0.00        91.4  
  61.640  109.42  10.8  0.00        91.4  
  61.660  109.42  10.8  0.00        91.4  
  61.680  109.42  10.8  -0.00       91.4  
  61.700  109.42  10.8  0.00        91.4  
  61.720  109.42  10.8  0.00        91.4  
  61.740  109.42  10.8  0.00        91.4  
  61.760  109.43  10.8  0.00        91.4  
  61.780  109.43  10.8  -0.00       91.4  
  61.800  109.42  10.8  0.00        91.4  
  61.820  109.42  10.8  0.00        91.4  
  61.840  109.42  10.8  0.00        91.4  
  61.860  109.42  10.8  0.00        91.4  
  61.880  109.42  10.8  0.00        91.4  
  61.900  109.42  10.8  0.00        91.4  
  61.920  109.42  10.8  0.00        91.4  
  61.940  109.43  10.8  0.00        91.4  
  61.960  109.43  10.8  0.00        91.4  
  61.980  109.42  10.8  0.00        91.4  
  62.000  109.42  10.8  0.00        91.4  
  62.020  109.43  10.8  0.00        91.4  
  62.040  109.43  10.8  0.00        91.4  
  62.060  109.42  10.8  0.00        91.4  
  62.080  109.42  10.8  -0.00       91.4  
  62.100  109.43  10.8  0.00        91.4  
  62.120  109.43  10.8  0.00        91.4  
  62.140  109.42  10.8  0.00        91.4  
  62.160  109.43  10.8  0.00        91.4  
  62.180  109.43  10.8  0.00        91.4  
  62.200  109.43  10.8  -0.00       91.4  
  62.220  109.43  10.8  0.00        91.4  
  62.240  109.42  10.8  0.00        91.4  
  62.260  109.42  10.8  0.00        91.4  
  62.280  109.42  10.8  0.00        91.4  
  62.300  109.42  10.8  0.00        91.4  
  62.320  109.43  10.8  0.00        91.4  
  62.340  109.43  10.8  0.00        91.4  
  62.360  109.43  10.8  0.00        91.4  
  62.380  109.43  10.8  0.00        91.4  
  62.400  109.42  10.8  0.00        91.4  
  62.420  109.42  10.8  0.00        91.4  
  62.440  109.42  10.8  0.00        91.4  
  62.460  109.42  10.8  0.00        91.4  
  62.480  109.42  10.8  0.00        91.4  
  62.500  109.43  10.8  -0.00       91.4  
  62.520  109.43  10.8  0.00        91.4  
  62.540  109.43  10.8  0.00        91.4  
  62.560  109.43  10.8  0.00        91.4  
  62.580  109.43  10.8  0.00        91.4  
  62.600  109.43  10.8  0.00        91.4  
  62.620  109.43  10.8  0.00        91.4  
  62.640  109.43  10.8  0.00        91.4  
  62.660  109.43  10.8  0.00        91.4  
  62.680  109.43  10.8  -0.00       91.4  
  62.700  109.43  10.8  0.00        91.4  
  62.720  109.43  10.8  0.00        91.4  
  62.740  109.43  10.8  0.00        91.4  
  62.760  109.43  10.8  -0.00       91.4  
  62.780  109.43  10.8  0.00        91.4  
  62.800  109.42  10.8  0.00        91.4  
  62.820  109.42  10.8  0.00        91.4  
  62.840  109.42  10.8  0.00        91.4  
  62.860  109.42  10.8  0.00        91.4  
  62.880  109.42  10.8  0.00        91.4  
  62.900  109.43  10.8  0.00        91.4  
  62.920  109.43  10.8  0.00        91.4  
  62.940  109.44  10.8  -0.00       91.4  
  62.960  109.44  10.8  0.00        91.4  
  62.980  109.44  10.8  0.00        91.4  
  63.000  109.44  10.8  0.00        91.4  
  63.020  109.44  10.8  0.00        91.4  
  63.040  109.44  10.8  0.00        91.4  
  63.060  109.44  10.8  0.00        91.4  
  63.080  109.44  10.8  0.01        91.4  
  63.100  109.43  10.8  0.00        91.4  
  63.120  109.43  10.8  0.00        91.4  
  63.140  109.43  10.8  0.00        91.4  
  63.160  109.43  10.8  0.00        91.4  
  63.180  109.44  10.8  0.00        91.4  
  63.200  109.43  10.8  0.00        91.4  
  63.220  109.43  10.8  0.00        91.4  
  63.240  109.43  10.8  -0.00       91.4  
  63.260  109.43  10.8  0.00        91.4  
  63.280  109.43  10.8  0.00        91.4  
  63.300  109.43  10.8  0.00        91.4  
  63.320  109.43  10.8  0.00        91.4  
  63.340  109.43  10.8  0.00        91.4  
  63.360  109.43  10.8  0.00        91.4  
  63.380  109.43  10.8  0.00        91.4  
  63.400  109.43  10.8  0.00        91.4  
  63.420  109.43  10.8  0.00        91.4  
  63.440  109.44  10.8  0.00        91.4  
  63.460  109.44  10.8  -0.00       91.4  
  63.480  109.44  10.8  0.00        91.4  
  63.500  109.43  10.8  0.00        91.4  
  63.520  109.43  10.8  0.00        91.4  
  63.540  109.44  10.8  -0.00       91.4  
  63.560  109.44  10.8  0.00        91.4  
  63.580  109.44  10.8  0.00        91.4  
  63.600  109.44  10.8  -0.00       91.4  
  63.620  109.44  10.8  0.00        91.4  
  63.640  109.44  10.8  0.00        91.4  
  63.660  109.44  10.8  0.00        91.4  
  63.680  109.44  10.8  0.00        91.4  
  63.700  109.44  10.8  0.00        91.4  
  63.720  109.43  10.8  -0.00       91.4  
  63.740  109.43  10.8  0.00        91.4  
  63.760  109.45  10.8  0.00        91.4  
