#Written by Robertson Geologging WinLogger V1.0/406
~VERSION INFORMATION
#------------------------------------------------------------------------------
 VERS. 2.0 : CWLS LOG ASCII STANDARD - VERSION 2.0
 WRAP. NO  : ONE LINE PER DEPTH STEP
~WELL INFORMATION
#MNEM.UNIT         DATA                                DESCRIPTION OF MNEMONIC
#------------------------------------------------------------------------------
 STRT.M         71.1200                            :   START DEPTH
 STOP.M        471.0000                            :   STOP DEPTH
 STEP.M          0.0100                            :   STEP VALUE
 NULL.        -999.2500                            :   NULL VALUE
 COMP.    Coal Authority                           :   COMPANY NAME
 WELL.    EasingtonShaft                           :   WELL NAME
 FLD.     Easington                                :   FIELD NAME
 LOC.     N/A                                      :   LOCATION
 PROV.    N/A                                      :   PROVINCE
 SRVC.    N/A                                      :   SERVICE COMPANY NAME
 DATE.    27 Aug 08                                :   DATE
 UWI.     N/A                                      :   UNIQUE WELL IDENTIFIER
~PARAMETER INFORMATION
#MNEMO.UNIT         VALUE                 DESCRIPTION OF MNEMONIC
#------------------------------------------------------------------------------
~OTHER INFORMATION SECTION
#------------------------------------------------------------------------------
 TCGS 1365
~CURVE INFORMATION
#MNEMO.UNIT         API CODE              CURVE DESCRIPTION
#------------------------------------------------------------------------------
 DEPTH.M                                 :   0     Depth
 TEMP.DegC                               :   1     Temperature
 CN25.uS/cm                              :   2     Conductivity@25DegC
 DELT.DegC                               :   3     Delta T
 DELC.uS/cm                              :   4     Delta C
 NGAM.CPS                                :   5     Natural Gamma
 COND.uS/cm                              :   6     Conductivity
#------------------------------------------------------------------------------
~A  DEPTH     TEMP      CN25      DELT      DELC      NGAM      COND      
# ...
   257.57     17.44     73.78     -0.00      0.01      0.00     62.15 
   257.58     17.43     73.80      0.00      0.05      7.00     62.15 
   257.59     17.44     73.73      0.00     -0.07      7.00     62.10 
   257.60     17.44     73.78      0.00      0.05      0.00     62.15 
   257.61     17.45     73.75      0.01     -0.04     14.00     62.15 
   257.62     17.45     73.74      0.01      0.01      0.00     62.15 
   257.63     17.46     73.68      0.03     -0.13      0.00     62.10 
   257.64     17.46     73.71      0.05     -0.09      0.00     62.15 
   257.65     17.46     73.73      0.03     -0.10      0.00     62.15 
   257.66     17.45     73.69      0.02     -0.07      7.00     62.10 
   257.67     17.45     73.75      0.02     -0.06      7.00     62.15 
   257.68     17.44     73.78     -0.01      0.03      0.00     62.15 
   257.69     17.43     73.80      0.00      0.05      0.00     62.15 
   257.70     17.43     73.76      0.00      0.00      7.00     62.10 
   257.71     17.42     73.84     -0.01      0.08      0.00     62.15 
   257.72     17.43     73.81      0.01     -0.04      0.00     62.15 
   257.73     17.43     73.81      0.02     -0.00      0.00     62.15 
   257.74     17.43     73.76      0.01     -0.09      0.00     62.10 
   257.75     17.44     73.77      0.03     -0.05      7.00     62.15 
   257.76     17.43     73.81      0.00      0.00      0.00     62.15 
   257.77     17.43     73.80     -0.00      0.01      0.00     62.15 
   257.78     17.44     73.67      0.00     -0.06      7.00     62.07 
   257.79     17.44     73.78     -0.00      0.01      0.00     62.15 
   257.80     17.45     73.74      0.01      0.01      0.00     62.15 
   257.81     17.45     73.69      0.01     -0.09      0.00     62.10 
   257.82     17.44     73.78      0.00      0.05      7.00     62.15 
   257.83     17.43     73.80     -0.00      0.01      7.00     62.15 
   257.84     17.43     73.81     -0.01      0.08      0.00     62.15 
   257.85     17.42     73.77     -0.02      0.02      0.00     62.10 
   257.86     17.43     73.81     -0.01      0.04      7.00     62.15 
   257.87     17.44     73.78     -0.01      0.08      0.00     62.15 
   257.88     17.43     73.81     -0.01      0.03      0.00     62.15 
   257.89     17.42     73.77     -0.00      0.01      0.00     62.10 
   257.90     17.42     73.82     -0.00      0.01      0.00     62.15 
   257.91     17.41     73.85     -0.01      0.08      0.00     62.15 
   257.92     17.42     73.79     -0.02      0.02      0.00     62.10 
   257.93     17.42     73.82     -0.02      0.07      7.00     62.15 
   257.94     17.42     73.84     -0.03      0.13      7.00     62.15 
   257.95     17.43     73.75     -0.02      0.00      0.00     62.10 
   257.96     17.43     73.80     -0.01      0.08      7.00     62.15 
   257.97     17.45     73.75      0.01     -0.03      0.00     62.15 
   257.98     17.45     73.75      0.01     -0.03      0.00     62.15 
   257.99     17.45     73.69      0.01     -0.04      0.00     62.10 
   258.00     17.46     73.73      0.02     -0.06      0.00     62.15 
   258.01     17.45     73.75      0.00     -0.01      0.00     62.15 
   258.02     17.45     73.74      0.01      0.02      0.00     62.15 
   258.03     17.44     73.73     -0.01     -0.02      7.00     62.10 
   258.04     17.43     73.81     -0.00      0.01      7.00     62.15 
   258.05     17.43     73.80      0.01      0.02      0.00     62.15 
   258.06     17.43     73.76     -0.00      0.01      0.00     62.10 
   258.07     17.44     73.77      0.02     -0.07      0.00     62.15 
   258.08     17.45     73.74      0.02     -0.00      0.00     62.15 
   258.09     17.45     73.75      0.01     -0.03      0.00     62.15 
   258.10     17.44     73.74      0.00     -0.04      0.00     62.11 
   258.11     17.43     73.81     -0.01      0.09      0.00     62.15 
   258.12     17.43     73.80     -0.00      0.01      7.00     62.15 
   258.13     17.43     73.80     -0.01      0.03      0.00     62.15 
   258.14     17.44     73.72     -0.00      0.01      0.00     62.10 
   258.15     17.45     73.69      0.00     -0.07      0.00     62.10 
   258.16     17.45     73.74      0.00     -0.01      0.00     62.15 
   258.17     17.45     73.74      0.00      0.04      6.00     62.15 
   258.18     17.44     73.77     -0.00      0.01      0.00     62.15 
   258.19     17.44     73.73     -0.02      0.00      0.00     62.10 
   258.20     17.42     73.82     -0.02      0.11      7.00     62.15 
   258.21     17.43     73.81      0.00      0.00      7.00     62.15 
   258.22     17.43     73.81      0.00     -0.01      0.00     62.15 
   258.23     17.43     73.81      0.01      0.01      0.00     62.15 
   258.24     17.44     73.72      0.01     -0.09      7.00     62.10 
   258.25     17.44     73.77      0.00     -0.01      7.00     62.15 
   258.26     17.44     73.78      0.00      0.05      6.00     62.15 
   258.27     17.44     73.78     -0.00      0.01      0.00     62.15 
   258.28     17.42     73.82     -0.01      0.04      7.00     62.15 
   258.29     17.42     73.77     -0.02      0.05      0.00     62.10 
   258.30     17.43     73.80     -0.00      0.01      0.00     62.15 
   258.31     17.44     73.77      0.00     -0.01      0.00     62.15 
   258.32     17.45     73.74      0.01      0.02      0.00     62.15 
   258.33     17.45     73.75      0.01     -0.03     14.00     62.15 
   258.34     17.45     73.74      0.01     -0.04      0.00     62.15 
   258.35     17.44     73.73      0.01     -0.03      7.00     62.10 
   258.36     17.43     73.80      0.00     -0.01     14.00     62.15 
   258.37     17.43     73.81      0.00     -0.01      0.00     62.15 
   258.38     17.43     73.81      0.01     -0.03      7.00     62.15 
   258.39     17.43     73.76      0.00      0.00      0.00     62.10 
   258.40     17.43     73.81      0.00      0.00      0.00     62.15 
   258.41     17.43     73.80      0.01     -0.03      7.00     62.15 
   258.42     17.43     73.80      0.00      0.10      0.00     62.15 
   258.43     17.44     73.78      0.00     -0.01      7.00     62.15 
   258.44     17.45     73.75      0.02     -0.06      7.00     62.15 
   258.45     17.44     73.72      0.00      0.01      6.00     62.11 
   258.46     17.45     73.74      0.01     -0.04      0.00     62.15 
   258.47     17.44     73.77      0.00     -0.01      0.00     62.15 
   258.48     17.43     73.80      0.00      0.05      0.00     62.15 
   258.49     17.43     73.81     -0.01      0.03      0.00     62.15 
   258.50     17.42     73.73     -0.01     -0.07      7.00     62.07 
   258.51     17.43     73.81     -0.01      0.08      0.00     62.15 
   258.52     17.43     73.80      0.00     -0.01      0.00     62.15 
   258.53     17.44     73.78      0.01     -0.03      7.00     62.15 
   258.54     17.44     73.77      0.01     -0.04      0.00     62.15 
   258.55     17.44     73.78      0.00      0.04     14.00     62.15 
   258.56     17.45     73.68      0.01     -0.10      0.00     62.10 
   258.57     17.46     73.73      0.02     -0.07      0.00     62.15 
   258.58     17.46     73.73      0.02     -0.00      7.00     62.15 
   258.59     17.46     73.71      0.02     -0.07      7.00     62.15 
   258.60     17.44     73.77     -0.00      0.01      0.00     62.15 
   258.61     17.43     73.81     -0.02      0.07      0.00     62.15 
   258.62     17.43     73.75     -0.02      0.07      0.00     62.10 
   258.63     17.44     73.78     -0.02      0.07      0.00     62.15 
   258.64     17.43     73.80     -0.02      0.07      0.00     62.15 
   258.65     17.45     73.75     -0.00      0.07      7.00     62.15 
   258.66     17.44     73.77     -0.00      0.01      0.00     62.15 
   258.67     17.43     73.80     -0.00      0.01      0.00     62.15 
   258.68     17.44     73.73      0.00     -0.07      0.00     62.10 
   258.69     17.43     73.80      0.00      0.04     14.00     62.15 
