#Written by Robertson Geologging WinLogger V1.0/406
~VERSION INFORMATION
#------------------------------------------------------------------------------
 VERS. 2.0 : CWLS LOG ASCII STANDARD - VERSION 2.0
 WRAP. NO  : ONE LINE PER DEPTH STEP
~WELL INFORMATION
#MNEM.UNIT         DATA                                DESCRIPTION OF MNEMONIC
#------------------------------------------------------------------------------
 STRT.M         71.1200                            :   START DEPTH
 STOP.M        471.0000                            :   STOP DEPTH
 STEP.M          0.0100                            :   STEP VALUE
 NULL.        -999.2500                            :   NULL VALUE
 COMP.    Coal Authority                           :   COMPANY NAME
 WELL.    EasingtonShaft                           :   WELL NAME
 FLD.     Easington                                :   FIELD NAME
 LOC.     N/A                                      :   LOCATION
 PROV.    N/A                                      :   PROVINCE
 SRVC.    N/A                                      :   SERVICE COMPANY NAME
 DATE.    27 Aug 08                                :   DATE
 UWI.     N/A                                      :   UNIQUE WELL IDENTIFIER
~PARAMETER INFORMATION
#MNEMO.UNIT         VALUE                 DESCRIPTION OF MNEMONIC
#------------------------------------------------------------------------------
~OTHER INFORMATION SECTION
#------------------------------------------------------------------------------
 TCGS 1365
~CURVE INFORMATION
#MNEMO.UNIT         API CODE              CURVE DESCRIPTION
#------------------------------------------------------------------------------
 DEPTH.M                                 :   0     Depth
 TEMP.DegC                               :   1     Temperature
 CN25.uS/cm                              :   2     Conductivity@25DegC
 DELT.DegC                               :   3     Delta T
 DELC.uS/cm                              :   4     Delta C
 NGAM.CPS                                :   5     Natural Gamma
 COND.uS/cm                              :   6     Conductivity
#------------------------------------------------------------------------------
~A  DEPTH     TEMP      CN25      DELT      DELC      NGAM      COND      
# ...
   470.01     20.41     84.42     -0.01      0.06     11.00     79.39 
   470.02     20.41     84.42     -0.01      0.06      0.00     79.39 
   470.03     20.40     84.45      0.00     -0.01     11.00     79.39 
   470.04     20.42     84.36     -0.00     -0.00      0.00     79.36 
   470.05     20.43     84.39      0.02     -0.02      0.00     79.42 
   470.06     20.44     84.30      0.03     -0.10      0.00     79.37 
   470.07     20.46     84.23      0.04     -0.18      0.00     79.37 
   470.08     20.45     84.30      0.03     -0.08      0.00     79.38 
   470.09     20.46     84.27      0.03     -0.11     21.00     79.38 
   470.10     20.45     84.33      0.03     -0.07      0.00     79.40 
   470.11     20.43     84.36      0.02     -0.12      0.00     79.38 
   470.12     20.43     84.35      0.04     -0.12      0.00     79.38 
   470.13     20.42     84.38      0.00     -0.03     25.00     79.37 
   470.14     20.41     84.41     -0.01      0.05      7.00     79.38 
   470.15     20.41     84.41     -0.03      0.08      0.00     79.38 
   470.16     20.41     84.40     -0.04      0.12      6.00     79.37 
   470.17     20.41     84.41     -0.02      0.08      0.00     79.38 
   470.18     20.42     84.40      0.01     -0.01      6.00     79.40 
   470.19     20.44     84.32      0.04     -0.14      0.00     79.38 
   470.20     20.44     84.30      0.05     -0.18     12.00     79.37 
   470.21     20.43     84.35      0.04     -0.14      0.00     79.38 
   470.22     20.44     84.32      0.04     -0.18      0.00     79.37 
   470.23     20.41     84.41      0.02     -0.06      7.00     79.38 
   470.24     20.41     84.44      0.02     -0.05     12.00     79.40 
   470.25     20.41     84.41      0.03     -0.09      0.00     79.38 
   470.26     20.40     84.39      0.01     -0.11     12.00     79.33 
   470.27     20.42     84.38      0.02     -0.02      7.00     79.38 
   470.28     20.42     84.37     -0.00      0.00      0.00     79.37 
   470.29     20.44     84.33      0.00      0.00      7.00     79.38 
   470.30     20.44     84.30      0.01     -0.03      6.00     79.37 
   470.31     20.43     84.36     -0.00     -0.03      0.00     79.38 
   470.32     20.44     84.30      0.01     -0.04      0.00     79.37 
   470.33     20.43     84.35     -0.00      0.00     12.00     79.37 
   470.34     20.44     84.33      0.00      0.01      7.00     79.38 
   470.35     20.44     84.34      0.01     -0.02      0.00     79.40 
   470.36     20.44     84.33      0.02     -0.10      0.00     79.38 
   470.37     20.44     84.32      0.04     -0.14      6.00     79.37 
   470.38     20.42     84.39      0.01     -0.03      7.00     79.38 
   470.39     20.42     84.37      0.01     -0.07      6.00     79.37 
   470.40     20.42     84.38     -0.01      0.05      7.00     79.38 
   470.41     20.41     84.40     -0.04      0.14      0.00     79.37 
   470.42     20.42     84.39     -0.02      0.07      0.00     79.38 
   470.43     20.42     84.38     -0.02      0.04      0.00     79.37 
   470.44     20.42     84.38     -0.01      0.03      0.00     79.37 
   470.45     20.43     84.36      0.01     -0.02      0.00     79.38 
   470.46     20.43     84.38     -0.01      0.06      0.00     79.39 
   470.47     20.43     84.35      0.00     -0.04      6.00     79.37 
   470.48     20.43     84.34      0.00     -0.03      0.00     79.37 
   470.49     20.42     84.38     -0.01      0.02     11.00     79.36 
   470.50     20.42     84.40      0.01     -0.01      6.00     79.40 
   470.51     20.42     84.37     -0.01      0.01      0.00     79.36 
   470.52     20.42     84.36      0.01     -0.05      2.00     79.36 
   470.53     20.44     84.32      0.03     -0.12      2.00     79.38 
   470.54     20.44     84.40      0.02      0.04      0.00     79.44 
   470.55     20.45     84.31      0.02     -0.07      8.00     79.38 
   470.56     20.44     84.33     -0.01      0.04      8.00     79.37 
   470.57     20.42     84.39     -0.03      0.10      6.00     79.38 
   470.58     20.43     84.37     -0.02      0.07      5.00     79.38 
   470.59     20.41     84.42     -0.02      0.08      3.00     79.38 
   470.60     20.41     84.43     -0.02      0.08      3.00     79.38 
   470.61     20.41     84.40     -0.01      0.04      6.00     79.37 
   470.62     20.41     84.42     -0.02      0.08      3.00     79.38 
   470.63     20.43     84.37      0.01     -0.05      3.00     79.38 
   470.64     20.44     84.34      0.01     -0.02      4.00     79.38 
   470.65     20.44     84.32      0.02     -0.05      2.00     79.38 
   470.66     20.45     84.31      0.04     -0.09      2.00     79.40 
   470.67     20.44     84.33      0.02     -0.06      8.00     79.39 
   470.68     20.43     84.35      0.03     -0.10      2.00     79.38 
   470.69     20.42     84.41      0.03     -0.08      0.00     79.39 
   470.70     20.43     84.38      0.04     -0.13      7.00     79.40 
   470.71     20.42     84.40      0.01     -0.04      4.00     79.38 
   470.72     20.42     84.41      0.01     -0.01      2.00     79.40 
   470.73     20.43     84.38      0.01     -0.01      3.00     79.40 
   470.74     20.41     84.43     -0.01      0.05      5.00     79.40 
   470.75     20.42     84.41      0.01     -0.01     10.00     79.40 
   470.76     20.42     84.41      0.00      0.02     10.00     79.40 
   470.77     20.42     84.41     -0.01      0.05     10.00     79.40 
   470.78     20.42     84.41     -0.00      0.05     10.00     79.40 
   470.79     20.42     84.41     -0.01      0.07     10.00     79.40 
   470.80     20.42     84.41     -0.03      0.11     10.00     79.40 
   470.81     20.42     84.41     -0.02      0.10     10.00     79.40 
   470.82     20.42     84.41     -0.03      0.16     10.00     79.40 
   470.83     20.42     84.41     -0.03      0.11     10.00     79.40 
   470.84     20.42     84.41     -0.00      0.03     10.00     79.40 
   470.85     20.42     84.41     -0.00      0.03     10.00     79.40 
   470.86     20.42     84.41     -0.01      0.06     10.00     79.40 
   470.87     20.42     84.41     -0.01      0.05     10.00     79.40 
   470.88     20.42     84.41     -0.03      0.13     10.00     79.40 
   470.89     20.42     84.41     -0.03      0.11     10.00     79.40 
   470.90     20.42     84.41     -0.03      0.13     10.00     79.40 
   470.91     20.42     84.41     -0.04      0.15     10.00     79.40 
   470.92     20.42     84.41     -0.03      0.12     10.00     79.40 
   470.93     20.42     84.41     -0.02      0.10     10.00     79.40 
   470.94     20.42     84.41     -0.01      0.04     10.00     79.40 
   470.95     20.42     84.41      0.01     -0.02     10.00     79.40 
   470.96     20.42     84.41      0.01     -0.01     10.00     79.40 
   470.97     20.42     84.41      0.01     -0.04     10.00     79.40 
   470.98     20.42     84.41      0.01     -0.02     10.00     79.40 
   470.99     20.42     84.41      0.00      0.06     10.00     79.40 
   471.00     20.42     84.41      0.00     -0.01     10.00     79.40 
