#Written by Robertson Geologging WinLogger V1.0/406
~VERSION INFORMATION
#------------------------------------------------------------------------------
 VERS. 2.0 : CWLS LOG ASCII STANDARD - VERSION 2.0
 WRAP. NO  : ONE LINE PER DEPTH STEP
~WELL INFORMATION
#MNEM.UNIT         DATA                                DESCRIPTION OF MNEMONIC
#------------------------------------------------------------------------------
 STRT.M         71.1200                            :   START DEPTH
 STOP.M        471.0000                            :   STOP DEPTH
 STEP.M          0.0100                            :   STEP VALUE
 NULL.        -999.2500                            :   NULL VALUE
 COMP.    Coal Authority                           :   COMPANY NAME
 WELL.    EasingtonShaft                           :   WELL NAME
 FLD.     Easington                                :   FIELD NAME
 LOC.     N/A                                      :   LOCATION
 PROV.    N/A                                      :   PROVINCE
 SRVC.    N/A                                      :   SERVICE COMPANY NAME
 DATE.    27 Aug 08                                :   DATE
 UWI.     N/A                                      :   UNIQUE WELL IDENTIFIER
~PARAMETER INFORMATION
#MNEMO.UNIT         VALUE                 DESCRIPTION OF MNEMONIC
#------------------------------------------------------------------------------
~OTHER INFORMATION SECTION
#------------------------------------------------------------------------------
 TCGS 1365
~CURVE INFORMATION
#MNEMO.UNIT         API CODE              CURVE DESCRIPTION
#------------------------------------------------------------------------------
 DEPTH.M                                 :   0     Depth
 TEMP.DegC                               :   1     Temperature
 CN25.uS/cm                              :   2     Conductivity@25DegC
 DELT.DegC                               :   3     Delta T
 DELC.uS/cm                              :   4     Delta C
 NGAM.CPS                                :   5     Natural Gamma
 COND.uS/cm                              :   6     Conductivity
#------------------------------------------------------------------------------
~A  DEPTH     TEMP      CN25      DELT      DELC      NGAM      COND      
# ...
   389.78     18.42     84.60     -0.02      0.15      0.00     73.96 
   389.79     18.44     84.53     -0.01      0.12      0.00     73.96 
   389.80     18.47     84.46      0.02      0.01      0.00     73.99 
   389.81     18.45     84.50     -0.01      0.09      0.00     73.96 
   389.82     18.47     84.45      0.00      0.08      0.00     73.96 
   389.83     18.45     84.51     -0.01      0.08      0.00     73.96 
   389.84     18.42     84.59     -0.02      0.15      7.00     73.96 
   389.85     18.44     84.53      0.00      0.03      0.00     73.96 
   389.86     18.44     84.59     -0.02      0.15      7.00     74.00 
   389.87     18.44     84.53     -0.01      0.14      7.00     73.96 
   389.88     18.45     84.43     -0.03      0.05      8.00     73.89 
   389.89     18.45     84.56     -0.02      0.15      7.00     74.00 
   389.90     18.45     84.50     -0.01      0.09      0.00     73.96 
   389.91     18.45     84.50     -0.01      0.18      0.00     73.96 
   389.92     18.45     84.50     -0.01      0.08      7.00     73.96 
   389.93     18.44     84.53     -0.03      0.12      0.00     73.96 
   389.94     18.43     84.57     -0.03      0.15      0.00     73.96 
   389.95     18.45     84.54     -0.01      0.12      0.00     73.99 
   389.96     18.45     84.51     -0.01      0.09      7.00     73.96 
   389.97     18.46     84.48      0.01      0.02      0.00     73.96 
   389.98     18.46     84.48      0.01      0.00      0.00     73.96 
   389.99     18.44     84.54     -0.01      0.08      0.00     73.96 
   390.00     18.45     84.51     -0.01      0.12      0.00     73.96 
   390.01     18.44     84.54     -0.03      0.15      0.00     73.96 
   390.02     18.44     84.57     -0.04      0.18      7.00     74.00 
   390.03     18.44     84.54     -0.04      0.18      0.00     73.96 
   390.04     18.45     84.48     -0.02      0.07      0.00     73.93 
   390.05     18.44     84.59     -0.00      0.11      0.00     74.00 
   390.06     18.43     84.56     -0.00      0.05      0.00     73.96 
   390.07     18.44     84.53      0.01      0.00      0.00     73.96 
   390.08     18.44     84.53      0.00      0.05      0.00     73.96 
   390.09     18.46     84.46      0.02     -0.03     14.00     73.96 
   390.10     18.48     84.45      0.05     -0.13      0.00     73.99 
   390.11     18.47     84.43      0.04     -0.09      0.00     73.96 
   390.12     18.47     84.45      0.03     -0.06      0.00     73.96 
   390.13     18.46     84.46      0.02     -0.03      0.00     73.96 
   390.14     18.46     84.51      0.02      0.03      0.00     74.00 
   390.15     18.46     84.43      0.01     -0.03      8.00     73.93 
   390.16     18.46     84.46      0.01     -0.05      0.00     73.96 
   390.17     18.45     84.54     -0.01      0.12      0.00     74.00 
   390.18     18.45     84.51     -0.01      0.06      0.00     73.96 
   390.19     18.44     84.51     -0.02      0.09      0.00     73.93 
   390.20     18.43     84.57     -0.02      0.08      0.00     73.96 
   390.21     18.44     84.54     -0.00      0.05      0.00     73.96 
   390.22     18.45     84.48      0.00     -0.03      0.00     73.93 
   390.23     18.47     84.50      0.02      0.08      0.00     74.00 
   390.24     18.48     84.42      0.02     -0.03      0.00     73.96 
   390.25     18.47     84.42      0.00     -0.03      8.00     73.93 
   390.26     18.45     84.56     -0.02      0.17      0.00     74.00 
   390.27     18.42     84.59     -0.05      0.15      0.00     73.96 
   390.28     18.42     84.59     -0.04      0.18      0.00     73.96 
   390.29     18.44     84.51     -0.03      0.05      0.00     73.93 
   390.30     18.44     84.54     -0.02      0.12      0.00     73.96 
   390.31     18.45     84.56     -0.01      0.08      0.00     74.00 
   390.32     18.45     84.51     -0.01      0.09     14.00     73.96 
   390.33     18.44     84.51     -0.01     -0.00      0.00     73.93 
   390.34     18.46     84.46      0.01      0.00      0.00     73.96 
   390.35     18.47     84.48      0.01      0.00      0.00     74.00 
   390.36     18.49     84.39      0.02     -0.06      0.00     73.96 
   390.37     18.47     84.43      0.01     -0.03      0.00     73.96 
   390.38     18.47     84.45      0.01      0.02      7.00     73.96 
   390.39     18.45     84.50      0.00     -0.02      7.00     73.96 
   390.40     18.44     84.55     -0.01      0.06      0.00     73.99 
   390.41     18.45     84.51     -0.02      0.11      0.00     73.96 
   390.42     18.45     84.51     -0.02      0.06      0.00     73.96 
   390.43     18.44     84.53     -0.02      0.08      0.00     73.96 
   390.44     18.43     84.56     -0.01      0.03      0.00     73.96 
   390.45     18.44     84.53      0.00      0.00      7.00     73.96 
   390.46     18.43     84.52     -0.00     -0.02      0.00     73.93 
   390.47     18.43     84.56     -0.00      0.06      7.00     73.96 
   390.48     18.43     84.60     -0.02      0.08     14.00     74.00 
   390.49     18.43     84.56     -0.02      0.06      0.00     73.96 
   390.50     18.43     84.57     -0.03      0.11      0.00     73.96 
   390.51     18.44     84.53     -0.01      0.08      0.00     73.96 
   390.52     18.46     84.40      0.02     -0.15      0.00     73.89 
   390.53     18.44     84.53      0.02     -0.09      0.00     73.96 
   390.54     18.44     84.59      0.02     -0.01      0.00     74.00 
   390.55     18.42     84.59      0.00      0.05      0.00     73.96 
   390.56     18.39     84.68     -0.03      0.14      7.00     73.96 
   390.57     18.42     84.57     -0.00     -0.02      0.00     73.93 
   390.58     18.44     84.53      0.02     -0.08      0.00     73.96 
   390.59     18.44     84.53      0.02     -0.09      0.00     73.96 
   390.60     18.47     84.46      0.04     -0.05      0.00     73.99 
   390.61     18.46     84.48      0.01     -0.05      0.00     73.96 
   390.62     18.46     84.48      0.01     -0.06      0.00     73.96 
   390.63     18.45     84.46     -0.00     -0.02      0.00     73.93 
   390.64     18.43     84.60     -0.02      0.12      7.00     74.00 
   390.65     18.42     84.54     -0.03      0.09      0.00     73.92 
   390.66     18.44     84.57     -0.02      0.09      0.00     73.99 
   390.67     18.43     84.56     -0.01      0.03      7.00     73.96 
   390.68     18.43     84.56     -0.02      0.03      0.00     73.96 
   390.69     18.44     84.51     -0.00     -0.02      0.00     73.93 
   390.70     18.41     84.62     -0.04      0.12      0.00     73.96 
   390.71     18.40     84.65     -0.05      0.15      0.00     73.96 
   390.72     18.43     84.60      0.00      0.03      0.00     73.99 
   390.73     18.42     84.59     -0.02      0.09      7.00     73.96 
   390.74     18.44     84.54      0.01     -0.05      0.00     73.96 
   390.75     18.45     84.51      0.03     -0.11      7.00     73.96 
   390.76     18.44     84.49      0.01     -0.06      0.00     73.93 
   390.77     18.44     84.53      0.02     -0.08      0.00     73.96 
   390.78     18.44     84.53      0.00      0.00      7.00     73.96 
   390.79     18.44     84.53     -0.03      0.06      0.00     73.96 
   390.80     18.44     84.53     -0.01      0.03      0.00     73.96 
   390.81     18.44     84.53     -0.02      0.08      0.00     73.96 
   390.82     18.45     84.51      0.00      0.00      0.00     73.96 
   390.83     18.44     84.55      0.02     -0.03      0.00     73.99 
   390.84     18.44     84.43      0.00     -0.09      0.00     73.88 
   390.85     18.45     84.51      0.01     -0.08      7.00     73.96 
   390.86     18.44     84.53      0.00      0.00     14.00     73.96 
   390.87     18.46     84.48      0.01      0.05      0.00     73.96 
   390.88     18.44     84.54     -0.01     -0.02      0.00     73.96 
   390.89     18.44     84.53     -0.01      0.03      0.00     73.96 
   390.90     18.44     84.54     -0.01      0.05      0.00     73.96 
