#Written by Robertson Geologging WinLogger V1.0/406
~VERSION INFORMATION
#------------------------------------------------------------------------------
 VERS. 2.0 : CWLS LOG ASCII STANDARD - VERSION 2.0
 WRAP. NO  : ONE LINE PER DEPTH STEP
~WELL INFORMATION
#MNEM.UNIT         DATA                                DESCRIPTION OF MNEMONIC
#------------------------------------------------------------------------------
 STRT.M         71.1200                            :   START DEPTH
 STOP.M        471.0000                            :   STOP DEPTH
 STEP.M          0.0100                            :   STEP VALUE
 NULL.        -999.2500                            :   NULL VALUE
 COMP.    Coal Authority                           :   COMPANY NAME
 WELL.    EasingtonShaft                           :   WELL NAME
 FLD.     Easington                                :   FIELD NAME
 LOC.     N/A                                      :   LOCATION
 PROV.    N/A                                      :   PROVINCE
 SRVC.    N/A                                      :   SERVICE COMPANY NAME
 DATE.    27 Aug 08                                :   DATE
 UWI.     N/A                                      :   UNIQUE WELL IDENTIFIER
~PARAMETER INFORMATION
#MNEMO.UNIT         VALUE                 DESCRIPTION OF MNEMONIC
#------------------------------------------------------------------------------
~OTHER INFORMATION SECTION
#------------------------------------------------------------------------------
 TCGS 1365
~CURVE INFORMATION
#MNEMO.UNIT         API CODE              CURVE DESCRIPTION
#------------------------------------------------------------------------------
 DEPTH.M                                 :   0     Depth
 TEMP.DegC                               :   1     Temperature
 CN25.uS/cm                              :   2     Conductivity@25DegC
 DELT.DegC                               :   3     Delta T
 DELC.uS/cm                              :   4     Delta C
 NGAM.CPS                                :   5     Natural Gamma
 COND.uS/cm                              :   6     Conductivity
#------------------------------------------------------------------------------
~A  DEPTH     TEMP      CN25      DELT      DELC      NGAM      COND      
# ...
   230.45     17.41     73.77      0.03     -0.08      0.00     62.07 
   230.46     17.41     73.81      0.04     -0.10      0.00     62.11 
   230.47     17.40     73.83      0.02     -0.06      0.00     62.10 
   230.48     17.40     73.86      0.00      0.03      0.00     62.10 
   230.49     17.40     73.81      0.00     -0.06      0.00     62.07 
   230.50     17.39     73.88     -0.01      0.04      0.00     62.10 
   230.51     17.39     73.87     -0.01      0.03      0.00     62.10 
   230.52     17.39     73.88     -0.02      0.11      0.00     62.10 
   230.53     17.40     73.86     -0.01      0.03      0.00     62.10 
   230.54     17.40     73.84     -0.00      0.01      0.00     62.10 
   230.55     17.40     73.81     -0.00     -0.03      0.00     62.07 
   230.56     17.41     73.81      0.01      0.05      7.00     62.10 
   230.57     17.40     73.83     -0.00      0.01      0.00     62.10 
   230.58     17.40     73.84      0.00      0.04      7.00     62.10 
   230.59     17.40     73.86     -0.01      0.03      0.00     62.10 
   230.60     17.40     73.81     -0.00     -0.03      0.00     62.07 
   230.61     17.40     73.84      0.01     -0.03      0.00     62.10 
   230.62     17.40     73.86      0.00      0.05      0.00     62.10 
   230.63     17.39     73.87      0.00      0.00      0.00     62.10 
   230.64     17.38     73.85     -0.00     -0.03      0.00     62.07 
   230.65     17.37     73.93     -0.01      0.09     14.00     62.10 
   230.66     17.38     73.85     -0.01     -0.02      7.00     62.07 
   230.67     17.39     73.88     -0.00      0.01      0.00     62.10 
   230.68     17.40     73.85      0.00     -0.02      0.00     62.10 
   230.69     17.40     73.83      0.01      0.00      0.00     62.10 
   230.70     17.40     73.83      0.01     -0.04      0.00     62.10 
   230.71     17.41     73.76      0.03     -0.13      7.00     62.07 
   230.72     17.41     73.81      0.02     -0.02      0.00     62.10 
   230.73     17.41     73.80      0.04     -0.12      0.00     62.10 
   230.74     17.41     73.82      0.03     -0.09      0.00     62.11 
   230.75     17.40     73.80      0.02     -0.11      0.00     62.07 
   230.76     17.39     73.87      0.01      0.02      0.00     62.10 
   230.77     17.38     73.91     -0.01      0.04      0.00     62.10 
   230.78     17.36     73.95     -0.03      0.10      0.00     62.10 
   230.79     17.37     73.94     -0.04      0.14      0.00     62.10 
   230.80     17.38     73.91     -0.02      0.07      7.00     62.10 
   230.81     17.38     73.85     -0.01     -0.02      0.00     62.07 
   230.82     17.40     73.86      0.01      0.01      0.00     62.11 
   230.83     17.39     73.88      0.01     -0.03      0.00     62.10 
   230.84     17.39     73.88      0.01     -0.03      0.00     62.10 
   230.85     17.39     73.84     -0.00     -0.03      0.00     62.07 
   230.86     17.38     73.90     -0.02      0.09      0.00     62.10 
   230.87     17.39     73.87     -0.00      0.01      0.00     62.10 
   230.88     17.39     73.88     -0.00      0.06      0.00     62.10 
   230.89     17.39     73.88      0.01     -0.02      6.00     62.11 
   230.90     17.39     73.84      0.01     -0.07      0.00     62.07 
   230.91     17.39     73.88      0.00      0.00      7.00     62.10 
   230.92     17.39     73.88      0.00      0.09      0.00     62.10 
   230.93     17.38     73.90     -0.01      0.03      7.00     62.10 
   230.94     17.39     73.87     -0.01      0.02      7.00     62.10 
   230.95     17.40     73.82      0.00      0.01      6.00     62.08 
   230.96     17.40     73.86      0.00     -0.01      7.00     62.10 
   230.97     17.39     73.87      0.01     -0.03      0.00     62.10 
   230.98     17.39     73.87      0.02     -0.07      0.00     62.10 
   230.99     17.39     73.88      0.01      0.02      0.00     62.10 
   231.00     17.40     73.77      0.02     -0.15      7.00     62.03 
   231.01     17.39     73.88      0.00     -0.01      0.00     62.11 
   231.02     17.40     73.86     -0.00      0.01      0.00     62.10 
   231.03     17.40     73.84      0.00      0.04      0.00     62.10 
   231.04     17.39     73.82     -0.02      0.01      0.00     62.07 
   231.05     17.40     73.84     -0.01      0.02      0.00     62.10 
   231.06     17.40     73.84      0.00      0.04      0.00     62.10 
   231.07     17.40     73.85      0.00     -0.01      0.00     62.11 
   231.08     17.40     73.84      0.00     -0.01      0.00     62.10 
   231.09     17.40     73.80      0.01     -0.09      0.00     62.07 
   231.10     17.40     73.84      0.01      0.00      0.00     62.10 
   231.11     17.40     73.84      0.01     -0.04     14.00     62.10 
   231.12     17.41     73.81      0.03     -0.08      0.00     62.10 
   231.13     17.41     73.80      0.03     -0.08      0.00     62.10 
   231.14     17.42     73.74      0.02     -0.07      0.00     62.07 
   231.15     17.42     73.79      0.03     -0.08      0.00     62.10 
   231.16     17.41     73.81      0.03     -0.08      6.00     62.11 
   231.17     17.40     73.86      0.01     -0.04      7.00     62.10 
   231.18     17.39     73.88      0.01      0.02      0.00     62.10 
   231.19     17.38     73.85      0.00     -0.05      7.00     62.07 
   231.20     17.38     73.91      0.00      0.00      0.00     62.10 
   231.21     17.38     73.90      0.00      0.00      0.00     62.10 
   231.22     17.39     73.88      0.00      0.03      0.00     62.10 
   231.23     17.39     73.87      0.00     -0.01      7.00     62.10 
   231.24     17.39     73.82     -0.00     -0.03      7.00     62.07 
   231.25     17.40     73.86      0.00      0.00      0.00     62.10 
   231.26     17.40     73.84      0.00      0.04      0.00     62.10 
   231.27     17.40     73.86     -0.00      0.01      0.00     62.10 
   231.28     17.40     73.86     -0.00      0.06      0.00     62.10 
   231.29     17.40     73.86     -0.00      0.01      0.00     62.10 
   231.30     17.38     73.85     -0.02      0.06      7.00     62.07 
   231.31     17.39     73.88     -0.01      0.04      0.00     62.10 
   231.32     17.39     73.88     -0.01      0.04      0.00     62.10 
   231.33     17.40     73.86     -0.01      0.04      7.00     62.10 
   231.34     17.40     73.84     -0.01      0.03      0.00     62.10 
   231.35     17.40     73.84     -0.01      0.06      0.00     62.10 
   231.36     17.40     73.77     -0.02     -0.03      0.00     62.03 
   231.37     17.40     73.86     -0.01      0.03      0.00     62.10 
   231.38     17.40     73.86     -0.01      0.04     14.00     62.10 
   231.39     17.40     73.84     -0.01      0.07      0.00     62.10 
   231.40     17.40     73.83      0.00      0.00      0.00     62.10 
   231.41     17.40     73.81     -0.01     -0.02      7.00     62.07 
   231.42     17.40     73.84     -0.00      0.01      7.00     62.10 
   231.43     17.40     73.84     -0.00      0.01      7.00     62.10 
   231.44     17.40     73.83     -0.00      0.07      0.00     62.11 
   231.45     17.42     73.79      0.00     -0.02      0.00     62.10 
   231.46     17.41     73.76      0.01     -0.07      7.00     62.07 
   231.47     17.41     73.81      0.01     -0.04      7.00     62.10 
   231.48     17.40     73.84      0.00      0.03      7.00     62.10 
   231.49     17.40     73.84      0.01     -0.04      0.00     62.10 
   231.50     17.40     73.84      0.01     -0.03      0.00     62.10 
   231.51     17.40     73.86      0.01     -0.03      7.00     62.10 
   231.52     17.40     73.84      0.00     -0.01      0.00     62.10 
   231.53     17.39     73.82     -0.01     -0.01      0.00     62.07 
   231.54     17.40     73.84      0.00      0.03      0.00     62.10 
   231.55     17.40     73.83     -0.00      0.01      0.00     62.10 
   231.56     17.40     73.83      0.00      0.00      7.00     62.10 
   231.57     17.40     73.81      0.00     -0.03      0.00     62.08 
