#Written by Robertson Geologging WinLogger V1.0/406
~VERSION INFORMATION
#------------------------------------------------------------------------------
 VERS. 2.0 : CWLS LOG ASCII STANDARD - VERSION 2.0
 WRAP. NO  : ONE LINE PER DEPTH STEP
~WELL INFORMATION
#MNEM.UNIT         DATA                                DESCRIPTION OF MNEMONIC
#------------------------------------------------------------------------------
 STRT.M         71.1200                            :   START DEPTH
 STOP.M        471.0000                            :   STOP DEPTH
 STEP.M          0.0100                            :   STEP VALUE
 NULL.        -999.2500                            :   NULL VALUE
 COMP.    Coal Authority                           :   COMPANY NAME
 WELL.    EasingtonShaft                           :   WELL NAME
 FLD.     Easington                                :   FIELD NAME
 LOC.     N/A                                      :   LOCATION
 PROV.    N/A                                      :   PROVINCE
 SRVC.    N/A                                      :   SERVICE COMPANY NAME
 DATE.    27 Aug 08                                :   DATE
 UWI.     N/A                                      :   UNIQUE WELL IDENTIFIER
~PARAMETER INFORMATION
#MNEMO.UNIT         VALUE                 DESCRIPTION OF MNEMONIC
#------------------------------------------------------------------------------
~OTHER INFORMATION SECTION
#------------------------------------------------------------------------------
 TCGS 1365
~CURVE INFORMATION
#MNEMO.UNIT         API CODE              CURVE DESCRIPTION
#------------------------------------------------------------------------------
 DEPTH.M                                 :   0     Depth
 TEMP.DegC                               :   1     Temperature
 CN25.uS/cm                              :   2     Conductivity@25DegC
 DELT.DegC                               :   3     Delta T
 DELC.uS/cm                              :   4     Delta C
 NGAM.CPS                                :   5     Natural Gamma
 COND.uS/cm                              :   6     Conductivity
#------------------------------------------------------------------------------
~A  DEPTH     TEMP      CN25      DELT      DELC      NGAM      COND      
# ...
   310.68     17.46     73.94     -0.01      0.01      0.00     62.33 
   310.69     17.45     73.95     -0.00      0.09      0.00     62.33 
   310.70     17.46     73.94      0.00     -0.03      8.00     62.33 
   310.71     17.46     73.93      0.01     -0.01      0.00     62.33 
   310.72     17.47     73.87      0.01     -0.09      0.00     62.30 
   310.73     17.47     73.90      0.01     -0.03      0.00     62.33 
   310.74     17.47     73.91     -0.01      0.01      0.00     62.33 
   310.75     17.47     73.90     -0.01      0.06      0.00     62.33 
   310.76     17.46     73.93     -0.00      0.00      0.00     62.33 
   310.77     17.47     73.87      0.00     -0.01      0.00     62.30 
   310.78     17.46     73.94      0.00     -0.01      0.00     62.33 
   310.79     17.46     73.94      0.00     -0.03      8.00     62.33 
   310.80     17.46     73.94      0.00      0.03      0.00     62.33 
   310.81     17.45     73.97     -0.01      0.03      0.00     62.34 
   310.82     17.46     73.89      0.00     -0.02      0.00     62.28 
   310.83     17.45     73.95     -0.02      0.06      0.00     62.33 
   310.84     17.46     73.94     -0.02      0.04      0.00     62.33 
   310.85     17.47     73.88     -0.00     -0.03      0.00     62.30 
   310.86     17.47     73.91      0.00      0.03      0.00     62.33 
   310.87     17.47     73.91      0.01     -0.05      0.00     62.33 
   310.88     17.47     73.91      0.02     -0.02      0.00     62.33 
   310.89     17.46     73.91      0.02     -0.10      0.00     62.30 
   310.90     17.46     73.93      0.01     -0.04      0.00     62.33 
   310.91     17.46     73.93      0.00      0.02      0.00     62.33 
   310.92     17.46     73.94      0.00     -0.01      0.00     62.33 
   310.93     17.46     73.94      0.00      0.00      0.00     62.34 
   310.94     17.47     73.91      0.01      0.00      8.00     62.33 
   310.95     17.47     73.90      0.02     -0.07      8.00     62.33 
   310.96     17.46     73.87      0.00     -0.06      8.00     62.28 
   310.97     17.45     73.95     -0.01      0.07      0.00     62.33 
   310.98     17.45     73.97     -0.01      0.04      7.00     62.34 
   310.99     17.45     73.95     -0.02      0.06      0.00     62.33 
   311.00     17.46     73.94     -0.01      0.06      0.00     62.33 
   311.01     17.47     73.90      0.00     -0.03      0.00     62.33 
   311.02     17.47     73.85      0.00     -0.06      8.00     62.28 
   311.03     17.47     73.90      0.00      0.03      0.00     62.33 
   311.04     17.47     73.91      0.00     -0.03      8.00     62.33 
   311.05     17.45     73.97      0.00      0.03      7.00     62.34 
   311.06     17.44     73.99     -0.01      0.07      0.00     62.33 
   311.07     17.44     73.98     -0.01      0.01     16.00     62.33 
   311.08     17.45     73.97     -0.02      0.10      0.00     62.33 
   311.09     17.45     73.92     -0.03      0.05      0.00     62.30 
   311.10     17.46     73.94     -0.03      0.07      0.00     62.33 
   311.11     17.45     73.95     -0.03      0.13      0.00     62.33 
   311.12     17.44     73.99     -0.03      0.08      0.00     62.34 
   311.13     17.45     73.92     -0.01      0.02      0.00     62.28 
   311.14     17.46     73.94      0.01     -0.04      0.00     62.33 
   311.15     17.47     73.92      0.02     -0.06      0.00     62.34 
   311.16     17.49     73.86      0.04     -0.10      0.00     62.33 
   311.17     17.49     73.81      0.04     -0.16      7.00     62.30 
   311.18     17.49     73.84      0.02     -0.08      0.00     62.33 
   311.19     17.48     73.87      0.00     -0.01      0.00     62.33 
   311.20     17.47     73.91     -0.00      0.06      0.00     62.34 
   311.21     17.47     73.90     -0.01      0.03      0.00     62.33 
   311.22     17.48     73.81      0.01     -0.07      0.00     62.26 
   311.23     17.47     73.90      0.00     -0.01      0.00     62.33 
   311.24     17.47     73.91     -0.00      0.00      0.00     62.33 
   311.25     17.46     73.95     -0.02      0.11      7.00     62.34 
   311.26     17.46     73.93     -0.02      0.06      0.00     62.33 
   311.27     17.45     73.92     -0.03      0.04      7.00     62.30 
   311.28     17.47     73.91     -0.00      0.05      0.00     62.33 
   311.29     17.48     73.88      0.00     -0.03      0.00     62.33 
   311.30     17.46     73.94     -0.01      0.04      0.00     62.34 
   311.31     17.47     73.90      0.00      0.02      0.00     62.33 
   311.32     17.46     73.91     -0.02      0.02      0.00     62.30 
   311.33     17.45     73.95     -0.02      0.04      0.00     62.33 
   311.34     17.46     73.94     -0.00      0.05      0.00     62.33 
   311.35     17.46     73.95      0.00     -0.01      0.00     62.34 
   311.36     17.47     73.91      0.02     -0.07      0.00     62.33 
   311.37     17.48     73.85      0.02     -0.09      0.00     62.30 
   311.38     17.48     73.87      0.01      0.00      0.00     62.33 
   311.39     17.47     73.90      0.00     -0.01      0.00     62.33 
   311.40     17.47     73.90      0.01     -0.01      0.00     62.33 
   311.41     17.45     73.92      0.00     -0.04      0.00     62.30 
   311.42     17.46     73.93      0.01      0.01      0.00     62.33 
   311.43     17.47     73.91      0.00     -0.01      8.00     62.33 
   311.44     17.45     73.98     -0.02      0.11      0.00     62.34 
   311.45     17.45     73.97     -0.02      0.06      8.00     62.33 
   311.46     17.43     73.97     -0.04      0.05     16.00     62.28 
   311.47     17.42     74.04     -0.03      0.13      0.00     62.33 
   311.48     17.44     73.99     -0.02      0.06     14.00     62.34 
   311.49     17.45     73.97     -0.01      0.03      0.00     62.33 
   311.50     17.46     73.93      0.00      0.03      8.00     62.33 
   311.51     17.46     73.89      0.00     -0.03      0.00     62.30 
   311.52     17.46     73.94      0.01     -0.05      0.00     62.33 
   311.53     17.46     73.93      0.00      0.00      8.00     62.33 
   311.54     17.47     73.91      0.01     -0.03      0.00     62.33 
   311.55     17.46     73.95      0.01     -0.04      0.00     62.34 
   311.56     17.46     73.87      0.00      0.00      8.00     62.28 
   311.57     17.47     73.90      0.02     -0.07      8.00     62.33 
   311.58     17.45     73.97     -0.01      0.04      7.00     62.34 
   311.59     17.47     73.91      0.00      0.00      0.00     62.33 
   311.60     17.46     73.91     -0.01     -0.00      7.00     62.30 
   311.61     17.44     73.98     -0.04      0.11      8.00     62.33 
   311.62     17.45     73.90     -0.02      0.05      8.00     62.28 
   311.63     17.45     73.98     -0.03      0.10      0.00     62.34 
   311.64     17.45     73.92     -0.02      0.02      0.00     62.30 
   311.65     17.46     73.93      0.00      0.00      0.00     62.33 
   311.66     17.45     73.98     -0.00      0.01      0.00     62.34 
   311.67     17.45     73.93     -0.01     -0.00      0.00     62.30 
   311.68     17.45     73.97     -0.00      0.01      0.00     62.33 
   311.69     17.46     73.95      0.00      0.01      0.00     62.34 
   311.70     17.47     73.91      0.01     -0.01      7.00     62.34 
   311.71     17.47     73.88     -0.00      0.01      0.00     62.30 
   311.72     17.48     73.90      0.00     -0.00      0.00     62.34 
   311.73     17.46     73.89     -0.00     -0.02      0.00     62.30 
   311.74     17.46     73.94     -0.01      0.04      0.00     62.34 
   311.75     17.46     73.95     -0.00      0.03      7.00     62.34 
   311.76     17.45     73.92     -0.02      0.06      7.00     62.30 
   311.77     17.46     73.96      0.00      0.03      0.00     62.35 
   311.78     17.46     73.91      0.00     -0.03      0.00     62.30 
   311.79     17.47     73.92      0.01     -0.01      0.00     62.34 
   311.80     17.47     73.88      0.01     -0.09      0.00     62.30 
