#Written by Robertson Geologging WinLogger V1.0/370
~VERSION INFORMATION
#------------------------------------------------------------------------------
 VERS. 2.0 : CWLS LOG ASCII STANDARD - VERSION 2.0
 WRAP. NO  : ONE LINE PER DEPTH STEP
~WELL INFORMATION
#MNEM.UNIT         DATA                                DESCRIPTION OF MNEMONIC
#------------------------------------------------------------------------------
 STRT.M         50.0700                            :   START DEPTH
 STOP.M        138.5000                            :   STOP DEPTH
 STEP.M          0.0100                            :   STEP VALUE
 NULL.        -999.2500                            :   NULL VALUE
 COMP.    White Young Green                        :   COMPANY NAME
 WELL.    Lumley 6 Pit                             :   WELL NAME
 FLD.     lumley                                   :   FIELD NAME
 LOC.     N/A                                      :   LOCATION
 PROV.    N/A                                      :   PROVINCE
 SRVC.    N/A                                      :   SERVICE COMPANY NAME
 DATE.    06 Oct 05                                :   DATE
 UWI.     N/A                                      :   UNIQUE WELL IDENTIFIER
~PARAMETER INFORMATION
#MNEMO.UNIT         VALUE                 DESCRIPTION OF MNEMONIC
#------------------------------------------------------------------------------
~OTHER INFORMATION SECTION
#------------------------------------------------------------------------------
 TCGS1365
 Hole finnished 133 .Probe would not penatrate crust as seen on CCTV
~CURVE INFORMATION
#MNEMO.UNIT         API CODE              CURVE DESCRIPTION
#------------------------------------------------------------------------------
 DEPTH.M                                 :   0     Depth
 TEMP.DegC                               :   1     Temperature
 CN25.mS/cm                              :   2     Conductivity@25DegC
 COND.mS/cm                              :   3     Conductivity
 DELT.DegC                               :   4     Delta T
 DELC.mS/cm                              :   5     Delta C
 NGAM.CPS                                :   6     Natural Gamma
#------------------------------------------------------------------------------
~A  DEPTH     TEMP      CN25      COND      DELT      DELC      NGAM      
# ...
    73.80     11.41      9.67      2.04      0.01     -0.01      2.06 
    73.81     11.41      9.67      2.04      0.01     -0.01      2.06 
    73.82     11.41      9.67      2.04      0.01     -0.01      2.06 
    73.83     11.41      9.67      2.04      0.01     -0.01      2.06 
    73.84     11.41      9.67      2.04      0.01     -0.01      2.06 
    73.85     11.41      9.67      2.04      0.01     -0.01      2.06 
    73.86     11.41      9.67      2.04      0.01     -0.01      2.06 
    73.87     11.42      9.67      2.04      0.01     -0.01      1.24 
    73.88     11.42      9.67      2.04      0.01     -0.01      1.24 
    73.89     11.42      9.67      2.04      0.01     -0.01      1.24 
    73.90     11.41      9.67      2.04      0.01     -0.01      1.59 
    73.91     11.41      9.67      2.04      0.01     -0.01      0.76 
    73.92     11.41      9.67      2.04      0.01     -0.01      0.35 
    73.93     11.41      9.67      2.04      0.01     -0.01      0.35 
    73.94     11.42      9.67      2.04      0.01     -0.01      1.18 
    73.95     11.42      9.67      2.04      0.02     -0.01      1.18 
    73.96     11.42      9.67      2.04      0.02     -0.01      1.18 
    73.97     11.42      9.67      2.04      0.02     -0.01      1.59 
    73.98     11.42      9.67      2.04      0.01     -0.01      1.59 
    73.99     11.42      9.66      2.04      0.01     -0.01      1.59 
    74.00     11.42      9.66      2.04      0.01     -0.01      1.59 
    74.01     11.42      9.66      2.04      0.01     -0.01      1.59 
    74.02     11.42      9.67      2.04      0.01     -0.01      1.59 
    74.03     11.42      9.67      2.04      0.01     -0.01      1.59 
    74.04     11.42      9.67      2.04      0.00     -0.00      1.59 
    74.05     11.42      9.67      2.04      0.00      0.00      2.00 
    74.06     11.42      9.67      2.04     -0.00     -0.00      2.00 
    74.07     11.41      9.67      2.04     -0.00      0.01      2.00 
    74.08     11.41      9.67      2.04     -0.01      0.01      2.00 
    74.09     11.41      9.68      2.04     -0.01      0.01      2.00 
    74.10     11.41      9.68      2.04     -0.01      0.01      2.00 
    74.11     11.40      9.68      2.04     -0.01      0.01      1.53 
    74.12     11.40      9.68      2.04     -0.01      0.01      1.53 
    74.13     11.41      9.68      2.04     -0.01      0.01      1.53 
    74.14     11.41      9.68      2.04     -0.01      0.01      1.12 
    74.15     11.41      9.68      2.04     -0.00      0.01      1.47 
    74.16     11.41      9.68      2.04     -0.00      0.01      1.88 
    74.17     11.41      9.68      2.04     -0.00      0.01      1.88 
    74.18     11.41      9.68      2.04     -0.00      0.00      1.88 
    74.19     11.41      9.68      2.04      0.00      0.00      1.88 
    74.20     11.41      9.67      2.04      0.01     -0.00      1.88 
    74.21     11.41      9.67      2.04      0.01     -0.01      1.88 
    74.22     11.41      9.67      2.04      0.01     -0.01      1.47 
    74.23     11.41      9.67      2.04      0.01     -0.01      1.88 
    74.24     11.41      9.67      2.04      0.01     -0.01      1.53 
    74.25     11.41      9.67      2.04      0.01     -0.01      1.53 
    74.26     11.42      9.67      2.04      0.01     -0.01      1.53 
    74.27     11.41      9.67      2.04      0.01     -0.01      1.53 
    74.28     11.41      9.67      2.04      0.01     -0.01      1.53 
    74.29     11.41      9.67      2.04      0.01     -0.00      1.53 
    74.30     11.41      9.67      2.04      0.01     -0.01      1.53 
    74.31     11.41      9.67      2.04      0.00     -0.01      1.53 
    74.32     11.41      9.67      2.04      0.00     -0.00      1.18 
    74.33     11.41      9.67      2.04      0.00     -0.01      0.76 
    74.34     11.41      9.67      2.04     -0.00     -0.00      1.59 
    74.35     11.41      9.68      2.04     -0.00      0.00      1.59 
    74.36     11.41      9.68      2.04     -0.00      0.01      1.59 
    74.37     11.41      9.68      2.04     -0.00     -0.00      1.59 
    74.38     11.41      9.68      2.04      0.00      0.00      1.94 
    74.39     11.41      9.68      2.04      0.00      0.00      1.94 
    74.40     11.41      9.67      2.04      0.00     -0.01      1.53 
    74.41     11.41      9.68      2.05      0.01     -0.00      1.88 
    74.42     11.41      9.67      2.04      0.01     -0.00      1.88 
    74.43     11.41      9.67      2.04      0.01     -0.01      1.88 
    74.44     11.41      9.67      2.04      0.01     -0.01      1.88 
    74.45     11.41      9.67      2.04      0.01     -0.01      1.53 
    74.46     11.41      9.67      2.04      0.01     -0.01      1.53 
    74.47     11.41      9.67      2.04      0.01     -0.01      1.53 
    74.48     11.41      9.67      2.04      0.01     -0.01      1.88 
    74.49     11.41      9.67      2.04      0.01     -0.01      1.88 
    74.50     11.41      9.67      2.04      0.01     -0.00      1.88 
    74.51     11.41      9.67      2.04      0.00     -0.00      1.06 
    74.52     11.41      9.67      2.04      0.00     -0.01      1.06 
    74.53     11.41      9.67      2.04      0.00     -0.00      1.06 
    74.54     11.41      9.67      2.04      0.00     -0.00      1.06 
    74.55     11.41      9.67      2.04      0.01     -0.01      0.71 
    74.56     11.41      9.67      2.04      0.01     -0.01      1.12 
    74.57     11.41      9.67      2.04      0.01     -0.01      1.12 
    74.58     11.42      9.67      2.04      0.01     -0.01      0.76 
    74.59     11.42      9.67      2.04      0.01     -0.01      0.76 
    74.60     11.42      9.67      2.04      0.01     -0.01      0.76 
    74.61     11.41      9.67      2.04      0.01     -0.01      0.76 
    74.62     11.41      9.67      2.04      0.00     -0.01      1.18 
    74.63     11.41      9.68      2.04      0.00     -0.00      1.18 
    74.64     11.41      9.68      2.04      0.00     -0.00      1.18 
    74.65     11.41      9.68      2.04     -0.00     -0.00      0.82 
    74.66     11.40      9.68      2.04     -0.00      0.00      0.82 
    74.67     11.40      9.68      2.04     -0.01      0.00      1.24 
    74.68     11.40      9.68      2.04     -0.01      0.00      1.24 
    74.69     11.40      9.68      2.04     -0.01      0.01      1.24 
    74.70     11.40      9.68      2.04     -0.01      0.01      1.24 
    74.71     11.40      9.68      2.04     -0.01      0.00      1.65 
    74.72     11.40      9.68      2.04     -0.00      0.00      1.65 
    74.73     11.41      9.68      2.04     -0.00     -0.00      1.24 
    74.74     11.41      9.67      2.04     -0.00     -0.01      1.24 
    74.75     11.41      9.67      2.04      0.00     -0.00      1.24 
    74.76     11.41      9.68      2.04      0.00     -0.00      1.24 
    74.77     11.41      9.67      2.04      0.00     -0.01      1.24 
    74.78     11.41      9.67      2.04      0.01     -0.01      1.24 
    74.79     11.42      9.67      2.04      0.01     -0.00      0.82 
    74.80     11.42      9.67      2.04      0.01     -0.01      1.18 
    74.81     11.42      9.66      2.04      0.01     -0.01      1.18 
    74.82     11.42      9.67      2.04      0.01     -0.00      1.59 
    74.83     11.42      9.66      2.04      0.01     -0.01      1.59 
    74.84     11.42      9.66      2.04      0.01     -0.01      1.18 
    74.85     11.42      9.66      2.04      0.01     -0.01      1.18 
    74.86     11.42      9.66      2.04      0.01     -0.01      1.18 
    74.87     11.42      9.66      2.04      0.01     -0.01      1.18 
    74.88     11.43      9.66      2.04      0.01     -0.01      0.76 
    74.89     11.43      9.66      2.04      0.01     -0.01      0.76 
    74.90     11.43      9.65      2.04      0.01     -0.02      0.76 
    74.91     11.43      9.65      2.04      0.01     -0.02      0.76 
    74.92     11.42      9.66      2.04      0.01     -0.01      0.76 
