#Written by Robertson Geologging WinLogger V1.0/370
~VERSION INFORMATION
#------------------------------------------------------------------------------
 VERS. 2.0 : CWLS LOG ASCII STANDARD - VERSION 2.0
 WRAP. NO  : ONE LINE PER DEPTH STEP
~WELL INFORMATION
#MNEM.UNIT         DATA                                DESCRIPTION OF MNEMONIC
#------------------------------------------------------------------------------
 STRT.M         50.0700                            :   START DEPTH
 STOP.M        138.5000                            :   STOP DEPTH
 STEP.M          0.0100                            :   STEP VALUE
 NULL.        -999.2500                            :   NULL VALUE
 COMP.    White Young Green                        :   COMPANY NAME
 WELL.    Lumley 6 Pit                             :   WELL NAME
 FLD.     lumley                                   :   FIELD NAME
 LOC.     N/A                                      :   LOCATION
 PROV.    N/A                                      :   PROVINCE
 SRVC.    N/A                                      :   SERVICE COMPANY NAME
 DATE.    06 Oct 05                                :   DATE
 UWI.     N/A                                      :   UNIQUE WELL IDENTIFIER
~PARAMETER INFORMATION
#MNEMO.UNIT         VALUE                 DESCRIPTION OF MNEMONIC
#------------------------------------------------------------------------------
~OTHER INFORMATION SECTION
#------------------------------------------------------------------------------
 TCGS1365
 Hole finnished 133 .Probe would not penatrate crust as seen on CCTV
~CURVE INFORMATION
#MNEMO.UNIT         API CODE              CURVE DESCRIPTION
#------------------------------------------------------------------------------
 DEPTH.M                                 :   0     Depth
 TEMP.DegC                               :   1     Temperature
 CN25.mS/cm                              :   2     Conductivity@25DegC
 COND.mS/cm                              :   3     Conductivity
 DELT.DegC                               :   4     Delta T
 DELC.mS/cm                              :   5     Delta C
 NGAM.CPS                                :   6     Natural Gamma
#------------------------------------------------------------------------------
~A  DEPTH     TEMP      CN25      COND      DELT      DELC      NGAM      
# ...
   120.13     14.24     11.30      5.69      0.02     -0.02      1.76 
   120.14     14.24     11.30      5.69      0.02     -0.02      1.76 
   120.15     14.24     11.30      5.69      0.02     -0.03      2.47 
   120.16     14.24     11.30      5.69      0.03     -0.03      1.41 
   120.17     14.24     11.30      5.69      0.02     -0.02      1.41 
   120.18     14.24     11.30      5.69      0.02     -0.02      1.41 
   120.19     14.24     11.30      5.69      0.02     -0.02      1.41 
   120.20     14.24     11.30      5.69      0.02     -0.02      1.41 
   120.21     14.24     11.30      5.69      0.01     -0.01      1.41 
   120.22     14.24     11.30      5.69      0.01     -0.01      1.76 
   120.23     14.24     11.31      5.69      0.01     -0.00      1.76 
   120.24     14.24     11.31      5.69      0.00     -0.00      1.41 
   120.25     14.24     11.31      5.69      0.00     -0.00      1.41 
   120.26     14.24     11.31      5.69      0.00      0.00      1.41 
   120.27     14.24     11.31      5.69     -0.00      0.01      1.41 
   120.28     14.23     11.31      5.69     -0.00      0.01      1.47 
   120.29     14.23     11.31      5.69     -0.00      0.01      1.47 
   120.30     14.23     11.31      5.69     -0.00      0.01      1.47 
   120.31     14.23     11.31      5.69     -0.00      0.01      1.88 
   120.32     14.23     11.32      5.69     -0.00      0.01      1.18 
   120.33     14.23     11.31      5.69     -0.00      0.01      1.18 
   120.34     14.23     11.31      5.69      0.00      0.01      1.18 
   120.35     14.23     11.31      5.69      0.00      0.00      1.18 
   120.36     14.24     11.31      5.69      0.00     -0.00      1.18 
   120.37     14.24     11.31      5.69      0.00     -0.00      1.18 
   120.38     14.24     11.31      5.69      0.00     -0.00      1.18 
   120.39     14.24     11.31      5.69      0.01     -0.01      0.82 
   120.40     14.24     11.30      5.69      0.00     -0.00      0.82 
   120.41     14.24     11.31      5.69      0.00      0.00      0.82 
   120.42     14.24     11.31      5.70      0.00      0.00      0.82 
   120.43     14.24     11.31      5.69      0.00     -0.00      0.82 
   120.44     14.23     11.31      5.69      0.00      0.00      0.82 
   120.45     14.23     11.31      5.69      0.00     -0.00      0.41 
   120.46     14.23     11.31      5.69     -0.00      0.01      0.41 
   120.47     14.23     11.32      5.69     -0.00      0.01      0.41 
   120.48     14.23     11.32      5.69     -0.00      0.01      0.00 
   120.49     14.23     11.32      5.69     -0.00      0.01      0.00 
   120.50     14.23     11.32      5.69     -0.00      0.01      0.00 
   120.51     14.23     11.32      5.69     -0.00      0.00      0.00 
   120.52     14.23     11.32      5.69     -0.00      0.01      0.00 
   120.53     14.23     11.32      5.69     -0.00      0.01      0.00 
   120.54     14.23     11.32      5.69     -0.01      0.01      0.00 
   120.55     14.22     11.32      5.69     -0.01      0.01      0.00 
   120.56     14.22     11.33      5.69     -0.01      0.02      0.00 
   120.57     14.22     11.33      5.69     -0.01      0.02      0.00 
   120.58     14.22     11.33      5.69     -0.01      0.01      0.35 
   120.59     14.22     11.33      5.69     -0.01      0.02      0.35 
   120.60     14.22     11.33      5.69     -0.01      0.02      0.35 
   120.61     14.22     11.33      5.69     -0.01      0.01      0.35 
   120.62     14.22     11.33      5.69     -0.01      0.02      0.35 
   120.63     14.22     11.33      5.70     -0.01      0.02      0.35 
   120.64     14.23     11.32      5.69     -0.01      0.01      1.18 
   120.65     14.23     11.32      5.69     -0.00      0.01      1.18 
   120.66     14.23     11.32      5.70     -0.00      0.01      1.59 
   120.67     14.24     11.32      5.70     -0.00      0.01      1.59 
   120.68     14.24     11.31      5.69     -0.00      0.01      1.59 
   120.69     14.24     11.31      5.69     -0.00      0.01      1.59 
   120.70     14.24     11.31      5.69     -0.00      0.01      1.59 
   120.71     14.24     11.30      5.69      0.00      0.00      1.59 
   120.72     14.24     11.30      5.69      0.00     -0.00      1.59 
   120.73     14.24     11.30      5.69      0.00     -0.00      1.59 
   120.74     14.24     11.30      5.69      0.00     -0.00      1.59 
   120.75     14.24     11.31      5.69      0.00      0.00      1.24 
   120.76     14.24     11.31      5.69      0.00     -0.00      1.65 
   120.77     14.24     11.31      5.69      0.00     -0.00      1.65 
   120.78     14.24     11.31      5.69      0.01     -0.01      1.65 
   120.79     14.24     11.31      5.69      0.01     -0.01      1.65 
   120.80     14.24     11.31      5.69      0.01     -0.01      1.65 
   120.81     14.24     11.31      5.70      0.01     -0.01      0.82 
   120.82     14.24     11.31      5.69      0.01     -0.01      0.82 
   120.83     14.24     11.31      5.69      0.01     -0.01      0.41 
   120.84     14.24     11.31      5.70      0.02     -0.01      0.41 
   120.85     14.24     11.31      5.69      0.02     -0.02      0.41 
   120.86     14.24     11.31      5.69      0.02     -0.02      0.76 
   120.87     14.24     11.31      5.70      0.02     -0.02      0.76 
   120.88     14.24     11.31      5.70      0.02     -0.01      0.76 
   120.89     14.23     11.31      5.69      0.01     -0.01      0.76 
   120.90     14.23     11.32      5.69      0.01     -0.00      0.76 
   120.91     14.23     11.32      5.70      0.00      0.00      0.76 
   120.92     14.23     11.32      5.69      0.00      0.00      0.76 
   120.93     14.23     11.32      5.69     -0.00      0.00      0.35 
   120.94     14.23     11.33      5.70     -0.00      0.01      0.35 
   120.95     14.22     11.33      5.69     -0.01      0.01      0.71 
   120.96     14.22     11.33      5.69     -0.01      0.01      0.71 
   120.97     14.22     11.33      5.69     -0.01      0.01      0.71 
   120.98     14.22     11.33      5.69     -0.01      0.02      0.71 
   120.99     14.23     11.32      5.69     -0.01      0.02      0.71 
   121.00     14.23     11.32      5.69     -0.01      0.02      0.71 
   121.01     14.23     11.32      5.70     -0.00      0.01      0.71 
   121.02     14.24     11.31      5.69     -0.00      0.01      0.71 
   121.03     14.24     11.31      5.69     -0.00      0.00      0.35 
   121.04     14.24     11.31      5.69     -0.00      0.00      0.35 
   121.05     14.24     11.31      5.69     -0.00      0.01      0.35 
   121.06     14.23     11.31      5.69     -0.00      0.00      0.35 
   121.07     14.23     11.31      5.69     -0.01      0.01      0.35 
   121.08     14.24     11.31      5.69     -0.01      0.01      0.35 
   121.09     14.24     11.31      5.69     -0.01      0.01      0.35 
   121.10     14.24     11.31      5.69     -0.01      0.01      0.35 
   121.11     14.24     11.31      5.69     -0.01      0.01      0.35 
   121.12     14.23     11.31      5.69     -0.01      0.01      0.00 
   121.13     14.23     11.31      5.69     -0.01      0.01      0.00 
   121.14     14.23     11.32      5.69     -0.01      0.02      0.41 
   121.15     14.23     11.32      5.70     -0.02      0.02      0.41 
   121.16     14.23     11.32      5.69     -0.02      0.02      0.41 
   121.17     14.23     11.32      5.70     -0.01      0.02      0.41 
   121.18     14.23     11.32      5.70     -0.01      0.02      0.41 
   121.19     14.23     11.32      5.69     -0.01      0.02      0.41 
   121.20     14.23     11.32      5.70     -0.01      0.02      0.41 
   121.21     14.23     11.32      5.70     -0.01      0.02      0.41 
   121.22     14.23     11.32      5.69     -0.01      0.01      0.82 
   121.23     14.23     11.32      5.70     -0.01      0.02      1.18 
   121.24     14.23     11.32      5.70     -0.01      0.02      1.18 
   121.25     14.23     11.32      5.69     -0.01      0.01      1.18 
