#Written by Robertson Geologging WinLogger V1.0/406
~VERSION INFORMATION
#------------------------------------------------------------------------------
 VERS. 2.0 : CWLS LOG ASCII STANDARD - VERSION 2.0
 WRAP. NO  : ONE LINE PER DEPTH STEP
~WELL INFORMATION
#MNEM.UNIT         DATA                                DESCRIPTION OF MNEMONIC
#------------------------------------------------------------------------------
 STRT.M         58.0600                            :   START DEPTH
 STOP.M        154.1000                            :   STOP DEPTH
 STEP.M          0.0100                            :   STEP VALUE
 NULL.        -999.2500                            :   NULL VALUE
 COMP.    Coal Authority                           :   COMPANY NAME
 WELL.    Lumley                                   :   WELL NAME
 FLD.     N/A                                      :   FIELD NAME
 LOC.     N/A                                      :   LOCATION
 PROV.    N/A                                      :   PROVINCE
 SRVC.    N/A                                      :   SERVICE COMPANY NAME
 DATE.    01 Oct 08                                :   DATE
 UWI.     N/A                                      :   UNIQUE WELL IDENTIFIER
~PARAMETER INFORMATION
#MNEMO.UNIT         VALUE                 DESCRIPTION OF MNEMONIC
#------------------------------------------------------------------------------
~OTHER INFORMATION SECTION
#------------------------------------------------------------------------------
 TCGS2822
~CURVE INFORMATION
#MNEMO.UNIT         API CODE              CURVE DESCRIPTION
#------------------------------------------------------------------------------
 DEPTH.M                                 :   0     Depth
 TEMP.DegC                               :   1     Temperature
 COND.uS/cm                              :   2     Conductivity
 DELT.DegC                               :   3     Delta T
 DELC.uS/cm                              :   4     Delta C
 NGAM.CPS                                :   5     Natural Gamma
#------------------------------------------------------------------------------
~A  DEPTH     TEMP      COND      DELT      DELC      NGAM      
# ...
   108.22     14.46   5732.56      0.01     -4.62      0.00 
   108.23     14.46   5737.18      0.00     -1.85      0.00 
   108.24     14.46   5732.56     -0.00     -4.62      0.00 
   108.25     14.45   5737.18      0.00     -1.85      0.00 
   108.26     14.45   5732.56     -0.01     -4.62      0.00 
   108.27     14.46   5732.56     -0.00     -6.47      7.00 
   108.28     14.47   5737.18      0.00      0.00      0.00 
   108.29     14.48   5732.56      0.00      0.00      0.00 
   108.30     14.49   5737.18      0.01      0.00      0.00 
   108.31     14.47   5732.56     -0.00     -6.47      0.00 
   108.32     14.47   5732.56     -0.00     -4.62      0.00 
   108.33     14.45   5737.18     -0.02      4.62      0.00 
   108.34     14.44   5732.56     -0.01      0.00      0.00 
   108.35     14.47   5737.18      0.01      0.00      0.00 
   108.36     14.46   5732.56      0.01      0.00      0.00 
   108.37     14.47   5732.56      0.01     -4.62      0.00 
   108.38     14.47   5737.18      0.01      4.62      0.00 
   108.39     14.46   5732.56      0.01      0.00      0.00 
   108.40     14.48   5737.18      0.03      0.00      8.00 
   108.41     14.48   5732.56      0.03      0.00      0.00 
   108.42     14.48   5737.18      0.01      4.62      0.00 
   108.43     14.48   5732.56      0.00     -4.62      0.00 
   108.44     14.46   5737.18     -0.00      4.62      0.00 
   108.45     14.47   5739.03     -0.00      1.85      7.00 
   108.46     14.48   5737.18      0.00      4.62      0.00 
   108.47     14.47   5739.03      0.00      6.47      0.00 
   108.48     14.48   5726.09      0.01    -11.09      0.00 
   108.49     14.48   5737.18      0.02      4.62      0.00 
   108.50     14.46   5739.03      0.00      6.47      0.00 
   108.51     14.48   5737.18      0.01      7.40      0.00 
   108.52     14.46   5739.03     -0.01      0.00      0.00 
   108.53     14.47   5739.03     -0.01      9.24      0.00 
   108.54     14.50   5744.57      0.03     12.02      8.00 
   108.55     14.50   5732.56      0.03     -4.62      7.00 
   108.56     14.51   5744.57      0.05     12.02      0.00 
   108.57     14.49   5739.03      0.05      1.85      0.00 
   108.58     14.48   5737.18      0.02      7.40      0.00 
   108.59     14.46   5739.03      0.00      6.47      0.00 
   108.60     14.46   5739.03     -0.01      1.85      0.00 
   108.61     14.48   5737.18      0.00      4.62      0.00 
   108.62     14.49   5744.57      0.02      7.40      8.00 
   108.63     14.49   5732.56      0.02      0.00      0.00 
   108.64     14.48   5744.57      0.01     14.79      0.00 
   108.65     14.47   5732.56     -0.00      0.00      0.00 
   108.66     14.47   5739.03     -0.01      1.85      0.00 
   108.67     14.48   5737.18     -0.01      4.62      0.00 
   108.68     14.48   5739.03      0.00      1.85      0.00 
   108.69     14.48   5737.18      0.02     11.09      8.00 
   108.70     14.48   5732.56      0.02      2.77      0.00 
   108.71     14.47   5739.03      0.02      1.85      0.00 
   108.72     14.47   5737.18      0.02      4.62      0.00 
   108.73     14.46   5732.56     -0.01     -4.62      0.00 
   108.74     14.46   5739.03     -0.00      6.47      7.00 
   108.75     14.46   5737.18      0.00      7.40      0.00 
   108.76     14.47   5732.56      0.01      0.00      0.00 
   108.77     14.48   5737.18      0.03      0.00      0.00 
   108.78     14.47   5739.03      0.02      6.47      7.00 
   108.79     14.48   5729.78      0.02     -7.40      0.00 
   108.80     14.46   5739.03      0.01      6.47      7.00 
   108.81     14.46   5737.18     -0.01      0.00      0.00 
   108.82     14.46   5732.56     -0.02      0.00      0.00 
   108.83     14.46   5737.18     -0.04      7.40      0.00 
   108.84     14.47   5739.03     -0.03      6.47      7.00 
   108.85     14.47   5737.18     -0.02     -1.85      0.00 
   108.86     14.48   5732.56     -0.01      2.77      0.00 
   108.87     14.49   5737.18      0.01      4.62      0.00 
   108.88     14.48   5739.03      0.00      0.00      7.00 
   108.89     14.48   5737.18      0.01      7.40      8.00 
   108.90     14.48   5732.56      0.01      0.00      0.00 
   108.91     14.46   5737.18      0.00      0.00      0.00 
   108.92     14.47   5739.03      0.00      6.47      7.00 
   108.93     14.46   5737.18     -0.01      4.62      0.00 
   108.94     14.46   5732.56     -0.01     -4.62      0.00 
   108.95     14.46   5737.18     -0.01      4.62      0.00 
   108.96     14.47   5739.03      0.01      6.47      7.00 
   108.97     14.47   5737.18      0.00      0.00      0.00 
   108.98     14.47   5732.56      0.00      0.00      0.00 
   108.99     14.47   5737.18      0.00      0.00      0.00 
   109.00     14.47   5739.03     -0.02      6.47      0.00 
   109.01     14.47   5739.03     -0.00      6.47      0.00 
   109.02     14.47   5737.18     -0.02      0.00      0.00 
   109.03     14.46   5732.56     -0.03      0.00      7.00 
   109.04     14.47   5737.18     -0.01      4.62      0.00 
   109.05     14.46   5739.03     -0.00      1.85      0.00 
   109.06     14.48   5737.18      0.03      4.62      0.00 
   109.07     14.48   5739.03      0.02      6.47      0.00 
   109.08     14.45   5739.03     -0.02      6.47      0.00 
   109.09     14.47   5737.18     -0.02      0.00      8.00 
   109.10     14.45   5739.03     -0.03      6.47      0.00 
   109.11     14.45   5732.56     -0.03     -4.62      0.00 
   109.12     14.47   5737.18     -0.01      4.62      0.00 
   109.13     14.46   5739.03      0.00      6.47      0.00 
   109.14     14.46   5739.03     -0.01      1.85      0.00 
   109.15     14.48   5737.18      0.00      4.62      0.00 
   109.16     14.47   5739.03      0.00      0.00      7.00 
   109.17     14.47   5739.03     -0.00      9.24      0.00 
   109.18     14.49   5737.18      0.03      4.62      0.00 
   109.19     14.49   5739.03      0.04      1.85      0.00 
   109.20     14.50   5737.18      0.04      4.62      0.00 
   109.21     14.50   5739.03      0.03      6.47      0.00 
   109.22     14.49   5739.03      0.03      1.85      0.00 
   109.23     14.48   5739.03      0.02      6.47      0.00 
   109.24     14.47   5737.18      0.02      0.00      0.00 
   109.25     14.48   5739.03      0.03      6.47      0.00 
   109.26     14.48   5737.18      0.02      4.62      0.00 
   109.27     14.48   5732.56      0.01     -4.62      0.00 
   109.28     14.49   5739.03      0.01      6.47      0.00 
   109.29     14.48   5737.18     -0.01      0.00      0.00 
   109.30     14.48   5739.03      0.01      6.47      0.00 
   109.31     14.50   5739.03      0.03      6.47      0.00 
   109.32     14.48   5737.18      0.03      0.00      0.00 
   109.33     14.48   5739.03      0.04      6.47      0.00 
   109.34     14.48   5737.18      0.01      0.00      0.00 
   109.35     14.46   5739.03     -0.00      6.47      0.00 
   109.36     14.47   5739.03      0.00      6.47      0.00 
   109.37     14.47   5737.18      0.00      0.00      0.00 
   109.38     14.47   5739.03      0.01      6.47      0.00 
   109.39     14.48   5739.03      0.00      1.85      0.00 
   109.40     14.49   5737.18      0.00      4.62      0.00 
   109.41     14.49   5739.03      0.01      1.85      0.00 
   109.42     14.48   5739.03      0.00      6.47      7.00 
   109.43     14.49   5744.57      0.03      7.40      0.00 
   109.44     14.49   5739.03      0.02      0.00      0.00 
   109.45     14.45   5739.03     -0.02      1.85      7.00 
   109.46     14.47   5737.18      0.00     -1.85      0.00 
   109.47     14.44   5739.03     -0.03     12.94      0.00 
   109.48     14.46   5737.18     -0.02      0.00      0.00 
   109.49     14.46   5739.03      0.00      0.00      0.00 
   109.50     14.46   5739.03     -0.01      1.85      0.00 
   109.51     14.48   5737.18      0.02     -1.85      0.00 
   109.52     14.47   5745.50     -0.00      6.47      0.00 
   109.53     14.47   5737.18     -0.02     -7.40      0.00 
