#Written by Robertson Geologging WinLogger V1.0/406
~VERSION INFORMATION
#------------------------------------------------------------------------------
 VERS. 2.0 : CWLS LOG ASCII STANDARD - VERSION 2.0
 WRAP. NO  : ONE LINE PER DEPTH STEP
~WELL INFORMATION
#MNEM.UNIT         DATA                                DESCRIPTION OF MNEMONIC
#------------------------------------------------------------------------------
 STRT.M         58.0600                            :   START DEPTH
 STOP.M        154.1000                            :   STOP DEPTH
 STEP.M          0.0100                            :   STEP VALUE
 NULL.        -999.2500                            :   NULL VALUE
 COMP.    Coal Authority                           :   COMPANY NAME
 WELL.    Lumley                                   :   WELL NAME
 FLD.     N/A                                      :   FIELD NAME
 LOC.     N/A                                      :   LOCATION
 PROV.    N/A                                      :   PROVINCE
 SRVC.    N/A                                      :   SERVICE COMPANY NAME
 DATE.    01 Oct 08                                :   DATE
 UWI.     N/A                                      :   UNIQUE WELL IDENTIFIER
~PARAMETER INFORMATION
#MNEMO.UNIT         VALUE                 DESCRIPTION OF MNEMONIC
#------------------------------------------------------------------------------
~OTHER INFORMATION SECTION
#------------------------------------------------------------------------------
 TCGS2822
~CURVE INFORMATION
#MNEMO.UNIT         API CODE              CURVE DESCRIPTION
#------------------------------------------------------------------------------
 DEPTH.M                                 :   0     Depth
 TEMP.DegC                               :   1     Temperature
 COND.uS/cm                              :   2     Conductivity
 DELT.DegC                               :   3     Delta T
 DELC.uS/cm                              :   4     Delta C
 NGAM.CPS                                :   5     Natural Gamma
#------------------------------------------------------------------------------
~A  DEPTH     TEMP      COND      DELT      DELC      NGAM      
# ...
   114.82     14.47   5729.78     -0.00     -2.77      8.00 
   114.83     14.47   5737.18     -0.01      7.40      0.00 
   114.84     14.47   5732.56     -0.01      0.00      0.00 
   114.85     14.46   5737.18     -0.02     -1.85      0.00 
   114.86     14.45   5732.56     -0.03      2.77      0.00 
   114.87     14.45   5732.56     -0.03      0.00      0.00 
   114.88     14.45   5737.18     -0.03      0.00      0.00 
   114.89     14.44   5732.56     -0.05      0.00      7.00 
   114.90     14.45   5737.18     -0.04      7.40      0.00 
   114.91     14.45   5732.56     -0.03      0.00      0.00 
   114.92     14.45   5739.03     -0.02      1.85      0.00 
   114.93     14.47   5729.78      0.00     -2.77      0.00 
   114.94     14.46   5739.03      0.00      1.85      0.00 
   114.95     14.46   5732.56      0.01      0.00      0.00 
   114.96     14.46   5737.18      0.00      7.40      0.00 
   114.97     14.46   5732.56      0.00      0.00      0.00 
   114.98     14.48   5732.56      0.00      2.77      0.00 
   114.99     14.45   5737.18     -0.01      4.62      0.00 
   115.00     14.45   5732.56     -0.01      2.77      0.00 
   115.01     14.46   5737.18     -0.00      4.62      0.00 
   115.02     14.44   5732.56     -0.01     -6.47      0.00 
   115.03     14.45   5732.56     -0.02      2.77      0.00 
   115.04     14.46   5737.18     -0.00      4.62      0.00 
   115.05     14.46   5732.56     -0.00      0.00      0.00 
   115.06     14.47   5737.18      0.01      0.00      0.00 
   115.07     14.48   5732.56      0.04      0.00      0.00 
   115.08     14.48   5737.18      0.02      4.62      0.00 
   115.09     14.46   5732.56     -0.01     -4.62      0.00 
   115.10     14.46   5729.78     -0.01     -2.77      8.00 
   115.11     14.46   5739.03     -0.02      1.85      0.00 
   115.12     14.47   5729.78     -0.00     -2.77      0.00 
   115.13     14.49   5739.03      0.02      6.47      0.00 
   115.14     14.49   5729.78      0.03     -9.24      0.00 
   115.15     14.48   5739.03      0.01      9.24      0.00 
   115.16     14.46   5729.78     -0.00     -9.24      0.00 
   115.17     14.46   5732.56     -0.01      2.77      0.00 
   115.18     14.45   5737.18     -0.02     -1.85      0.00 
   115.19     14.46   5732.56      0.00      0.00      0.00 
   115.20     14.48   5737.18      0.02      0.00      0.00 
   115.21     14.49   5732.56      0.03      0.00      0.00 
   115.22     14.48   5732.56      0.02     -6.47      0.00 
   115.23     14.48   5737.18      0.00      7.40      0.00 
   115.24     14.47   5732.56      0.00     -6.47      0.00 
   115.25     14.47   5737.18     -0.01      4.62      0.00 
   115.26     14.49   5732.56      0.01     -4.62      0.00 
   115.27     14.49   5729.78      0.02     -2.77      0.00 
   115.28     14.50   5739.03      0.01      6.47      7.00 
   115.29     14.50   5729.78      0.03     -7.40      0.00 
   115.30     14.48   5739.03      0.00      6.47      0.00 
   115.31     14.49   5732.56      0.02      0.00      0.00 
   115.32     14.47   5729.78      0.00     -7.40      0.00 
   115.33     14.46   5739.03     -0.01      6.47      0.00 
   115.34     14.48   5729.78      0.02     -2.77      0.00 
   115.35     14.47   5732.56     -0.00     -4.62      0.00 
   115.36     14.49   5739.03      0.01      6.47      0.00 
   115.37     14.50   5729.78      0.02     -2.77      8.00 
   115.38     14.47   5732.56     -0.02     -4.62      0.00 
   115.39     14.47   5739.03     -0.01      6.47      0.00 
   115.40     14.46   5729.78     -0.01     -7.40      0.00 
   115.41     14.44   5732.56     -0.04      0.00      0.00 
   115.42     14.47   5739.03      0.00      6.47      0.00 
   115.43     14.49   5729.78      0.01     -7.40      0.00 
   115.44     14.49   5732.56      0.02      0.00      0.00 
   115.45     14.50   5739.03      0.03      1.85      0.00 
   115.46     14.50   5729.78      0.03     -2.77      0.00 
   115.47     14.50   5732.56      0.03      0.00      0.00 
   115.48     14.50   5739.03      0.01      1.85      0.00 
   115.49     14.49   5729.78      0.00     -2.77      0.00 
   115.50     14.47   5732.56      0.00      0.00      0.00 
   115.51     14.47   5737.18      0.00      7.40      0.00 
   115.52     14.48   5732.56      0.03     -6.47      0.00 
   115.53     14.49   5732.56      0.05      2.77      0.00 
   115.54     14.49   5737.18      0.03      4.62      0.00 
   115.55     14.48   5732.56      0.03      0.00      0.00 
   115.56     14.48   5729.78      0.02     -7.40      0.00 
   115.57     14.47   5732.56      0.03      0.00      0.00 
   115.58     14.46   5732.56      0.00     -4.62      0.00 
   115.59     14.46   5737.18     -0.01      4.62      0.00 
   115.60     14.46   5732.56     -0.01      2.77      0.00 
   115.61     14.47   5737.18     -0.01      4.62      0.00 
   115.62     14.47   5732.56      0.00     -4.62      7.00 
   115.63     14.47   5732.56     -0.00      0.00      0.00 
   115.64     14.46   5737.18     -0.01      0.00      0.00 
   115.65     14.47   5732.56     -0.02      0.00      0.00 
   115.66     14.47   5739.03     -0.01      9.24      0.00 
   115.67     14.48   5729.78     -0.02     -2.77      0.00 
   115.68     14.48   5739.03     -0.00      1.85      0.00 
   115.69     14.47   5732.56     -0.02      0.00      0.00 
   115.70     14.49   5737.18     -0.01      0.00      0.00 
   115.71     14.50   5732.56      0.01      0.00      0.00 
   115.72     14.50   5737.18      0.00      7.40      0.00 
   115.73     14.49   5732.56      0.02      0.00      0.00 
   115.74     14.48   5737.18      0.02      0.00      0.00 
   115.75     14.48   5732.56      0.01      0.00      0.00 
   115.76     14.48   5737.18      0.02      0.00      8.00 
   115.77     14.50   5739.03      0.02     12.94      0.00 
   115.78     14.50   5732.56      0.03      0.00      0.00 
   115.79     14.50   5737.18      0.02      0.00      0.00 
   115.80     14.50   5732.56      0.02      0.00      0.00 
   115.81     14.49   5737.18      0.01      7.40      0.00 
   115.82     14.48   5739.03      0.00      1.85      0.00 
   115.83     14.46   5737.18     -0.01      4.62      0.00 
   115.84     14.47   5732.56      0.01     -4.62      0.00 
   115.85     14.46   5737.18      0.01      4.62      0.00 
   115.86     14.48   5739.03      0.03      6.47      0.00 
   115.87     14.49   5737.18      0.04      0.00      0.00 
   115.88     14.48   5732.56      0.04      0.00      0.00 
   115.89     14.49   5739.03      0.04      1.85      0.00 
   115.90     14.48   5737.18      0.02      4.62      0.00 
   115.91     14.47   5732.56      0.02     -6.47      0.00 
   115.92     14.47   5737.18      0.00      7.40      0.00 
   115.93     14.45   5739.03     -0.01      0.00      0.00 
   115.94     14.46   5737.18     -0.00      4.62      0.00 
   115.95     14.46   5732.56     -0.00     -4.62      0.00 
   115.96     14.48   5737.18      0.01      4.62      0.00 
   115.97     14.49   5739.03      0.01      6.47      0.00 
   115.98     14.49   5732.56      0.03     -4.62      0.00 
   115.99     14.48   5737.18      0.03      4.62      0.00 
   116.00     14.47   5739.03      0.01      1.85      0.00 
   116.01     14.47   5729.78      0.03     -2.77      0.00 
   116.02     14.46   5739.03      0.01      6.47      0.00 
   116.03     14.48   5739.03      0.02      1.85      0.00 
   116.04     14.47   5729.78      0.01     -2.77      0.00 
   116.05     14.46   5739.03     -0.01      1.85      0.00 
   116.06     14.46   5737.18     -0.02      4.62      8.00 
   116.07     14.45   5732.56     -0.02     -4.62      0.00 
   116.08     14.48   5739.03      0.02      6.47      0.00 
   116.09     14.50   5737.18      0.04      7.40      0.00 
   116.10     14.51   5732.56      0.05     -6.47      0.00 
   116.11     14.51   5739.03      0.03      9.24      0.00 
   116.12     14.49   5737.18      0.00     -1.85      8.00 
   116.13     14.48   5739.03     -0.01      9.24      0.00 
