#Written by Robertson Geologging WinLogger V1.0/370
~VERSION INFORMATION
#------------------------------------------------------------------------------
 VERS. 2.0 : CWLS LOG ASCII STANDARD - VERSION 2.0
 WRAP. NO  : ONE LINE PER DEPTH STEP
~WELL INFORMATION
#MNEM.UNIT         DATA                                DESCRIPTION OF MNEMONIC
#------------------------------------------------------------------------------
 STRT.M         50.0700                            :   START DEPTH
 STOP.M        138.5000                            :   STOP DEPTH
 STEP.M          0.0100                            :   STEP VALUE
 NULL.        -999.2500                            :   NULL VALUE
 COMP.    White Young Green                        :   COMPANY NAME
 WELL.    Lumley 6 Pit                             :   WELL NAME
 FLD.     lumley                                   :   FIELD NAME
 LOC.     N/A                                      :   LOCATION
 PROV.    N/A                                      :   PROVINCE
 SRVC.    N/A                                      :   SERVICE COMPANY NAME
 DATE.    06 Oct 05                                :   DATE
 UWI.     N/A                                      :   UNIQUE WELL IDENTIFIER
~PARAMETER INFORMATION
#MNEMO.UNIT         VALUE                 DESCRIPTION OF MNEMONIC
#------------------------------------------------------------------------------
~OTHER INFORMATION SECTION
#------------------------------------------------------------------------------
 TCGS1365
 Hole finnished 133 .Probe would not penatrate crust as seen on CCTV
~CURVE INFORMATION
#MNEMO.UNIT         API CODE              CURVE DESCRIPTION
#------------------------------------------------------------------------------
 DEPTH.M                                 :   0     Depth
 TEMP.DegC                               :   1     Temperature
 CN25.mS/cm                              :   2     Conductivity@25DegC
 COND.mS/cm                              :   3     Conductivity
 DELT.DegC                               :   4     Delta T
 DELC.mS/cm                              :   5     Delta C
 NGAM.CPS                                :   6     Natural Gamma
#------------------------------------------------------------------------------
~A  DEPTH     TEMP      CN25      COND      DELT      DELC      NGAM      
# ...
    55.72     11.80      9.34      2.09     -0.49      2.29     15.18 
    55.73     11.78      9.36      2.09     -0.51      2.32     15.18 
    55.74     11.76      9.38      2.09     -0.54      2.34     14.41 
    55.75     11.74      9.40      2.09     -0.55      2.36     14.35 
    55.76     11.72      9.42      2.09     -0.57      2.38     13.29 
    55.77     11.70      9.43      2.09     -0.59      2.39     12.88 
    55.78     11.69      9.46      2.09     -0.61      2.42     12.24 
    55.79     11.67      9.47      2.09     -0.62      2.43     12.82 
    55.80     11.65      9.49      2.09     -0.64      2.44     12.47 
    55.81     11.64      9.51      2.09     -0.65      2.46     12.06 
    55.82     11.62      9.52      2.09     -0.66      2.47     11.35 
    55.83     11.61      9.53      2.09     -0.67      2.48     10.06 
    55.84     11.60      9.55      2.09     -0.68      2.49      9.00 
    55.85     11.58      9.56      2.09     -0.69      2.50      8.53 
    55.86     11.57      9.57      2.09     -0.70      2.51      7.47 
    55.87     11.56      9.58      2.09     -0.71      2.52      6.35 
    55.88     11.55      9.59      2.09     -0.71      2.52      6.76 
    55.89     11.55      9.60      2.09     -0.72      2.53      6.41 
    55.90     11.54      9.60      2.09     -0.73      2.54      5.59 
    55.91     11.53      9.61      2.09     -0.74      2.55      4.88 
    55.92     11.52      9.62      2.09     -0.75      2.56      4.53 
    55.93     11.52      9.63      2.09     -0.76      2.57      4.53 
    55.94     11.51      9.63      2.09     -0.76      2.57      4.94 
    55.95     11.51      9.64      2.09     -0.77      2.58      4.53 
    55.96     11.51      9.64      2.09     -0.77      2.59      2.71 
    55.97     11.51      9.64      2.09     -0.77      2.59      3.06 
    55.98     11.50      9.64      2.09     -0.78      2.59      3.06 
    55.99     11.50      9.65      2.09     -0.78      2.60      3.06 
    56.00     11.50      9.65      2.09     -0.79      2.60      3.06 
    56.01     11.49      9.65      2.09     -0.80      2.61      2.65 
    56.02     11.49      9.66      2.09     -0.80      2.61      2.65 
    56.03     11.48      9.66      2.09     -0.80      2.61      2.59 
    56.04     11.48      9.66      2.09     -0.81      2.62      2.65 
    56.05     11.47      9.67      2.09     -0.81      2.62      2.59 
    56.06     11.47      9.67      2.09     -0.82      2.63      2.59 
    56.07     11.46      9.68      2.09     -0.82      2.63      2.59 
    56.08     11.46      9.69      2.09     -0.83      2.64      2.94 
    56.09     11.46      9.69      2.09     -0.83      2.64      3.35 
    56.10     11.45      9.69      2.09     -0.83      2.64      3.35 
    56.11     11.45      9.69      2.09     -0.83      2.64      3.35 
    56.12     11.45      9.69      2.09     -0.83      2.64      4.06 
    56.13     11.45      9.69      2.09     -0.83      2.64      4.47 
    56.14     11.45      9.69      2.09     -0.83      2.64      4.82 
    56.15     11.45      9.70      2.09     -0.84      2.65      4.82 
    56.16     11.45      9.70      2.09     -0.84      2.65      4.82 
    56.17     11.44      9.70      2.09     -0.84      2.65      5.29 
    56.18     11.44      9.70      2.08     -0.84      2.64      5.65 
    56.19     11.44      9.70      2.08     -0.84      2.64      5.29 
    56.20     11.44      9.70      2.08     -0.84      2.64      4.94 
    56.21     11.44      9.70      2.08     -0.84      2.64      4.94 
    56.22     11.44      9.70      2.08     -0.84      2.64      4.94 
    56.23     11.44      9.69      2.08     -0.84      2.64      4.94 
    56.24     11.44      9.70      2.08     -0.84      2.64      5.29 
    56.25     11.44      9.69      2.08     -0.83      2.64      5.35 
    56.26     11.44      9.70      2.08     -0.83      2.64      4.94 
    56.27     11.44      9.70      2.08     -0.83      2.64      6.18 
    56.28     11.44      9.69      2.08     -0.83      2.64      6.12 
    56.29     11.44      9.70      2.08     -0.84      2.64      5.41 
    56.30     11.44      9.70      2.08     -0.84      2.64      5.41 
    56.31     11.44      9.70      2.08     -0.84      2.65      5.06 
    56.32     11.44      9.70      2.08     -0.84      2.65      5.47 
    56.33     11.44      9.70      2.08     -0.84      2.65      5.47 
    56.34     11.44      9.70      2.08     -0.85      2.65      5.06 
    56.35     11.43      9.70      2.08     -0.85      2.65      5.06 
    56.36     11.43      9.70      2.08     -0.85      2.66      5.06 
    56.37     11.43      9.70      2.08     -0.85      2.66      5.06 
    56.38     11.43      9.70      2.08     -0.85      2.65      4.65 
    56.39     11.43      9.70      2.08     -0.85      2.64      4.65 
    56.40     11.43      9.70      2.08     -0.85      2.55      5.47 
    56.41     11.44      9.70      2.08     -0.84      2.47      5.47 
    56.42     11.44      9.70      2.08     -0.84      2.37      5.06 
    56.43     11.44      9.70      2.08     -0.84      2.21      5.06 
    56.44     11.44      9.70      2.08     -0.84      2.04      3.82 
    56.45     11.44      9.70      2.08     -0.84      1.88      3.47 
    56.46     11.44      9.70      2.08     -0.84      1.71      3.82 
    56.47     11.44      9.70      2.08     -0.84      1.55      4.24 
    56.48     11.44      9.70      2.08     -0.84      1.38      4.24 
    56.49     11.44      9.69      2.08     -0.84      1.22      4.65 
    56.50     11.44      9.70      2.08     -0.84      1.08      5.88 
    56.51     11.43      9.70      2.08     -0.84      0.99      5.47 
    56.52     11.43      9.70      2.08     -0.84      0.90      5.53 
    56.53     11.43      9.71      2.08     -0.83      0.83      5.53 
    56.54     11.43      9.71      2.08     -0.82      0.82      5.53 
    56.55     11.43      9.71      2.08     -0.81      0.81      5.53 
    56.56     11.43      9.70      2.08     -0.79      0.79      5.59 
    56.57     11.43      9.70      2.08     -0.77      0.77      5.12 
    56.58     11.43      9.70      2.08     -0.74      0.74      4.76 
    56.59     11.43      9.70      2.08     -0.72      0.72      4.76 
    56.60     11.43      9.70      2.08     -0.69      0.69      4.76 
    56.61     11.43      9.69      2.08     -0.65      0.65      4.76 
    56.62     11.44      9.69      2.08     -0.62      0.62      5.18 
    56.63     11.44      9.69      2.08     -0.59      0.59      5.18 
    56.64     11.44      9.69      2.08     -0.55      0.55      4.35 
    56.65     11.44      9.69      2.07     -0.52      0.52      4.71 
    56.66     11.43      9.69      2.07     -0.49      0.49      3.88 
    56.67     11.43      9.69      2.07     -0.46      0.46      2.65 
    56.68     11.43      9.69      2.07     -0.44      0.43      2.65 
    56.69     11.43      9.69      2.07     -0.41      0.41      2.65 
    56.70     11.43      9.70      2.07     -0.39      0.38      2.65 
    56.71     11.43      9.70      2.07     -0.37      0.36      2.65 
    56.72     11.43      9.70      2.08     -0.35      0.35      2.65 
    56.73     11.43      9.70      2.07     -0.33      0.32      2.65 
    56.74     11.43      9.70      2.07     -0.31      0.30      2.65 
    56.75     11.43      9.70      2.07     -0.29      0.28      2.65 
    56.76     11.43      9.70      2.08     -0.28      0.27      2.65 
    56.77     11.43      9.70      2.08     -0.26      0.25      2.65 
    56.78     11.42      9.70      2.08     -0.24      0.23      3.00 
    56.79     11.42      9.70      2.07     -0.23      0.21      2.59 
    56.80     11.42      9.70      2.07     -0.21      0.20      2.24 
    56.81     11.43      9.70      2.07     -0.20      0.19      2.24 
    56.82     11.43      9.70      2.08     -0.18      0.17      1.53 
    56.83     11.43      9.70      2.07     -0.17      0.15      1.53 
    56.84     11.43      9.70      2.07     -0.16      0.14      1.53 
