#Written by Robertson Geologging WinLogger V1.0/370
~VERSION INFORMATION
#------------------------------------------------------------------------------
 VERS. 2.0 : CWLS LOG ASCII STANDARD - VERSION 2.0
 WRAP. NO  : ONE LINE PER DEPTH STEP
~WELL INFORMATION
#MNEM.UNIT         DATA                                DESCRIPTION OF MNEMONIC
#------------------------------------------------------------------------------
 STRT.M         50.0700                            :   START DEPTH
 STOP.M        138.5000                            :   STOP DEPTH
 STEP.M          0.0100                            :   STEP VALUE
 NULL.        -999.2500                            :   NULL VALUE
 COMP.    White Young Green                        :   COMPANY NAME
 WELL.    Lumley 6 Pit                             :   WELL NAME
 FLD.     lumley                                   :   FIELD NAME
 LOC.     N/A                                      :   LOCATION
 PROV.    N/A                                      :   PROVINCE
 SRVC.    N/A                                      :   SERVICE COMPANY NAME
 DATE.    06 Oct 05                                :   DATE
 UWI.     N/A                                      :   UNIQUE WELL IDENTIFIER
~PARAMETER INFORMATION
#MNEMO.UNIT         VALUE                 DESCRIPTION OF MNEMONIC
#------------------------------------------------------------------------------
~OTHER INFORMATION SECTION
#------------------------------------------------------------------------------
 TCGS1365
 Hole finnished 133 .Probe would not penatrate crust as seen on CCTV
~CURVE INFORMATION
#MNEMO.UNIT         API CODE              CURVE DESCRIPTION
#------------------------------------------------------------------------------
 DEPTH.M                                 :   0     Depth
 TEMP.DegC                               :   1     Temperature
 CN25.mS/cm                              :   2     Conductivity@25DegC
 COND.mS/cm                              :   3     Conductivity
 DELT.DegC                               :   4     Delta T
 DELC.mS/cm                              :   5     Delta C
 NGAM.CPS                                :   6     Natural Gamma
#------------------------------------------------------------------------------
~A  DEPTH     TEMP      CN25      COND      DELT      DELC      NGAM      
# ...
    67.02     11.43      9.66      2.04      0.01     -0.01      3.71 
    67.03     11.43      9.66      2.05      0.01     -0.01      3.71 
    67.04     11.43      9.66      2.04      0.01     -0.01      3.71 
    67.05     11.42      9.66      2.05      0.00     -0.00      3.24 
    67.06     11.42      9.66      2.04      0.00     -0.01      3.65 
    67.07     11.42      9.66      2.04      0.00     -0.00      3.65 
    67.08     11.42      9.66      2.04      0.00     -0.00      3.24 
    67.09     11.42      9.67      2.05      0.00     -0.00      2.29 
    67.10     11.42      9.67      2.05      0.00     -0.00      2.76 
    67.11     11.42      9.67      2.05      0.00     -0.00      2.76 
    67.12     11.42      9.67      2.05      0.00     -0.00      2.76 
    67.13     11.42      9.67      2.04      0.00     -0.00      2.29 
    67.14     11.42      9.67      2.04      0.00     -0.01      1.82 
    67.15     11.42      9.67      2.04      0.00     -0.01      1.82 
    67.16     11.42      9.67      2.05      0.01     -0.01      1.82 
    67.17     11.42      9.67      2.05      0.01     -0.01      1.82 
    67.18     11.41      9.67      2.05      0.01     -0.00      1.35 
    67.19     11.41      9.68      2.05      0.00     -0.00      1.35 
    67.20     11.41      9.68      2.04     -0.00     -0.00      1.35 
    67.21     11.41      9.68      2.04     -0.00      0.00      1.35 
    67.22     11.40      9.68      2.04     -0.01      0.01      1.35 
    67.23     11.41      9.68      2.05     -0.01      0.01      0.94 
    67.24     11.40      9.68      2.04     -0.01      0.01      0.94 
    67.25     11.40      9.68      2.05     -0.01      0.01      0.94 
    67.26     11.40      9.69      2.05     -0.01      0.01      0.94 
    67.27     11.40      9.68      2.04     -0.01      0.01      0.47 
    67.28     11.40      9.68      2.04     -0.01      0.01      0.47 
    67.29     11.40      9.68      2.04     -0.01      0.01      0.47 
    67.30     11.40      9.68      2.04     -0.01      0.01      0.47 
    67.31     11.40      9.68      2.04     -0.01      0.01      0.00 
    67.32     11.41      9.68      2.05     -0.01      0.01      0.00 
    67.33     11.41      9.68      2.04     -0.01      0.01      0.00 
    67.34     11.41      9.68      2.04     -0.01      0.00      0.00 
    67.35     11.41      9.68      2.05     -0.00      0.01      0.00 
    67.36     11.41      9.67      2.04     -0.00      0.00      0.00 
    67.37     11.41      9.67      2.04     -0.00      0.01      0.00 
    67.38     11.41      9.67      2.04     -0.00      0.01      0.00 
    67.39     11.41      9.67      2.04     -0.01      0.01      0.00 
    67.40     11.41      9.67      2.04     -0.00      0.00      0.00 
    67.41     11.41      9.68      2.05     -0.00      0.00      0.00 
    67.42     11.42      9.67      2.04     -0.00      0.00      0.00 
    67.43     11.42      9.67      2.04      0.00      0.00      0.00 
    67.44     11.42      9.67      2.05      0.00      0.00      0.00 
    67.45     11.42      9.67      2.04      0.00     -0.00      0.41 
    67.46     11.42      9.67      2.04     -0.00     -0.00      0.41 
    67.47     11.41      9.67      2.04     -0.00      0.00      0.82 
    67.48     11.41      9.67      2.04     -0.00      0.01      1.24 
    67.49     11.41      9.67      2.05     -0.01      0.01      1.24 
    67.50     11.41      9.68      2.05     -0.01      0.01      1.59 
    67.51     11.41      9.68      2.05     -0.01      0.01      1.59 
    67.52     11.41      9.67      2.04     -0.01      0.01      1.59 
    67.53     11.41      9.68      2.05     -0.01      0.01      1.59 
    67.54     11.41      9.68      2.04     -0.01      0.01      1.59 
    67.55     11.41      9.68      2.04     -0.01      0.01      2.00 
    67.56     11.41      9.68      2.04     -0.01      0.01      2.00 
    67.57     11.41      9.68      2.05     -0.01      0.01      2.00 
    67.58     11.41      9.67      2.04     -0.00      0.00      2.00 
    67.59     11.41      9.67      2.04      0.00     -0.01      2.41 
    67.60     11.42      9.67      2.04      0.01     -0.01      2.41 
    67.61     11.42      9.67      2.04      0.01     -0.01      2.41 
    67.62     11.42      9.67      2.05      0.01     -0.01      2.00 
    67.63     11.42      9.66      2.04      0.01     -0.02      2.35 
    67.64     11.42      9.66      2.04      0.01     -0.02      2.35 
    67.65     11.42      9.67      2.04      0.01     -0.01      1.94 
    67.66     11.42      9.67      2.04      0.01     -0.01      1.94 
    67.67     11.42      9.67      2.04      0.01     -0.01      1.59 
    67.68     11.42      9.66      2.04      0.01     -0.01      1.59 
    67.69     11.42      9.67      2.05      0.00     -0.00      1.59 
    67.70     11.41      9.67      2.05     -0.00     -0.00      1.59 
    67.71     11.41      9.68      2.05     -0.00      0.00      1.59 
    67.72     11.41      9.68      2.05     -0.01      0.01      1.18 
    67.73     11.41      9.68      2.04     -0.01      0.01      1.18 
    67.74     11.41      9.68      2.05     -0.01      0.01      1.18 
    67.75     11.41      9.68      2.05     -0.01      0.01      1.18 
    67.76     11.41      9.67      2.05     -0.00      0.01      0.76 
    67.77     11.42      9.67      2.05     -0.00      0.00      0.76 
    67.78     11.42      9.67      2.05      0.00      0.00      0.76 
    67.79     11.42      9.66      2.04      0.00     -0.00      0.76 
    67.80     11.42      9.66      2.04      0.01     -0.01      0.41 
    67.81     11.42      9.66      2.05      0.01     -0.01      0.00 
    67.82     11.42      9.66      2.05      0.01     -0.01      0.00 
    67.83     11.42      9.66      2.04      0.01     -0.01      0.00 
    67.84     11.42      9.66      2.04      0.01     -0.01      0.00 
    67.85     11.42      9.66      2.04      0.01     -0.01      0.41 
    67.86     11.42      9.66      2.04      0.01     -0.01      0.76 
    67.87     11.42      9.66      2.04      0.01     -0.01      0.76 
    67.88     11.42      9.66      2.04      0.01     -0.01      0.76 
    67.89     11.42      9.66      2.04      0.00     -0.01      1.12 
    67.90     11.42      9.67      2.05     -0.00      0.00      1.12 
    67.91     11.42      9.67      2.04     -0.01      0.00      1.53 
    67.92     11.41      9.67      2.04     -0.01      0.01      1.53 
    67.93     11.41      9.67      2.04     -0.01      0.01      1.53 
    67.94     11.41      9.67      2.04     -0.01      0.01      1.94 
    67.95     11.41      9.67      2.04     -0.01      0.01      1.94 
    67.96     11.41      9.67      2.04     -0.02      0.01      2.29 
    67.97     11.41      9.67      2.04     -0.02      0.02      2.29 
    67.98     11.41      9.67      2.05     -0.02      0.02      2.29 
    67.99     11.41      9.67      2.04     -0.02      0.02      2.65 
    68.00     11.41      9.67      2.04     -0.02      0.01      2.65 
    68.01     11.41      9.67      2.04     -0.01      0.01      3.06 
    68.02     11.41      9.68      2.05     -0.01      0.02      3.00 
    68.03     11.41      9.67      2.05     -0.01      0.01      2.65 
    68.04     11.41      9.67      2.04     -0.01      0.01      2.65 
    68.05     11.41      9.67      2.05     -0.01      0.01      2.65 
    68.06     11.41      9.67      2.05     -0.01      0.01      2.29 
    68.07     11.41      9.67      2.05     -0.01      0.01      2.29 
    68.08     11.41      9.67      2.05     -0.01      0.01      1.88 
    68.09     11.41      9.68      2.05     -0.01      0.01      1.88 
    68.10     11.41      9.68      2.05     -0.01      0.01      2.29 
    68.11     11.41      9.68      2.05     -0.01      0.01      1.88 
    68.12     11.41      9.68      2.05     -0.01      0.01      1.88 
    68.13     11.41      9.68      2.04     -0.01      0.01      1.53 
    68.14     11.41      9.68      2.04     -0.01      0.01      1.94 
