#Written by Robertson Geologging WinLogger V1.0/406
~VERSION INFORMATION
#------------------------------------------------------------------------------
 VERS. 2.0 : CWLS LOG ASCII STANDARD - VERSION 2.0
 WRAP. NO  : ONE LINE PER DEPTH STEP
~WELL INFORMATION
#MNEM.UNIT         DATA                                DESCRIPTION OF MNEMONIC
#------------------------------------------------------------------------------
 STRT.M         58.0600                            :   START DEPTH
 STOP.M        154.1000                            :   STOP DEPTH
 STEP.M          0.0100                            :   STEP VALUE
 NULL.        -999.2500                            :   NULL VALUE
 COMP.    Coal Authority                           :   COMPANY NAME
 WELL.    Lumley                                   :   WELL NAME
 FLD.     N/A                                      :   FIELD NAME
 LOC.     N/A                                      :   LOCATION
 PROV.    N/A                                      :   PROVINCE
 SRVC.    N/A                                      :   SERVICE COMPANY NAME
 DATE.    01 Oct 08                                :   DATE
 UWI.     N/A                                      :   UNIQUE WELL IDENTIFIER
~PARAMETER INFORMATION
#MNEMO.UNIT         VALUE                 DESCRIPTION OF MNEMONIC
#------------------------------------------------------------------------------
~OTHER INFORMATION SECTION
#------------------------------------------------------------------------------
 TCGS2822
~CURVE INFORMATION
#MNEMO.UNIT         API CODE              CURVE DESCRIPTION
#------------------------------------------------------------------------------
 DEPTH.M                                 :   0     Depth
 TEMP.DegC                               :   1     Temperature
 COND.uS/cm                              :   2     Conductivity
 DELT.DegC                               :   3     Delta T
 DELC.uS/cm                              :   4     Delta C
 NGAM.CPS                                :   5     Natural Gamma
#------------------------------------------------------------------------------
~A  DEPTH     TEMP      COND      DELT      DELC      NGAM      
# ...
    96.34     14.38   5686.34      0.50    533.03      0.00 
    96.35     14.38   5690.96      0.49    478.74      8.00 
    96.36     14.38   5692.81      0.48    424.41      0.00 
    96.37     14.37   5690.96      0.46    373.73      0.00 
    96.38     14.35   5692.81      0.43    332.26      0.00 
    96.39     14.34   5690.96      0.41    294.46      0.00 
    96.40     14.34   5692.81      0.42    256.65      0.00 
    96.41     14.34   5690.96      0.43    223.44      0.00 
    96.42     14.36   5692.81      0.46    197.61      0.00 
    96.43     14.39   5699.28      0.51    191.16      0.00 
    96.44     14.40   5690.96      0.50    169.00      0.00 
    96.45     14.42   5698.36      0.51    169.94      0.00 
    96.46     14.42   5692.81      0.48    145.01      0.00 
    96.47     14.39   5698.36      0.45    153.32      0.00 
    96.48     14.38   5699.28      0.46    138.55      0.00 
    96.49     14.38   5698.36      0.45    138.55      0.00 
    96.50     14.40   5699.28      0.46    131.17      0.00 
    96.51     14.42   5698.36      0.47    117.32      0.00 
    96.52     14.43   5699.28      0.46    123.78      0.00 
    96.53     14.43   5698.36      0.46    110.85      0.00 
    96.54     14.42   5699.28      0.43    108.08      0.00 
    96.55     14.41   5692.81      0.42    105.31      0.00 
    96.56     14.40   5706.68      0.40    108.09      0.00 
    96.57     14.40   5699.28      0.38     92.38      0.00 
    96.58     14.41   5698.36      0.40     91.46      0.00 
    96.59     14.40   5699.28      0.37     93.31      0.00 
    96.60     14.39   5699.28      0.36     78.53      0.00 
    96.61     14.40   5706.68      0.34     85.00     16.00 
    96.62     14.39   5699.28      0.32     78.53      0.00 
    96.63     14.41   5706.68      0.33     77.61      0.00 
    96.64     14.41   5699.28      0.29     72.06      0.00 
    96.65     14.40   5706.68      0.27     79.46      0.00 
    96.66     14.41   5706.68      0.25     77.61      0.00 
    96.67     14.39   5699.28      0.23     72.06      0.00 
    96.68     14.39   5714.07      0.23     80.39      0.00 
    96.69     14.39   5706.68      0.21     85.00      0.00 
    96.70     14.40   5706.68      0.23     79.46      0.00 
    96.71     14.41   5713.15      0.21     84.08      0.00 
    96.72     14.43   5706.68      0.23     85.92      0.00 
    96.73     14.43   5714.07      0.24     86.85      0.00 
    96.74     14.43   5706.68      0.23     85.00      0.00 
    96.75     14.44   5714.07      0.23     86.85      0.00 
    96.76     14.43   5713.15      0.22     91.47      0.00 
    96.77     14.45   5713.15      0.22     79.46      7.00 
    96.78     14.45   5706.68      0.21     77.61      0.00 
    96.79     14.42   5713.15      0.18     73.00      0.00 
    96.80     14.42   5714.07      0.15     76.69      8.00 
    96.81     14.41   5713.15      0.16     73.00      0.00 
    96.82     14.42   5713.15      0.15     68.38      7.00 
    96.83     14.41   5706.68      0.14     60.06      0.00 
    96.84     14.42   5713.15      0.15     60.99      0.00 
    96.85     14.40   5714.07      0.13     67.45      0.00 
    96.86     14.39   5713.15      0.11     60.99      0.00 
    96.87     14.42   5714.07      0.15     67.45      0.00 
    96.88     14.43   5713.15      0.16     52.67      7.00 
    96.89     14.45   5713.15      0.18     60.06      0.00 
    96.90     14.47   5714.07      0.21     53.60      0.00 
    96.91     14.45   5713.15      0.18     52.67      7.00 
    96.92     14.43   5713.15      0.18     46.20      0.00 
    96.93     14.44   5721.46      0.17     53.60      0.00 
    96.94     14.44   5713.15      0.18     46.20      0.00 
    96.95     14.45   5714.07      0.16     46.21      0.00 
    96.96     14.45   5719.61      0.13     52.67      0.00 
    96.97     14.43   5719.61      0.12     51.75      0.00 
    96.98     14.42   5714.07      0.11     47.13      0.00 
    96.99     14.42   5719.61      0.11     44.36      7.00 
    97.00     14.43   5719.61      0.12     52.67      0.00 
    97.01     14.43   5713.15      0.12     37.89      0.00 
    97.02     14.45   5721.46      0.11     48.06      0.00 
    97.03     14.44   5719.61      0.11     46.21      7.00 
    97.04     14.44   5713.15      0.09     37.89      0.00 
    97.05     14.43   5721.46      0.07     48.06      0.00 
    97.06     14.41   5719.61      0.07     44.36      0.00 
    97.07     14.41   5714.07      0.09     34.19      0.00 
    97.08     14.42   5719.61      0.10     36.04      0.00 
    97.09     14.42   5721.46      0.10     48.06      0.00 
    97.10     14.43   5719.61      0.10     39.74      0.00 
    97.11     14.43   5714.07      0.08     30.50      0.00 
    97.12     14.42   5719.61      0.05     39.74      0.00 
    97.13     14.43   5719.61      0.06     39.74      0.00 
    97.14     14.43   5721.46      0.05     46.21      0.00 
    97.15     14.44   5719.61      0.06     39.74      7.00 
    97.16     14.45   5721.46      0.06     37.89      0.00 
    97.17     14.45   5719.61      0.07     39.74      0.00 
    97.18     14.43   5721.46      0.07     41.59      8.00 
    97.19     14.43   5719.61      0.06     36.04      0.00 
    97.20     14.43   5721.46      0.08     41.59      0.00 
    97.21     14.43   5719.61      0.05     36.04      0.00 
    97.22     14.44   5721.46      0.06     35.12      0.00 
    97.23     14.45   5719.61      0.05     36.04      0.00 
    97.24     14.43   5719.61      0.04     39.74      0.00 
    97.25     14.42   5721.46      0.06     35.12      0.00 
    97.26     14.40   5726.09      0.03     35.12      0.00 
    97.27     14.40   5714.07      0.05     27.72      0.00 
    97.28     14.42   5726.09      0.05     39.74      7.00 
    97.29     14.44   5721.46      0.06     30.50      0.00 
    97.30     14.44   5719.61      0.07     33.27      7.00 
    97.31     14.45   5721.46      0.07     28.65      0.00 
    97.32     14.43   5719.61      0.07     28.65      0.00 
    97.33     14.41   5721.46      0.03     35.12      0.00 
    97.34     14.43   5726.09      0.05     35.12      0.00 
    97.35     14.42   5719.61      0.04     26.80      0.00 
    97.36     14.41   5721.46      0.03     30.50      0.00 
    97.37     14.42   5719.61      0.06     26.80      0.00 
    97.38     14.41   5729.78      0.07     38.82      8.00 
    97.39     14.41   5719.61      0.07     26.80      0.00 
    97.40     14.42   5721.46      0.08     30.50      0.00 
    97.41     14.42   5726.09      0.06     33.27      0.00 
    97.42     14.42   5721.46      0.03     22.18      0.00 
    97.43     14.43   5719.61      0.02     28.65      0.00 
    97.44     14.43   5726.09      0.02     27.73      0.00 
    97.45     14.43   5721.46      0.01     28.65      0.00 
    97.46     14.43   5713.15      0.05     14.79      0.00 
    97.47     14.42   5726.09      0.04     26.80      0.00 
    97.48     14.41   5721.46      0.03     23.11      0.00 
    97.49     14.41   5726.09      0.01     26.80      0.00 
    97.50     14.39   5719.61     -0.02     21.26      0.00 
    97.51     14.41   5729.78     -0.02     30.50      0.00 
    97.52     14.42   5719.61     -0.01     21.26      0.00 
    97.53     14.43   5721.46      0.01     22.18      0.00 
    97.54     14.45   5726.09      0.04     33.27      0.00 
    97.55     14.45   5721.46      0.06     14.79      0.00 
    97.56     14.45   5726.09      0.06     26.80      0.00 
    97.57     14.43   5726.09      0.02     27.73      0.00 
    97.58     14.43   5721.46      0.03     22.18      8.00 
    97.59     14.43   5721.46      0.04     22.18      8.00 
    97.60     14.42   5726.09      0.02     19.41      7.00 
    97.61     14.43   5729.78      0.04     30.50      0.00 
    97.62     14.42   5719.61      0.00     12.94      0.00 
    97.63     14.43   5729.78      0.02     30.50      0.00 
    97.64     14.43   5726.09      0.03     19.41      0.00 
    97.65     14.44   5721.46      0.03     14.79      0.00 
