#Written by Robertson Geologging WinLogger V1.0/406
~VERSION INFORMATION
#------------------------------------------------------------------------------
 VERS. 2.0 : CWLS LOG ASCII STANDARD - VERSION 2.0
 WRAP. NO  : ONE LINE PER DEPTH STEP
~WELL INFORMATION
#MNEM.UNIT         DATA                                DESCRIPTION OF MNEMONIC
#------------------------------------------------------------------------------
 STRT.M         58.0600                            :   START DEPTH
 STOP.M        154.1000                            :   STOP DEPTH
 STEP.M          0.0100                            :   STEP VALUE
 NULL.        -999.2500                            :   NULL VALUE
 COMP.    Coal Authority                           :   COMPANY NAME
 WELL.    Lumley                                   :   WELL NAME
 FLD.     N/A                                      :   FIELD NAME
 LOC.     N/A                                      :   LOCATION
 PROV.    N/A                                      :   PROVINCE
 SRVC.    N/A                                      :   SERVICE COMPANY NAME
 DATE.    01 Oct 08                                :   DATE
 UWI.     N/A                                      :   UNIQUE WELL IDENTIFIER
~PARAMETER INFORMATION
#MNEMO.UNIT         VALUE                 DESCRIPTION OF MNEMONIC
#------------------------------------------------------------------------------
~OTHER INFORMATION SECTION
#------------------------------------------------------------------------------
 TCGS2822
~CURVE INFORMATION
#MNEMO.UNIT         API CODE              CURVE DESCRIPTION
#------------------------------------------------------------------------------
 DEPTH.M                                 :   0     Depth
 TEMP.DegC                               :   1     Temperature
 COND.uS/cm                              :   2     Conductivity
 DELT.DegC                               :   3     Delta T
 DELC.uS/cm                              :   4     Delta C
 NGAM.CPS                                :   5     Natural Gamma
#------------------------------------------------------------------------------
~A  DEPTH     TEMP      COND      DELT      DELC      NGAM      
# ...
   134.62     14.47   5783.41      0.03     -1.85      0.00 
   134.63     14.45   5778.78      0.02      0.00      0.00 
   134.64     14.43   5785.26      0.01      0.00      7.00 
   134.65     14.44   5783.41      0.01      4.62      8.00 
   134.66     14.43   5785.26     -0.01      1.85      0.00 
   134.67     14.43   5785.26     -0.02      0.00      0.00 
   134.68     14.44   5783.41     -0.01      4.62      0.00 
   134.69     14.44   5785.26     -0.01      0.00     14.00 
   134.70     14.44   5778.78     -0.01      0.00      7.00 
   134.71     14.44   5785.26      0.00      1.85      0.00 
   134.72     14.45   5783.41      0.01     -1.85      0.00 
   134.73     14.45   5785.26      0.01      6.47      0.00 
   134.74     14.46   5785.26      0.02      0.00      0.00 
   134.75     14.46   5783.41      0.01      7.40      0.00 
   134.76     14.44   5785.26     -0.01      0.00      0.00 
   134.77     14.44   5785.26     -0.03      6.47      7.00 
   134.78     14.44   5783.41     -0.01     -1.85      0.00 
   134.79     14.44   5791.73     -0.00     12.95      0.00 
   134.80     14.46   5783.41      0.02      0.00      0.00 
   134.81     14.46   5791.73      0.03      6.47      7.00 
   134.82     14.44   5785.26      0.00      6.47      7.00 
   134.83     14.45   5790.81      0.02      5.55      0.00 
   134.84     14.45   5785.26      0.02      6.47      0.00 
   134.85     14.44   5791.73      0.01      8.32      0.00 
   134.86     14.45   5791.73      0.00     12.95      0.00 
   134.87     14.44   5791.73     -0.00      6.47      0.00 
   134.88     14.44   5799.13      0.00     20.35      0.00 
   134.89     14.45   5799.13      0.02     20.35      0.00 
   134.90     14.46   5799.13      0.03     15.72      7.00 
   134.91     14.46   5799.13      0.03     13.87      0.00 
   134.92     14.46   5805.60      0.02     26.82      0.00 
   134.93     14.46   5805.60      0.01     26.82      7.00 
   134.94     14.46   5805.60      0.03     20.35     14.00 
   134.95     14.46   5805.60      0.03     26.82      0.00 
   134.96     14.46   5806.53      0.01     23.12      0.00 
   134.97     14.47   5812.08      0.00     33.29      0.00 
   134.98     14.46   5805.60      0.00     26.82      0.00 
   134.99     14.46   5812.08      0.00     26.82      7.00 
   135.00     14.45   5805.60      0.01     26.82      0.00 
   135.01     14.44   5812.08     -0.00     26.82      0.00 
   135.02     14.43   5812.08     -0.01     33.29      0.00 
   135.03     14.44   5806.53     -0.01     23.12      0.00 
   135.04     14.45   5812.08      0.00     33.29      0.00 
   135.05     14.45   5812.08      0.01     26.82      0.00 
   135.06     14.46   5812.08      0.01     39.77      0.00 
   135.07     14.46   5812.08      0.03     26.82      0.00 
   135.08     14.46   5805.60      0.02     26.82      0.00 
   135.09     14.46   5813.93      0.01     30.52      0.00 
   135.10     14.44   5812.08     -0.01     33.29      0.00 
   135.11     14.43   5812.08     -0.02     26.82      0.00 
   135.12     14.42   5812.08     -0.01     33.29      7.00 
   135.13     14.40   5812.08     -0.04     26.82      0.00 
   135.14     14.40   5812.08     -0.03     28.67     14.00 
   135.15     14.39   5812.08     -0.04     33.29      0.00 
   135.16     14.37   5812.08     -0.08     26.82      0.00 
   135.17     14.38   5806.53     -0.06     23.12      0.00 
   135.18     14.37   5812.08     -0.07     26.82      0.00 
   135.19     14.38   5812.08     -0.06     33.29      0.00 
   135.20     14.38   5812.08     -0.04     26.82      7.00 
   135.21     14.38   5812.08     -0.05     28.67      0.00 
   135.22     14.38   5812.08     -0.05     33.29      7.00 
   135.23     14.36   5812.08     -0.08     26.82      0.00 
   135.24     14.37   5813.93     -0.08     35.14      0.00 
   135.25     14.34   5812.08     -0.10     28.67      0.00 
   135.26     14.35   5812.08     -0.11     26.82      0.00 
   135.27     14.33   5812.08     -0.10     33.29      0.00 
   135.28     14.32   5818.55     -0.11     33.30      0.00 
   135.29     14.33   5813.93     -0.11     30.52      0.00 
   135.30     14.32   5812.08     -0.11     26.82      0.00 
   135.31     14.34   5812.08     -0.09     33.29      0.00 
   135.32     14.33   5818.55     -0.10     33.30      0.00 
   135.33     14.33   5812.08     -0.10     28.67      0.00 
   135.34     14.34   5813.93     -0.11     35.14      0.00 
   135.35     14.34   5812.08     -0.11     26.82      0.00 
   135.36     14.34   5818.55     -0.11     35.15      0.00 
   135.37     14.35   5818.55     -0.11     39.77      0.00 
   135.38     14.34   5813.93     -0.10     28.67      0.00 
   135.39     14.33   5812.08     -0.11     26.82      0.00 
   135.40     14.34   5818.55     -0.10     35.15      7.00 
   135.41     14.32   5812.08     -0.11     33.29      0.00 
   135.42     14.32   5822.25     -0.11     37.00      0.00 
   135.43     14.33   5812.08     -0.10     26.82      0.00 
   135.44     14.33   5818.55     -0.11     35.15      0.00 
   135.45     14.34   5818.55     -0.10     39.77      0.00 
   135.46     14.33   5813.93     -0.11     28.67      0.00 
   135.47     14.32   5818.55     -0.12     33.30      0.00 
   135.48     14.32   5812.08     -0.13     28.67      0.00 
   135.49     14.33   5813.93     -0.13     35.14      0.00 
   135.50     14.34   5818.55     -0.12     33.30      7.00 
   135.51     14.33   5818.55     -0.12     33.30      0.00 
   135.52     14.32   5818.55     -0.10     39.77      0.00 
   135.53     14.32   5813.93     -0.11     30.52      8.00 
   135.54     14.32   5818.55     -0.12     33.30      0.00 
   135.55     14.33   5812.08     -0.11     26.82      0.00 
   135.56     14.32   5822.25     -0.13     43.47      0.00 
   135.57     14.30   5812.08     -0.13     26.82      0.00 
   135.58     14.29   5818.55     -0.14     35.15      0.00 
   135.59     14.29   5812.08     -0.15     26.82      0.00 
   135.60     14.30   5818.55     -0.14     33.30      0.00 
   135.61     14.31   5813.93     -0.16     30.52      0.00 
   135.62     14.31   5818.55     -0.14     39.77      0.00 
   135.63     14.30   5818.55     -0.13     33.30      0.00 
   135.64     14.29   5813.93     -0.15     30.52      8.00 
   135.65     14.30   5818.55     -0.13     33.30      0.00 
   135.66     14.31   5818.55     -0.12     33.30      7.00 
   135.67     14.31   5818.55     -0.13     35.15      0.00 
   135.68     14.32   5813.93     -0.12     28.67      0.00 
   135.69     14.30   5818.55     -0.14     39.77      0.00 
   135.70     14.28   5818.55     -0.16     33.30      0.00 
   135.71     14.29   5813.93     -0.17     30.52      0.00 
   135.72     14.28   5818.55     -0.17     33.30      7.00 
   135.73     14.29   5818.55     -0.17     33.30      0.00 
   135.74     14.30   5812.08     -0.16     28.67      0.00 
   135.75     14.30   5822.25     -0.14     37.00      0.00 
   135.76     14.31   5818.55     -0.12     33.30      0.00 
   135.77     14.31   5818.55     -0.13     35.15      0.00 
   135.78     14.31   5818.55     -0.13     26.82      0.00 
   135.79     14.30   5818.55     -0.17     35.15      7.00 
   135.80     14.28   5813.93     -0.18     22.20      0.00 
   135.81     14.30   5818.55     -0.14     33.30      0.00 
   135.82     14.28   5818.55     -0.17     27.75      7.00 
   135.83     14.27   5813.93     -0.18     28.67      0.00 
   135.84     14.28   5818.55     -0.16     26.82      0.00 
   135.85     14.26   5818.55     -0.19     26.82      0.00 
   135.86     14.29   5822.25     -0.16     30.52      0.00 
   135.87     14.31   5818.55     -0.14     19.42      0.00 
   135.88     14.29   5818.55     -0.16     19.42      0.00 
   135.89     14.28   5813.93     -0.19     14.80      0.00 
   135.90     14.27   5818.55     -0.20     19.42      0.00 
   135.91     14.25   5818.55     -0.21     12.95      0.00 
   135.92     14.28   5818.55     -0.19     12.95      7.00 
   135.93     14.29   5822.25     -0.17     16.65      0.00 
