#Written by Robertson Geologging WinLogger V1.0/370
~VERSION INFORMATION
#------------------------------------------------------------------------------
 VERS. 2.0 : CWLS LOG ASCII STANDARD - VERSION 2.0
 WRAP. NO  : ONE LINE PER DEPTH STEP
~WELL INFORMATION
#MNEM.UNIT         DATA                                DESCRIPTION OF MNEMONIC
#------------------------------------------------------------------------------
 STRT.M         50.0700                            :   START DEPTH
 STOP.M        138.5000                            :   STOP DEPTH
 STEP.M          0.0100                            :   STEP VALUE
 NULL.        -999.2500                            :   NULL VALUE
 COMP.    White Young Green                        :   COMPANY NAME
 WELL.    Lumley 6 Pit                             :   WELL NAME
 FLD.     lumley                                   :   FIELD NAME
 LOC.     N/A                                      :   LOCATION
 PROV.    N/A                                      :   PROVINCE
 SRVC.    N/A                                      :   SERVICE COMPANY NAME
 DATE.    06 Oct 05                                :   DATE
 UWI.     N/A                                      :   UNIQUE WELL IDENTIFIER
~PARAMETER INFORMATION
#MNEMO.UNIT         VALUE                 DESCRIPTION OF MNEMONIC
#------------------------------------------------------------------------------
~OTHER INFORMATION SECTION
#------------------------------------------------------------------------------
 TCGS1365
 Hole finnished 133 .Probe would not penatrate crust as seen on CCTV
~CURVE INFORMATION
#MNEMO.UNIT         API CODE              CURVE DESCRIPTION
#------------------------------------------------------------------------------
 DEPTH.M                                 :   0     Depth
 TEMP.DegC                               :   1     Temperature
 CN25.mS/cm                              :   2     Conductivity@25DegC
 COND.mS/cm                              :   3     Conductivity
 DELT.DegC                               :   4     Delta T
 DELC.mS/cm                              :   5     Delta C
 NGAM.CPS                                :   6     Natural Gamma
#------------------------------------------------------------------------------
~A  DEPTH     TEMP      CN25      COND      DELT      DELC      NGAM      
# ...
   113.35     14.22     11.31      5.68     -0.00      0.01      1.88 
   113.36     14.22     11.31      5.68     -0.00      0.01      1.88 
   113.37     14.22     11.31      5.68     -0.01      0.01      1.88 
   113.38     14.22     11.31      5.68     -0.01      0.01      1.47 
   113.39     14.22     11.31      5.68     -0.01      0.01      1.47 
   113.40     14.22     11.31      5.68     -0.01      0.02      1.12 
   113.41     14.22     11.31      5.68     -0.01      0.02      1.47 
   113.42     14.22     11.31      5.68     -0.01      0.01      1.47 
   113.43     14.22     11.31      5.68     -0.01      0.02      1.12 
   113.44     14.21     11.32      5.68     -0.02      0.02      1.12 
   113.45     14.21     11.32      5.68     -0.02      0.03      1.12 
   113.46     14.21     11.32      5.68     -0.02      0.02      0.71 
   113.47     14.21     11.32      5.68     -0.02      0.02      0.71 
   113.48     14.21     11.32      5.68     -0.02      0.03      0.71 
   113.49     14.21     11.32      5.68     -0.01      0.02      0.35 
   113.50     14.21     11.32      5.68     -0.01      0.02      0.35 
   113.51     14.21     11.32      5.68     -0.01      0.02      0.35 
   113.52     14.22     11.32      5.68     -0.01      0.02      0.35 
   113.53     14.21     11.32      5.68     -0.01      0.02      0.35 
   113.54     14.22     11.32      5.68     -0.01      0.01      0.35 
   113.55     14.22     11.31      5.68     -0.00      0.01      0.35 
   113.56     14.22     11.31      5.68     -0.00      0.01      0.35 
   113.57     14.22     11.31      5.68      0.00     -0.00      0.35 
   113.58     14.22     11.31      5.68      0.00      0.00      0.00 
   113.59     14.22     11.31      5.68      0.00     -0.00      0.00 
   113.60     14.22     11.30      5.68      0.00     -0.00      0.35 
   113.61     14.22     11.31      5.68      0.00      0.00      0.35 
   113.62     14.23     11.31      5.68      0.00      0.00      0.35 
   113.63     14.23     11.30      5.68      0.00     -0.00      0.35 
   113.64     14.23     11.30      5.68      0.00     -0.00      0.35 
   113.65     14.23     11.30      5.68      0.01     -0.00      0.35 
   113.66     14.23     11.30      5.68      0.01     -0.01      0.35 
   113.67     14.23     11.29      5.68      0.00     -0.01      0.71 
   113.68     14.23     11.30      5.68      0.00      0.00      0.71 
   113.69     14.23     11.30      5.68      0.00     -0.01      0.71 
   113.70     14.23     11.30      5.68      0.00     -0.00      1.41 
   113.71     14.23     11.30      5.68      0.00      0.00      1.41 
   113.72     14.23     11.30      5.68      0.00     -0.00      1.41 
   113.73     14.23     11.30      5.68      0.01     -0.01      1.41 
   113.74     14.23     11.30      5.68      0.01     -0.00      1.41 
   113.75     14.23     11.31      5.68      0.01     -0.00      1.41 
   113.76     14.23     11.30      5.68      0.00     -0.00      1.76 
   113.77     14.22     11.30      5.68      0.00     -0.00      1.41 
   113.78     14.22     11.31      5.68      0.00      0.00      1.41 
   113.79     14.22     11.31      5.68      0.00     -0.00      1.76 
   113.80     14.22     11.31      5.68      0.00      0.00      1.76 
   113.81     14.22     11.31      5.68      0.00     -0.00      1.76 
   113.82     14.23     11.30      5.68      0.01     -0.00      1.76 
   113.83     14.23     11.30      5.68      0.01     -0.01      1.76 
   113.84     14.23     11.31      5.68      0.01     -0.00      1.82 
   113.85     14.23     11.30      5.68      0.01     -0.01      1.82 
   113.86     14.23     11.30      5.68      0.01     -0.01      2.18 
   113.87     14.23     11.31      5.68      0.01     -0.01      1.47 
   113.88     14.22     11.31      5.68      0.01     -0.01      1.47 
   113.89     14.22     11.31      5.68      0.01     -0.01      1.47 
   113.90     14.23     11.31      5.68      0.01     -0.01      1.47 
   113.91     14.23     11.30      5.68      0.01     -0.01      1.47 
   113.92     14.23     11.30      5.68      0.01     -0.01      1.47 
   113.93     14.22     11.31      5.68      0.01     -0.01      1.53 
   113.94     14.22     11.31      5.68      0.01     -0.01      1.88 
   113.95     14.22     11.30      5.68      0.01     -0.00      1.88 
   113.96     14.22     11.31      5.68      0.00     -0.00      1.94 
   113.97     14.23     11.30      5.68      0.00     -0.01      1.94 
   113.98     14.23     11.30      5.67      0.00     -0.01      1.94 
   113.99     14.23     11.30      5.68      0.01     -0.01      1.94 
   114.00     14.23     11.29      5.68      0.01     -0.01      2.29 
   114.01     14.23     11.29      5.67      0.01     -0.02      1.88 
   114.02     14.24     11.29      5.68      0.01     -0.01      1.88 
   114.03     14.24     11.29      5.68      0.01     -0.01      1.53 
   114.04     14.24     11.29      5.68      0.01     -0.01      1.53 
   114.05     14.24     11.29      5.68      0.01     -0.01      1.53 
   114.06     14.24     11.29      5.68      0.01     -0.01      1.94 
   114.07     14.24     11.29      5.68      0.01     -0.01      1.94 
   114.08     14.23     11.29      5.68      0.01     -0.01      1.94 
   114.09     14.23     11.30      5.68      0.00     -0.00      1.94 
   114.10     14.23     11.30      5.68      0.00     -0.01      1.53 
   114.11     14.23     11.30      5.68      0.00     -0.00      1.18 
   114.12     14.23     11.30      5.68      0.00      0.00      1.18 
   114.13     14.23     11.30      5.68      0.00     -0.00      1.12 
   114.14     14.22     11.30      5.68      0.00     -0.00      1.12 
   114.15     14.22     11.31      5.68      0.00     -0.00      1.12 
   114.16     14.22     11.31      5.68      0.01     -0.00      1.12 
   114.17     14.22     11.31      5.68      0.01     -0.01      0.76 
   114.18     14.23     11.30      5.68      0.01     -0.01      0.76 
   114.19     14.23     11.30      5.68      0.01     -0.01      0.76 
   114.20     14.23     11.30      5.68      0.01     -0.01      0.76 
   114.21     14.23     11.30      5.68      0.01     -0.02      0.76 
   114.22     14.23     11.30      5.68      0.01     -0.01      1.18 
   114.23     14.23     11.30      5.68      0.01     -0.01      0.76 
   114.24     14.23     11.30      5.68      0.01     -0.01      1.18 
   114.25     14.23     11.30      5.68      0.01     -0.01      1.18 
   114.26     14.23     11.29      5.68      0.01     -0.01      1.18 
   114.27     14.23     11.29      5.68      0.01     -0.01      1.18 
   114.28     14.23     11.29      5.68      0.01     -0.01      1.18 
   114.29     14.23     11.30      5.68      0.01     -0.01      1.18 
   114.30     14.23     11.29      5.68      0.01     -0.01      0.82 
   114.31     14.23     11.29      5.68      0.01     -0.01      0.82 
   114.32     14.23     11.30      5.68      0.01     -0.01      0.82 
   114.33     14.23     11.30      5.68      0.01     -0.01      0.82 
   114.34     14.23     11.30      5.68      0.01     -0.01      0.82 
   114.35     14.23     11.30      5.68      0.01     -0.01      1.53 
   114.36     14.23     11.30      5.68      0.01     -0.01      1.53 
   114.37     14.23     11.30      5.68      0.01     -0.01      1.88 
   114.38     14.23     11.30      5.68      0.01     -0.01      1.88 
   114.39     14.23     11.30      5.68      0.01     -0.01      1.47 
   114.40     14.23     11.30      5.68      0.01     -0.01      1.47 
   114.41     14.23     11.31      5.68      0.01     -0.01      1.41 
   114.42     14.22     11.31      5.68      0.01     -0.00      1.41 
   114.43     14.22     11.31      5.68      0.01     -0.01      1.41 
   114.44     14.22     11.31      5.68      0.01     -0.01      1.41 
   114.45     14.22     11.31      5.68      0.01     -0.01      1.41 
   114.46     14.22     11.31      5.68      0.01     -0.01      1.41 
   114.47     14.22     11.31      5.68      0.01     -0.01      1.41 
