#Written by Robertson Geologging WinLogger V1.0/406
~VERSION INFORMATION
#------------------------------------------------------------------------------
 VERS. 2.0 : CWLS LOG ASCII STANDARD - VERSION 2.0
 WRAP. NO  : ONE LINE PER DEPTH STEP
~WELL INFORMATION
#MNEM.UNIT         DATA                                DESCRIPTION OF MNEMONIC
#------------------------------------------------------------------------------
 STRT.M         58.0600                            :   START DEPTH
 STOP.M        154.1000                            :   STOP DEPTH
 STEP.M          0.0100                            :   STEP VALUE
 NULL.        -999.2500                            :   NULL VALUE
 COMP.    Coal Authority                           :   COMPANY NAME
 WELL.    Lumley                                   :   WELL NAME
 FLD.     N/A                                      :   FIELD NAME
 LOC.     N/A                                      :   LOCATION
 PROV.    N/A                                      :   PROVINCE
 SRVC.    N/A                                      :   SERVICE COMPANY NAME
 DATE.    01 Oct 08                                :   DATE
 UWI.     N/A                                      :   UNIQUE WELL IDENTIFIER
~PARAMETER INFORMATION
#MNEMO.UNIT         VALUE                 DESCRIPTION OF MNEMONIC
#------------------------------------------------------------------------------
~OTHER INFORMATION SECTION
#------------------------------------------------------------------------------
 TCGS2822
~CURVE INFORMATION
#MNEMO.UNIT         API CODE              CURVE DESCRIPTION
#------------------------------------------------------------------------------
 DEPTH.M                                 :   0     Depth
 TEMP.DegC                               :   1     Temperature
 COND.uS/cm                              :   2     Conductivity
 DELT.DegC                               :   3     Delta T
 DELC.uS/cm                              :   4     Delta C
 NGAM.CPS                                :   5     Natural Gamma
#------------------------------------------------------------------------------
~A  DEPTH     TEMP      COND      DELT      DELC      NGAM      
# ...
    83.14     13.92   4739.81      0.01     20.18      0.00 
    83.15     13.92   4732.47      0.02     15.59      0.00 
    83.16     13.91   4739.81      0.01     20.18      0.00 
    83.17     13.89   4739.81     -0.01     15.60      0.00 
    83.18     13.88   4739.81     -0.02     20.18      7.00 
    83.19     13.89   4731.55     -0.01      7.34      0.00 
    83.20     13.89   4739.81     -0.01     20.18      0.00 
    83.21     13.90   4739.81      0.00     15.60      7.00 
    83.22     13.89   4739.81      0.01     20.18      0.00 
    83.23     13.87   4739.81     -0.02     15.60      0.00 
    83.24     13.85   4739.81     -0.04     20.18      0.00 
    83.25     13.86   4739.81     -0.03     15.60      0.00 
    83.26     13.87   4732.47     -0.03      6.42      7.00 
    83.27     13.89   4739.81     -0.01     15.60      0.00 
    83.28     13.91   4739.81      0.03     13.76      0.00 
    83.29     13.90   4739.81      0.03     15.60      0.00 
    83.30     13.88   4739.81      0.03     13.76      0.00 
    83.31     13.90   4739.81      0.03      8.26      0.00 
    83.32     13.89   4739.81      0.02     13.76      0.00 
    83.33     13.90   4739.81      0.01     15.60      0.00 
    83.34     13.90   4739.81      0.02     13.76      0.00 
    83.35     13.89   4739.81      0.01     13.76      0.00 
    83.36     13.89   4739.81      0.00     15.60      0.00 
    83.37     13.88   4739.81     -0.01     13.76      0.00 
    83.38     13.88   4732.47     -0.02      6.42      0.00 
    83.39     13.88   4739.81     -0.02      8.26      0.00 
    83.40     13.87   4739.81     -0.04     13.76      0.00 
    83.41     13.88   4739.81     -0.03     15.60      0.00 
    83.42     13.88   4739.81     -0.03     13.76      0.00 
    83.43     13.86   4739.81     -0.04      8.26      0.00 
    83.44     13.87   4739.81     -0.04     13.76      0.00 
    83.45     13.87   4739.81     -0.01     15.60      7.00 
    83.46     13.87   4739.81     -0.03     13.76      0.00 
    83.47     13.88   4739.81     -0.00     13.76      0.00 
    83.48     13.88   4739.81      0.00      8.26      0.00 
    83.49     13.88   4739.81      0.00     13.76      0.00 
    83.50     13.89   4739.81      0.02      8.26      0.00 
    83.51     13.91   4739.81      0.03     13.76      0.00 
    83.52     13.91   4739.81      0.03     13.76      0.00 
    83.53     13.91   4746.23      0.03     14.68      7.00 
    83.54     13.91   4739.81      0.03     13.76      0.00 
    83.55     13.89   4739.81      0.00      7.34      0.00 
    83.56     13.88   4739.81     -0.00     15.60      0.00 
    83.57     13.89   4739.81     -0.01      7.34      0.00 
    83.58     13.91   4739.81     -0.00      8.26      0.00 
    83.59     13.92   4739.81      0.02      7.34      0.00 
    83.60     13.92   4739.81      0.01     15.60      0.00 
    83.61     13.91   4739.81      0.03      7.34      0.00 
    83.62     13.89   4739.81      0.03      8.26      8.00 
    83.63     13.89   4739.81      0.03      7.34      0.00 
    83.64     13.92   4739.81      0.06      8.26      0.00 
    83.65     13.91   4732.47      0.04      0.00      0.00 
    83.66     13.93   4747.15      0.07     15.60      0.00 
    83.67     13.92   4739.81      0.06      7.34      0.00 
    83.68     13.91   4739.81      0.03      8.26      7.00 
    83.69     13.91   4739.81      0.03     13.76      0.00 
    83.70     13.90   4739.81      0.01      8.26      0.00 
    83.71     13.91   4739.81      0.02      8.26      0.00 
    83.72     13.90   4739.81      0.03      7.34      7.00 
    83.73     13.90   4739.81      0.03      8.26      0.00 
    83.74     13.91   4746.23      0.04     13.76      0.00 
    83.75     13.92   4739.81      0.03      0.00      0.00 
    83.76     13.92   4739.81      0.01      7.34      0.00 
    83.77     13.93   4739.81      0.01      8.26      0.00 
    83.78     13.90   4739.81     -0.01      7.34      0.00 
    83.79     13.90   4739.81     -0.01      0.00      0.00 
    83.80     13.89   4747.15     -0.00     14.68      0.00 
    83.81     13.89   4739.81     -0.01      0.00      7.00 
    83.82     13.91   4739.81      0.01      7.34      0.00 
    83.83     13.90   4739.81      0.03      0.00      0.00 
    83.84     13.92   4739.81      0.06      7.34      0.00 
    83.85     13.90   4739.81      0.02      8.26      0.00 
    83.86     13.91   4747.15      0.02      7.34      8.00 
    83.87     13.89   4739.81      0.01      7.34      0.00 
    83.88     13.90   4739.81      0.00      0.00      8.00 
    83.89     13.90   4739.81      0.03      7.34      7.00 
    83.90     13.90   4739.81      0.04      0.00      0.00 
    83.91     13.91   4747.15      0.04     14.68      0.00 
    83.92     13.91   4739.81      0.04      7.34      0.00 
    83.93     13.91   4739.81      0.03      0.00      0.00 
    83.94     13.89   4739.81      0.01      7.34      0.00 
    83.95     13.90   4747.15      0.02      7.34      0.00 
    83.96     13.90   4739.81      0.01      8.26     14.00 
    83.97     13.90   4739.81      0.01      0.00      0.00 
    83.98     13.92   4746.23      0.02     13.76      0.00 
    83.99     13.91   4739.81      0.03      0.00      0.00 
    84.00     13.92   4739.81      0.02      7.34      0.00 
    84.01     13.92   4747.15      0.03      7.34      0.00 
    84.02     13.91   4739.81      0.01      8.26      0.00 
    84.03     13.91   4739.81      0.00      0.00      0.00 
    84.04     13.91   4747.15      0.03      7.34      0.00 
    84.05     13.91   4739.81      0.02      8.26      0.00 
    84.06     13.90   4747.15      0.02      7.34      8.00 
    84.07     13.90   4739.81      0.01      7.34      0.00 
    84.08     13.87   4739.81     -0.01      0.00      0.00 
    84.09     13.89   4746.23      0.01      6.42      0.00 
    84.10     13.91   4739.81      0.04      8.26      0.00 
    84.11     13.90   4746.23      0.01      6.42      0.00 
    84.12     13.91   4746.23      0.01      6.42      0.00 
    84.13     13.90   4739.81     -0.02      0.00      0.00 
    84.14     13.90   4747.15     -0.02     14.68      0.00 
    84.15     13.92   4739.81      0.00      0.00      0.00 
    84.16     13.92   4746.23      0.03      6.42      0.00 
    84.17     13.94   4747.15      0.06      7.34      0.00 
    84.18     13.93   4739.81      0.04      8.26      0.00 
    84.19     13.93   4746.23      0.04      6.42      7.00 
    84.20     13.93   4739.81      0.02      0.00      8.00 
    84.21     13.90   4746.23      0.01      6.42      0.00 
    84.22     13.91   4746.23      0.04      6.42      0.00 
    84.23     13.91   4739.81      0.06      0.00      8.00 
    84.24     13.91   4746.23      0.04      6.42      0.00 
    84.25     13.91   4747.15      0.04     14.68      8.00 
    84.26     13.88   4746.23     -0.01      6.42      0.00 
    84.27     13.87   4739.81     -0.04      0.00      0.00 
    84.28     13.86   4747.15     -0.03      7.34      0.00 
    84.29     13.86   4746.23     -0.02      6.42      0.00 
    84.30     13.89   4739.81     -0.01      0.00      0.00 
    84.31     13.89   4746.23     -0.00      6.42      0.00 
    84.32     13.88   4746.23     -0.01      6.42      7.00 
    84.33     13.90   4747.15      0.00      7.34      0.00 
    84.34     13.90   4746.23      0.01      6.42      7.00 
    84.35     13.91   4746.23      0.02      6.42      0.00 
    84.36     13.91   4747.15      0.03      7.34      0.00 
    84.37     13.88   4739.81      0.00      7.34      0.00 
    84.38     13.88   4746.23     -0.00      6.42      0.00 
    84.39     13.88   4747.15      0.00      7.34      0.00 
    84.40     13.88   4746.23      0.00      6.42      0.00 
    84.41     13.87   4746.23     -0.01      6.42      0.00 
    84.42     13.90   4747.15      0.04      7.34      0.00 
    84.43     13.89   4746.23      0.02      6.42      7.00 
    84.44     13.90   4746.23      0.02      6.42      0.00 
    84.45     13.92   4747.15      0.05      7.34      0.00 
