#Written by Robertson Geologging WinLogger V1.0/370
~VERSION INFORMATION
#------------------------------------------------------------------------------
 VERS. 2.0 : CWLS LOG ASCII STANDARD - VERSION 2.0
 WRAP. NO  : ONE LINE PER DEPTH STEP
~WELL INFORMATION
#MNEM.UNIT         DATA                                DESCRIPTION OF MNEMONIC
#------------------------------------------------------------------------------
 STRT.M         50.0700                            :   START DEPTH
 STOP.M        138.5000                            :   STOP DEPTH
 STEP.M          0.0100                            :   STEP VALUE
 NULL.        -999.2500                            :   NULL VALUE
 COMP.    White Young Green                        :   COMPANY NAME
 WELL.    Lumley 6 Pit                             :   WELL NAME
 FLD.     lumley                                   :   FIELD NAME
 LOC.     N/A                                      :   LOCATION
 PROV.    N/A                                      :   PROVINCE
 SRVC.    N/A                                      :   SERVICE COMPANY NAME
 DATE.    06 Oct 05                                :   DATE
 UWI.     N/A                                      :   UNIQUE WELL IDENTIFIER
~PARAMETER INFORMATION
#MNEMO.UNIT         VALUE                 DESCRIPTION OF MNEMONIC
#------------------------------------------------------------------------------
~OTHER INFORMATION SECTION
#------------------------------------------------------------------------------
 TCGS1365
 Hole finnished 133 .Probe would not penatrate crust as seen on CCTV
~CURVE INFORMATION
#MNEMO.UNIT         API CODE              CURVE DESCRIPTION
#------------------------------------------------------------------------------
 DEPTH.M                                 :   0     Depth
 TEMP.DegC                               :   1     Temperature
 CN25.mS/cm                              :   2     Conductivity@25DegC
 COND.mS/cm                              :   3     Conductivity
 DELT.DegC                               :   4     Delta T
 DELC.mS/cm                              :   5     Delta C
 NGAM.CPS                                :   6     Natural Gamma
#------------------------------------------------------------------------------
~A  DEPTH     TEMP      CN25      COND      DELT      DELC      NGAM      
# ...
   131.43     14.30     11.62      6.00     -0.00      0.01      1.12 
   131.44     14.30     11.62      6.00      0.00      0.00      1.12 
   131.45     14.30     11.62      6.00      0.00      0.00      0.76 
   131.46     14.30     11.61      5.99      0.01     -0.01      0.76 
   131.47     14.30     11.61      5.99      0.01     -0.01      0.76 
   131.48     14.30     11.61      6.00      0.01     -0.01      0.76 
   131.49     14.30     11.62      6.00      0.01     -0.00      0.76 
   131.50     14.30     11.62      6.00      0.01     -0.00      0.76 
   131.51     14.30     11.62      6.00      0.01     -0.00      1.12 
   131.52     14.30     11.62      5.99      0.01     -0.01      1.12 
   131.53     14.30     11.62      5.99      0.01     -0.01      1.12 
   131.54     14.30     11.62      6.00      0.01     -0.00      1.53 
   131.55     14.30     11.62      6.00      0.01     -0.00      1.12 
   131.56     14.30     11.62      6.00      0.01     -0.00      1.12 
   131.57     14.30     11.62      6.00      0.00     -0.00      1.12 
   131.58     14.30     11.62      6.00      0.00     -0.00      1.12 
   131.59     14.30     11.62      5.99      0.00     -0.00      1.12 
   131.60     14.30     11.62      5.99      0.00     -0.00      1.47 
   131.61     14.30     11.62      6.00      0.00      0.00      1.47 
   131.62     14.30     11.62      6.00      0.00      0.00      1.12 
   131.63     14.30     11.62      6.00     -0.00      0.00      1.12 
   131.64     14.30     11.62      6.00     -0.00      0.00      1.12 
   131.65     14.30     11.62      5.99     -0.00      0.00      1.12 
   131.66     14.30     11.62      5.99     -0.00      0.00      1.12 
   131.67     14.30     11.62      6.00     -0.00      0.01      1.12 
   131.68     14.30     11.62      6.00     -0.01      0.01      0.76 
   131.69     14.29     11.62      6.00     -0.01      0.01      0.76 
   131.70     14.29     11.62      6.00     -0.01      0.01      0.76 
   131.71     14.29     11.62      6.00     -0.01      0.01      0.35 
   131.72     14.30     11.62      5.99     -0.01      0.01      0.35 
   131.73     14.30     11.62      6.00     -0.00      0.01      0.35 
   131.74     14.30     11.62      6.00     -0.00      0.01      0.35 
   131.75     14.30     11.62      6.00     -0.00      0.00      0.35 
   131.76     14.29     11.62      6.00      0.00     -0.00      0.35 
   131.77     14.29     11.62      6.00      0.00      0.00      0.00 
   131.78     14.29     11.62      6.00      0.00      0.00      0.00 
   131.79     14.30     11.62      6.00      0.00     -0.00      0.00 
   131.80     14.30     11.62      6.00      0.00     -0.00      0.00 
   131.81     14.30     11.62      6.00      0.01     -0.00      0.00 
   131.82     14.30     11.62      6.00      0.01     -0.00      0.00 
   131.83     14.30     11.62      6.00      0.01     -0.01      0.00 
   131.84     14.30     11.62      6.00      0.01     -0.01      0.00 
   131.85     14.30     11.62      5.99      0.00     -0.01      0.35 
   131.86     14.30     11.62      6.00      0.00     -0.00      0.35 
   131.87     14.30     11.62      6.00      0.00     -0.00      0.35 
   131.88     14.30     11.62      6.00      0.01     -0.00      0.35 
   131.89     14.30     11.61      5.99      0.01     -0.01      0.35 
   131.90     14.30     11.62      6.00      0.01     -0.01      0.35 
   131.91     14.30     11.62      6.00      0.01     -0.01      0.35 
   131.92     14.30     11.62      6.00      0.01     -0.01      0.35 
   131.93     14.30     11.62      6.00      0.01     -0.01      0.35 
   131.94     14.30     11.62      6.00      0.01     -0.01      0.35 
   131.95     14.30     11.62      5.99      0.00     -0.01      0.71 
   131.96     14.30     11.62      6.00      0.00     -0.00      0.71 
   131.97     14.30     11.62      6.00      0.00     -0.00      0.71 
   131.98     14.30     11.62      6.00      0.00     -0.00      1.06 
   131.99     14.30     11.62      6.00      0.00     -0.00      1.06 
   132.00     14.30     11.61      6.00      0.00     -0.00      1.47 
   132.01     14.30     11.61      5.99      0.00     -0.01      1.47 
   132.02     14.30     11.61      5.99      0.00     -0.01      1.12 
   132.03     14.30     11.61      6.00      0.00     -0.00      1.12 
   132.04     14.30     11.61      6.00      0.00     -0.00      1.12 
   132.05     14.30     11.62      6.00      0.00     -0.00      1.12 
   132.06     14.30     11.62      6.00      0.00     -0.00      1.12 
   132.07     14.30     11.61      5.99      0.00     -0.01      1.12 
   132.08     14.30     11.61      5.99      0.00     -0.01      1.12 
   132.09     14.30     11.61      5.99      0.00     -0.01      1.12 
   132.10     14.30     11.62      5.99     -0.00     -0.00      1.12 
   132.11     14.30     11.62      6.00     -0.00      0.01      1.12 
   132.12     14.29     11.62      6.00     -0.00      0.01      1.12 
   132.13     14.29     11.63      6.00     -0.01      0.01      1.12 
   132.14     14.29     11.62      5.99     -0.01      0.00      1.12 
   132.15     14.29     11.62      5.99     -0.00      0.00      0.76 
   132.16     14.30     11.62      5.99     -0.00      0.00      0.76 
   132.17     14.30     11.62      6.00     -0.00      0.01      0.35 
   132.18     14.30     11.62      6.00     -0.00      0.01      0.35 
   132.19     14.30     11.62      6.00     -0.00      0.01      0.35 
   132.20     14.30     11.62      6.00     -0.00      0.01      0.35 
   132.21     14.30     11.62      6.00      0.00     -0.00      0.35 
   132.22     14.30     11.62      5.99      0.00     -0.01      0.71 
   132.23     14.30     11.62      5.99      0.00     -0.01      1.12 
   132.24     14.30     11.61      5.99      0.01     -0.01      1.12 
   132.25     14.30     11.62      6.00      0.00     -0.00      1.53 
   132.26     14.30     11.62      6.00      0.00      0.01      1.53 
   132.27     14.30     11.62      6.00      0.00      0.00      1.53 
   132.28     14.30     11.62      5.99      0.00     -0.00      1.53 
   132.29     14.29     11.62      5.99      0.00     -0.00      1.18 
   132.30     14.30     11.62      5.99      0.00     -0.01      1.18 
   132.31     14.30     11.62      5.99      0.01     -0.01      1.18 
   132.32     14.30     11.62      6.00      0.01     -0.00      1.18 
   132.33     14.29     11.62      6.00      0.01     -0.00      1.18 
   132.34     14.29     11.62      6.00      0.01     -0.00      1.18 
   132.35     14.29     11.63      6.00      0.00     -0.00      1.18 
   132.36     14.29     11.62      5.99      0.00     -0.00      1.18 
   132.37     14.29     11.62      5.99      0.00     -0.01      1.18 
   132.38     14.29     11.62      5.99     -0.00      0.00      1.53 
   132.39     14.29     11.63      5.99     -0.00      0.00      1.59 
   132.40     14.29     11.63      6.00     -0.00      0.00      1.18 
   132.41     14.29     11.63      6.00     -0.01      0.01      1.18 
   132.42     14.29     11.63      6.00     -0.01      0.01      0.76 
   132.43     14.29     11.63      5.99     -0.01      0.01      0.76 
   132.44     14.29     11.63      5.99     -0.01      0.01      1.59 
   132.45     14.29     11.63      5.99     -0.01      0.02      1.59 
   132.46     14.29     11.63      5.99     -0.01      0.02      2.00 
   132.47     14.29     11.63      6.00     -0.01      0.02      2.00 
   132.48     14.29     11.63      6.00     -0.01      0.01      2.00 
   132.49     14.29     11.63      6.00     -0.01      0.01      2.00 
   132.50     14.29     11.63      6.00     -0.01      0.01      2.00 
   132.51     14.29     11.62      5.99     -0.01      0.01      2.00 
   132.52     14.29     11.62      5.99     -0.00      0.01      2.00 
   132.53     14.29     11.62      5.99     -0.00     -0.00      2.00 
   132.54     14.30     11.62      6.00     -0.00      0.00      2.00 
   132.55     14.30     11.62      6.00      0.00     -0.00      1.65 
