#Written by Robertson Geologging WinLogger V1.0/370
~VERSION INFORMATION
#------------------------------------------------------------------------------
 VERS. 2.0 : CWLS LOG ASCII STANDARD - VERSION 2.0
 WRAP. NO  : ONE LINE PER DEPTH STEP
~WELL INFORMATION
#MNEM.UNIT         DATA                                DESCRIPTION OF MNEMONIC
#------------------------------------------------------------------------------
 STRT.M         50.0700                            :   START DEPTH
 STOP.M        138.5000                            :   STOP DEPTH
 STEP.M          0.0100                            :   STEP VALUE
 NULL.        -999.2500                            :   NULL VALUE
 COMP.    White Young Green                        :   COMPANY NAME
 WELL.    Lumley 6 Pit                             :   WELL NAME
 FLD.     lumley                                   :   FIELD NAME
 LOC.     N/A                                      :   LOCATION
 PROV.    N/A                                      :   PROVINCE
 SRVC.    N/A                                      :   SERVICE COMPANY NAME
 DATE.    06 Oct 05                                :   DATE
 UWI.     N/A                                      :   UNIQUE WELL IDENTIFIER
~PARAMETER INFORMATION
#MNEMO.UNIT         VALUE                 DESCRIPTION OF MNEMONIC
#------------------------------------------------------------------------------
~OTHER INFORMATION SECTION
#------------------------------------------------------------------------------
 TCGS1365
 Hole finnished 133 .Probe would not penatrate crust as seen on CCTV
~CURVE INFORMATION
#MNEMO.UNIT         API CODE              CURVE DESCRIPTION
#------------------------------------------------------------------------------
 DEPTH.M                                 :   0     Depth
 TEMP.DegC                               :   1     Temperature
 CN25.mS/cm                              :   2     Conductivity@25DegC
 COND.mS/cm                              :   3     Conductivity
 DELT.DegC                               :   4     Delta T
 DELC.mS/cm                              :   5     Delta C
 NGAM.CPS                                :   6     Natural Gamma
#------------------------------------------------------------------------------
~A  DEPTH     TEMP      CN25      COND      DELT      DELC      NGAM      
# ...
   125.78     14.26     11.49      5.86      0.01      0.01      2.29 
   125.79     14.26     11.49      5.86      0.01      0.01      2.65 
   125.80     14.26     11.49      5.86      0.01      0.01      2.24 
   125.81     14.26     11.49      5.86      0.01      0.01      2.24 
   125.82     14.26     11.49      5.86      0.01      0.01      2.24 
   125.83     14.26     11.49      5.86      0.01      0.01      1.82 
   125.84     14.26     11.49      5.86      0.01      0.01      2.18 
   125.85     14.26     11.49      5.86      0.01      0.01      2.65 
   125.86     14.26     11.49      5.86      0.01      0.00      2.65 
   125.87     14.26     11.49      5.86      0.01      0.01      3.00 
   125.88     14.26     11.50      5.86      0.00      0.01      3.00 
   125.89     14.26     11.50      5.86      0.00      0.01      3.00 
   125.90     14.26     11.50      5.86      0.00      0.02      3.35 
   125.91     14.26     11.50      5.86     -0.00      0.02      2.65 
   125.92     14.26     11.50      5.86     -0.00      0.02      2.65 
   125.93     14.25     11.50      5.86     -0.01      0.03      2.65 
   125.94     14.25     11.50      5.86     -0.01      0.02      2.65 
   125.95     14.25     11.50      5.86     -0.01      0.03      2.65 
   125.96     14.25     11.51      5.86     -0.01      0.02      2.29 
   125.97     14.25     11.51      5.86     -0.01      0.03      2.29 
   125.98     14.25     11.51      5.86     -0.01      0.02      2.29 
   125.99     14.25     11.51      5.86     -0.00      0.02      2.29 
   126.00     14.25     11.51      5.86     -0.00      0.02      1.88 
   126.01     14.25     11.50      5.86      0.00      0.01      1.53 
   126.02     14.26     11.50      5.86      0.00      0.00      0.71 
   126.03     14.26     11.50      5.86      0.00      0.01      0.71 
   126.04     14.26     11.50      5.86      0.01      0.00      0.76 
   126.05     14.26     11.50      5.86      0.01      0.01      1.12 
   126.06     14.26     11.50      5.86      0.01      0.00      1.12 
   126.07     14.26     11.50      5.86      0.01      0.00      0.76 
   126.08     14.26     11.50      5.86      0.01      0.00      0.76 
   126.09     14.26     11.50      5.86      0.01      0.01      0.76 
   126.10     14.26     11.49      5.86      0.00      0.01      0.76 
   126.11     14.26     11.49      5.86      0.00      0.01      0.76 
   126.12     14.26     11.50      5.86     -0.00      0.01      0.76 
   126.13     14.26     11.50      5.87     -0.00      0.02      0.76 
   126.14     14.26     11.50      5.87     -0.00      0.02      0.76 
   126.15     14.26     11.50      5.87     -0.00      0.02      0.76 
   126.16     14.26     11.50      5.87     -0.00      0.02      0.76 
   126.17     14.26     11.50      5.87     -0.01      0.02      0.76 
   126.18     14.26     11.50      5.87     -0.01      0.03      0.76 
   126.19     14.26     11.50      5.87     -0.01      0.03      0.76 
   126.20     14.26     11.50      5.87     -0.01      0.02      0.76 
   126.21     14.26     11.50      5.87     -0.01      0.03      0.35 
   126.22     14.26     11.50      5.87     -0.01      0.02      0.00 
   126.23     14.26     11.50      5.87     -0.00      0.02      0.00 
   126.24     14.26     11.50      5.87     -0.01      0.02      0.00 
   126.25     14.26     11.50      5.87     -0.01      0.02      0.00 
   126.26     14.26     11.50      5.87     -0.01      0.02      0.00 
   126.27     14.26     11.50      5.87     -0.01      0.02      0.35 
   126.28     14.26     11.50      5.87     -0.01      0.02      0.35 
   126.29     14.26     11.50      5.87     -0.01      0.02      0.71 
   126.30     14.26     11.50      5.87     -0.00      0.01      0.71 
   126.31     14.26     11.50      5.87     -0.00      0.01      0.71 
   126.32     14.26     11.50      5.87     -0.00      0.01      0.71 
   126.33     14.26     11.50      5.87      0.00      0.01      0.71 
   126.34     14.26     11.50      5.87      0.00      0.01      0.71 
   126.35     14.26     11.50      5.87      0.01      0.01      0.71 
   126.36     14.26     11.50      5.87      0.01      0.00      0.71 
   126.37     14.27     11.50      5.87      0.01     -0.00      0.71 
   126.38     14.27     11.49      5.87      0.01     -0.01      0.71 
   126.39     14.27     11.49      5.87      0.01     -0.00      0.71 
   126.40     14.27     11.50      5.87      0.01     -0.00      0.71 
   126.41     14.26     11.50      5.87      0.01     -0.00      0.71 
   126.42     14.26     11.50      5.87      0.01      0.01      0.71 
   126.43     14.26     11.50      5.87      0.00      0.01      0.71 
   126.44     14.26     11.50      5.87      0.00      0.01      0.35 
   126.45     14.26     11.50      5.87      0.00      0.01      0.35 
   126.46     14.26     11.50      5.87      0.00      0.01      0.00 
   126.47     14.26     11.51      5.87      0.00      0.01      0.00 
   126.48     14.26     11.50      5.86     -0.00      0.01      0.41 
   126.49     14.25     11.51      5.87     -0.00      0.01      0.41 
   126.50     14.25     11.51      5.87     -0.00      0.02      0.41 
   126.51     14.26     11.51      5.87     -0.00      0.01      0.41 
   126.52     14.26     11.51      5.87     -0.00      0.01      0.41 
   126.53     14.26     11.50      5.87     -0.00      0.01      0.41 
   126.54     14.26     11.50      5.87      0.00      0.01      0.41 
   126.55     14.26     11.50      5.87      0.00      0.01      0.82 
   126.56     14.26     11.50      5.87     -0.00      0.01      0.82 
   126.57     14.26     11.50      5.87     -0.00      0.02      0.82 
   126.58     14.26     11.51      5.87     -0.01      0.02      0.82 
   126.59     14.26     11.51      5.87     -0.01      0.03      0.82 
   126.60     14.26     11.51      5.87     -0.01      0.03      0.82 
   126.61     14.26     11.51      5.87     -0.01      0.03      0.82 
   126.62     14.26     11.51      5.87     -0.01      0.03      0.82 
   126.63     14.26     11.51      5.87     -0.01      0.03      0.82 
   126.64     14.26     11.51      5.87     -0.01      0.03      0.82 
   126.65     14.26     11.51      5.87     -0.01      0.02      0.41 
   126.66     14.26     11.51      5.88     -0.01      0.03      0.41 
   126.67     14.26     11.52      5.88     -0.01      0.03      0.41 
   126.68     14.26     11.52      5.88     -0.01      0.03      0.41 
   126.69     14.26     11.52      5.88     -0.01      0.03      0.41 
   126.70     14.26     11.52      5.88     -0.00      0.03      0.41 
   126.71     14.26     11.52      5.88     -0.00      0.03      0.41 
   126.72     14.26     11.52      5.88     -0.00      0.03      0.00 
   126.73     14.26     11.52      5.88     -0.00      0.03      0.00 
   126.74     14.26     11.52      5.88     -0.00      0.03      0.00 
   126.75     14.26     11.52      5.88     -0.00      0.03      0.00 
   126.76     14.26     11.53      5.89     -0.00      0.04      0.00 
   126.77     14.26     11.52      5.88     -0.00      0.03      0.00 
   126.78     14.26     11.52      5.88      0.00      0.03      0.00 
   126.79     14.26     11.52      5.89      0.00      0.03      0.00 
   126.80     14.26     11.52      5.89      0.00      0.03      0.00 
   126.81     14.26     11.52      5.88      0.00      0.03      0.71 
   126.82     14.27     11.52      5.89      0.00      0.03      0.71 
   126.83     14.27     11.51      5.89      0.00      0.02      0.71 
   126.84     14.27     11.51      5.89      0.01      0.03      1.06 
   126.85     14.27     11.51      5.89      0.01      0.03      1.06 
   126.86     14.27     11.51      5.89      0.01      0.02      1.06 
   126.87     14.27     11.51      5.89      0.01      0.02      1.06 
   126.88     14.27     11.52      5.89      0.01      0.02      1.06 
   126.89     14.27     11.52      5.89      0.01      0.02      1.06 
   126.90     14.27     11.52      5.89      0.01      0.01      1.06 
