#Written by Robertson Geologging WinLogger V1.0/370
~VERSION INFORMATION
#------------------------------------------------------------------------------
 VERS. 2.0 : CWLS LOG ASCII STANDARD - VERSION 2.0
 WRAP. NO  : ONE LINE PER DEPTH STEP
~WELL INFORMATION
#MNEM.UNIT         DATA                                DESCRIPTION OF MNEMONIC
#------------------------------------------------------------------------------
 STRT.M         50.0700                            :   START DEPTH
 STOP.M        138.5000                            :   STOP DEPTH
 STEP.M          0.0100                            :   STEP VALUE
 NULL.        -999.2500                            :   NULL VALUE
 COMP.    White Young Green                        :   COMPANY NAME
 WELL.    Lumley 6 Pit                             :   WELL NAME
 FLD.     lumley                                   :   FIELD NAME
 LOC.     N/A                                      :   LOCATION
 PROV.    N/A                                      :   PROVINCE
 SRVC.    N/A                                      :   SERVICE COMPANY NAME
 DATE.    06 Oct 05                                :   DATE
 UWI.     N/A                                      :   UNIQUE WELL IDENTIFIER
~PARAMETER INFORMATION
#MNEMO.UNIT         VALUE                 DESCRIPTION OF MNEMONIC
#------------------------------------------------------------------------------
~OTHER INFORMATION SECTION
#------------------------------------------------------------------------------
 TCGS1365
 Hole finnished 133 .Probe would not penatrate crust as seen on CCTV
~CURVE INFORMATION
#MNEMO.UNIT         API CODE              CURVE DESCRIPTION
#------------------------------------------------------------------------------
 DEPTH.M                                 :   0     Depth
 TEMP.DegC                               :   1     Temperature
 CN25.mS/cm                              :   2     Conductivity@25DegC
 COND.mS/cm                              :   3     Conductivity
 DELT.DegC                               :   4     Delta T
 DELC.mS/cm                              :   5     Delta C
 NGAM.CPS                                :   6     Natural Gamma
#------------------------------------------------------------------------------
~A  DEPTH     TEMP      CN25      COND      DELT      DELC      NGAM      
# ...
    96.40     13.86     11.31      5.34      0.03     -0.01      0.41 
    96.41     13.86     11.31      5.34      0.03     -0.02      0.41 
    96.42     13.86     11.31      5.34      0.03     -0.02      0.41 
    96.43     13.86     11.31      5.34      0.03     -0.02      0.41 
    96.44     13.87     11.31      5.34      0.03     -0.02      0.82 
    96.45     13.87     11.31      5.34      0.03     -0.02      0.82 
    96.46     13.87     11.31      5.34      0.03     -0.01      0.82 
    96.47     13.86     11.31      5.34      0.03     -0.01      0.82 
    96.48     13.87     11.31      5.34      0.03     -0.02      0.82 
    96.49     13.87     11.31      5.34      0.03     -0.02      0.82 
    96.50     13.87     11.30      5.34      0.03     -0.02      0.82 
    96.51     13.87     11.30      5.34      0.03     -0.02      0.82 
    96.52     13.87     11.30      5.34      0.03     -0.02      0.82 
    96.53     13.87     11.30      5.34      0.04     -0.03      0.82 
    96.54     13.87     11.30      5.34      0.04     -0.02      0.82 
    96.55     13.87     11.30      5.34      0.04     -0.03      0.82 
    96.56     13.87     11.30      5.34      0.04     -0.03      0.82 
    96.57     13.87     11.30      5.34      0.04     -0.03      0.41 
    96.58     13.87     11.30      5.34      0.04     -0.03      0.41 
    96.59     13.87     11.30      5.34      0.04     -0.03      0.41 
    96.60     13.87     11.30      5.34      0.04     -0.03      0.41 
    96.61     13.87     11.30      5.34      0.04     -0.03      0.00 
    96.62     13.87     11.30      5.34      0.04     -0.03      0.00 
    96.63     13.87     11.30      5.34      0.04     -0.03      0.41 
    96.64     13.87     11.30      5.34      0.04     -0.03      0.41 
    96.65     13.87     11.30      5.34      0.04     -0.03      0.41 
    96.66     13.87     11.30      5.34      0.03     -0.03      0.41 
    96.67     13.87     11.30      5.34      0.03     -0.02      0.41 
    96.68     13.87     11.30      5.34      0.03     -0.02      0.41 
    96.69     13.88     11.30      5.34      0.03     -0.02      0.41 
    96.70     13.88     11.30      5.34      0.03     -0.02      0.41 
    96.71     13.88     11.30      5.34      0.04     -0.03      0.41 
    96.72     13.88     11.30      5.34      0.04     -0.02      0.41 
    96.73     13.88     11.30      5.34      0.04     -0.03      0.41 
    96.74     13.88     11.29      5.34      0.04     -0.03      0.41 
    96.75     13.88     11.29      5.35      0.04     -0.02      0.41 
    96.76     13.88     11.29      5.34      0.04     -0.03      0.41 
    96.77     13.88     11.29      5.35      0.04     -0.03      0.41 
    96.78     13.88     11.29      5.34      0.05     -0.04      0.41 
    96.79     13.88     11.29      5.34      0.05     -0.04      0.41 
    96.80     13.88     11.29      5.34      0.05     -0.04      0.00 
    96.81     13.88     11.29      5.34      0.05     -0.04      0.00 
    96.82     13.88     11.29      5.34      0.04     -0.04      0.00 
    96.83     13.88     11.30      5.35      0.04     -0.04      0.00 
    96.84     13.88     11.30      5.35      0.05     -0.04      0.00 
    96.85     13.88     11.30      5.35      0.05     -0.04      0.00 
    96.86     13.88     11.30      5.34      0.04     -0.04      0.00 
    96.87     13.88     11.30      5.35      0.04     -0.04      0.00 
    96.88     13.88     11.29      5.34      0.04     -0.04      0.00 
    96.89     13.88     11.30      5.35      0.04     -0.03      0.00 
    96.90     13.88     11.30      5.35      0.04     -0.03      0.00 
    96.91     13.88     11.30      5.35      0.04     -0.03      0.00 
    96.92     13.88     11.30      5.35      0.04     -0.03      0.00 
    96.93     13.88     11.30      5.35      0.04     -0.03      0.00 
    96.94     13.88     11.29      5.34      0.04     -0.03      0.00 
    96.95     13.88     11.30      5.35      0.03     -0.02      0.00 
    96.96     13.88     11.30      5.35      0.03     -0.02      0.00 
    96.97     13.88     11.30      5.35      0.03     -0.02      0.00 
    96.98     13.88     11.30      5.35      0.03     -0.02      0.00 
    96.99     13.88     11.30      5.35      0.03     -0.01      0.00 
    97.00     13.88     11.30      5.35      0.03     -0.02      0.00 
    97.01     13.88     11.30      5.35      0.03     -0.01      0.00 
    97.02     13.88     11.30      5.35      0.03     -0.01      0.00 
    97.03     13.88     11.30      5.35      0.03     -0.02      0.00 
    97.04     13.88     11.30      5.35      0.03     -0.01      0.00 
    97.05     13.88     11.30      5.35      0.03     -0.01      0.00 
    97.06     13.88     11.30      5.35      0.03     -0.02      0.00 
    97.07     13.88     11.30      5.35      0.03     -0.02      0.41 
    97.08     13.88     11.30      5.35      0.03     -0.01      0.41 
    97.09     13.88     11.30      5.35      0.03     -0.01      0.41 
    97.10     13.88     11.30      5.35      0.03     -0.01      0.41 
    97.11     13.89     11.30      5.35      0.03     -0.01      0.82 
    97.12     13.89     11.30      5.35      0.03     -0.02      0.82 
    97.13     13.89     11.29      5.35      0.03     -0.02      0.82 
    97.14     13.89     11.29      5.35      0.03     -0.02      0.82 
    97.15     13.89     11.29      5.35      0.04     -0.02      0.82 
    97.16     13.90     11.29      5.36      0.04     -0.02      0.82 
    97.17     13.90     11.29      5.35      0.04     -0.02      0.82 
    97.18     13.90     11.29      5.36      0.04     -0.02      0.82 
    97.19     13.90     11.29      5.36      0.04     -0.03      0.82 
    97.20     13.90     11.29      5.36      0.04     -0.03      0.82 
    97.21     13.90     11.29      5.36      0.05     -0.03      0.82 
    97.22     13.90     11.29      5.36      0.05     -0.03      0.82 
    97.23     13.90     11.29      5.36      0.04     -0.02      0.82 
    97.24     13.90     11.30      5.36      0.04     -0.02      0.41 
    97.25     13.89     11.30      5.36      0.04     -0.01      0.41 
    97.26     13.89     11.30      5.36      0.04     -0.01      0.41 
    97.27     13.89     11.30      5.36      0.04     -0.01      0.41 
    97.28     13.89     11.31      5.36      0.03     -0.01      0.00 
    97.29     13.89     11.31      5.36      0.03     -0.01      0.00 
    97.30     13.89     11.31      5.36      0.03     -0.01      0.00 
    97.31     13.89     11.31      5.36      0.04     -0.01      0.00 
    97.32     13.89     11.30      5.36      0.04     -0.01      0.00 
    97.33     13.90     11.30      5.36      0.04     -0.01      0.00 
    97.34     13.90     11.30      5.36      0.04     -0.01      0.00 
    97.35     13.90     11.30      5.36      0.04     -0.02      0.00 
    97.36     13.90     11.29      5.36      0.05     -0.02      0.00 
    97.37     13.91     11.29      5.37      0.05     -0.02      0.00 
    97.38     13.91     11.29      5.37      0.05     -0.03      0.41 
    97.39     13.91     11.28      5.37      0.05     -0.03      0.41 
    97.40     13.92     11.28      5.37      0.06     -0.03      0.41 
    97.41     13.92     11.27      5.37      0.06     -0.03      0.41 
    97.42     13.92     11.27      5.37      0.06     -0.03      0.41 
    97.43     13.92     11.27      5.37      0.06     -0.03      0.41 
    97.44     13.93     11.27      5.37      0.06     -0.03      0.41 
    97.45     13.93     11.27      5.37      0.06     -0.03      0.82 
    97.46     13.93     11.27      5.37      0.06     -0.04      0.82 
    97.47     13.93     11.27      5.37      0.07     -0.04      0.82 
    97.48     13.94     11.26      5.37      0.07     -0.04      0.82 
    97.49     13.94     11.26      5.37      0.07     -0.04      1.24 
    97.50     13.94     11.26      5.37      0.07     -0.04      1.24 
    97.51     13.94     11.26      5.37      0.07     -0.04      1.24 
    97.52     13.94     11.26      5.37      0.07     -0.04      1.24 
