#Written by Robertson Geologging WinLogger V1.0/406
~VERSION INFORMATION
#------------------------------------------------------------------------------
 VERS. 2.0 : CWLS LOG ASCII STANDARD - VERSION 2.0
 WRAP. NO  : ONE LINE PER DEPTH STEP
~WELL INFORMATION
#MNEM.UNIT         DATA                                DESCRIPTION OF MNEMONIC
#------------------------------------------------------------------------------
 STRT.M         58.0600                            :   START DEPTH
 STOP.M        154.1000                            :   STOP DEPTH
 STEP.M          0.0100                            :   STEP VALUE
 NULL.        -999.2500                            :   NULL VALUE
 COMP.    Coal Authority                           :   COMPANY NAME
 WELL.    Lumley                                   :   WELL NAME
 FLD.     N/A                                      :   FIELD NAME
 LOC.     N/A                                      :   LOCATION
 PROV.    N/A                                      :   PROVINCE
 SRVC.    N/A                                      :   SERVICE COMPANY NAME
 DATE.    01 Oct 08                                :   DATE
 UWI.     N/A                                      :   UNIQUE WELL IDENTIFIER
~PARAMETER INFORMATION
#MNEMO.UNIT         VALUE                 DESCRIPTION OF MNEMONIC
#------------------------------------------------------------------------------
~OTHER INFORMATION SECTION
#------------------------------------------------------------------------------
 TCGS2822
~CURVE INFORMATION
#MNEMO.UNIT         API CODE              CURVE DESCRIPTION
#------------------------------------------------------------------------------
 DEPTH.M                                 :   0     Depth
 TEMP.DegC                               :   1     Temperature
 COND.uS/cm                              :   2     Conductivity
 DELT.DegC                               :   3     Delta T
 DELC.uS/cm                              :   4     Delta C
 NGAM.CPS                                :   5     Natural Gamma
#------------------------------------------------------------------------------
~A  DEPTH     TEMP      COND      DELT      DELC      NGAM      
# ...
   102.94     14.49   5729.78      0.02     -9.24      0.00 
   102.95     14.48   5732.56     -0.01      2.77      0.00 
   102.96     14.45   5732.56     -0.03      0.00      0.00 
   102.97     14.45   5737.18     -0.01     -1.85      0.00 
   102.98     14.45   5726.09      0.00     -3.70      0.00 
   102.99     14.46   5732.56      0.03      0.00      0.00 
   103.00     14.47   5737.18      0.04     -1.85      0.00 
   103.01     14.46   5732.56      0.01      2.77      0.00 
   103.02     14.47   5732.56      0.00      0.00      0.00 
   103.03     14.46   5729.78     -0.00     -7.40      0.00 
   103.04     14.46   5732.56     -0.01      0.00      0.00 
   103.05     14.45   5732.56      0.00      0.00      0.00 
   103.06     14.44   5737.18     -0.03      0.00      0.00 
   103.07     14.43   5732.56     -0.04      0.00      7.00 
   103.08     14.43   5737.18     -0.02      7.40      8.00 
   103.09     14.44   5732.56     -0.01     -6.47      0.00 
   103.10     14.44   5732.56      0.00      0.00      0.00 
   103.11     14.47   5729.78      0.00      0.00      0.00 
   103.12     14.47   5732.56     -0.00      0.00      0.00 
   103.13     14.45   5737.18     -0.01      0.00      8.00 
   103.14     14.44   5732.56     -0.01      0.00     14.00 
   103.15     14.44   5732.56     -0.00      0.00      0.00 
   103.16     14.45   5737.18      0.01      7.40      0.00 
   103.17     14.46   5732.56      0.01     -6.47      0.00 
   103.18     14.47   5732.56      0.01     11.09      0.00 
   103.19     14.45   5729.78     -0.00     -2.77      0.00 
   103.20     14.44   5732.56     -0.02     -4.62      0.00 
   103.21     14.43   5739.03     -0.02      6.47      0.00 
   103.22     14.43   5729.78     -0.03      0.00      0.00 
   103.23     14.44   5732.56     -0.02      0.00      0.00 
   103.24     14.45   5732.56     -0.04     -4.62      0.00 
   103.25     14.45   5737.18     -0.05      4.62      8.00 
   103.26     14.45   5732.56     -0.03      2.77     14.00 
   103.27     14.44   5732.56     -0.05      0.00      0.00 
   103.28     14.44   5737.18     -0.03      0.00      0.00 
   103.29     14.44   5732.56     -0.04      0.00      0.00 
   103.30     14.44   5737.18     -0.02      4.62      0.00 
   103.31     14.44   5732.56     -0.03      2.77      0.00 
   103.32     14.44   5729.78     -0.04     -2.77      0.00 
   103.33     14.44   5739.03     -0.02      1.85      7.00 
   103.34     14.45   5729.78     -0.02     -2.77      0.00 
   103.35     14.45   5732.56     -0.01      0.00      0.00 
   103.36     14.45   5732.56      0.00      2.77      0.00 
   103.37     14.46   5737.18      0.02      4.62      0.00 
   103.38     14.45   5732.56      0.00     -4.62      0.00 
   103.39     14.47   5737.18      0.03      4.62      8.00 
   103.40     14.47   5732.56      0.01      2.77      7.00 
   103.41     14.46   5737.18     -0.00      4.62      8.00 
   103.42     14.46   5732.56     -0.01      2.77      0.00 
   103.43     14.45   5732.56     -0.01     -6.47      0.00 
   103.44     14.45   5737.18     -0.00      4.62      0.00 
   103.45     14.45   5732.56     -0.00      2.77      0.00 
   103.46     14.45   5729.78      0.00     -2.77      0.00 
   103.47     14.44   5739.03     -0.02      6.47      0.00 
   103.48     14.46   5729.78     -0.01     -7.40      0.00 
   103.49     14.45   5739.03     -0.01      6.47      0.00 
   103.50     14.46   5729.78     -0.01      0.00      0.00 
   103.51     14.47   5739.03      0.00      6.47      0.00 
   103.52     14.45   5729.78      0.00     -2.77      0.00 
   103.53     14.44   5739.03     -0.01      1.85      0.00 
   103.54     14.45   5732.56      0.00      0.00      0.00 
   103.55     14.45   5737.18      0.00      7.40      0.00 
   103.56     14.47   5732.56      0.00      0.00      0.00 
   103.57     14.48   5737.18      0.01      0.00      0.00 
   103.58     14.47   5732.56     -0.00      0.00      0.00 
   103.59     14.46   5737.18     -0.02      4.62      0.00 
   103.60     14.46   5732.56     -0.02     -4.62      0.00 
   103.61     14.45   5737.18     -0.01      7.40      0.00 
   103.62     14.46   5732.56     -0.01      0.00      0.00 
   103.63     14.48   5737.18      0.00      0.00      8.00 
   103.64     14.46   5732.56     -0.02      0.00      0.00 
   103.65     14.46   5737.18     -0.02      7.40      0.00 
   103.66     14.46   5732.56     -0.02      0.00      0.00 
   103.67     14.46   5732.56     -0.02     -4.62      0.00 
   103.68     14.47   5737.18     -0.00      4.62      0.00 
   103.69     14.47   5732.56      0.00     -4.62      0.00 
   103.70     14.47   5732.56      0.02      0.00      0.00 
   103.71     14.47   5737.18      0.03      7.40      0.00 
   103.72     14.46   5732.56      0.01      0.00      0.00 
   103.73     14.47   5737.18      0.02      0.00      0.00 
   103.74     14.46   5732.56      0.01      0.00      0.00 
   103.75     14.46   5737.18      0.01      7.40      0.00 
   103.76     14.47   5726.09      0.02     -6.47      0.00 
   103.77     14.47   5739.03      0.01      1.85      0.00 
   103.78     14.48   5729.78      0.03     -2.77      0.00 
   103.79     14.47   5739.03      0.00      1.85      0.00 
   103.80     14.46   5729.78      0.02     -2.77      0.00 
   103.81     14.46   5739.03      0.00      9.24      0.00 
   103.82     14.44   5729.78     -0.01     -2.77      0.00 
   103.83     14.46   5739.03      0.01      1.85      0.00 
   103.84     14.46   5729.78      0.01     -2.77      0.00 
   103.85     14.45   5739.03      0.00      9.24      0.00 
   103.86     14.45   5729.78     -0.00     -2.77      0.00 
   103.87     14.43   5739.03     -0.03      6.47      0.00 
   103.88     14.44   5729.78     -0.05     -7.40      0.00 
   103.89     14.45   5739.03     -0.03      6.47      7.00 
   103.90     14.44   5737.18     -0.03      4.62      0.00 
   103.91     14.46   5732.56     -0.03     -4.62      0.00 
   103.92     14.47   5732.56     -0.02      0.00      0.00 
   103.93     14.48   5737.18     -0.01      7.40      8.00 
   103.94     14.49   5732.56      0.01      0.00      0.00 
   103.95     14.48   5737.18      0.02      4.62      0.00 
   103.96     14.47   5732.56      0.01     -4.62      0.00 
   103.97     14.46   5737.18      0.01     11.09      0.00 
   103.98     14.45   5732.56     -0.01      0.00      0.00 
   103.99     14.47   5737.18      0.00      0.00      0.00 
   104.00     14.46   5739.03      0.00      6.47      0.00 
   104.01     14.46   5729.78     -0.01     -2.77      0.00 
   104.02     14.47   5739.03      0.01      9.24      0.00 
   104.03     14.46   5729.78      0.00     -2.77      0.00 
   104.04     14.46   5739.03      0.01      6.47      0.00 
   104.05     14.47   5729.78      0.03     -7.40      0.00 
   104.06     14.47   5739.03      0.05      6.47      0.00 
   104.07     14.48   5732.56      0.05     -4.62      0.00 
   104.08     14.49   5737.18      0.04      4.62      0.00 
   104.09     14.48   5732.56      0.03      0.00      0.00 
   104.10     14.48   5739.03      0.01      9.24     14.00 
   104.11     14.48   5732.56      0.01      0.00      7.00 
   104.12     14.48   5737.18      0.02      0.00      0.00 
   104.13     14.48   5732.56      0.04      0.00      0.00 
   104.14     14.47   5732.56      0.02      0.00      0.00 
   104.15     14.47   5737.18      0.02      0.00      0.00 
   104.16     14.46   5739.03      0.00      6.47      0.00 
   104.17     14.45   5732.56     -0.02      0.00      0.00 
   104.18     14.46   5737.18      0.01      7.40      8.00 
   104.19     14.45   5732.56      0.01      0.00      0.00 
   104.20     14.45   5737.18      0.02     -1.85      0.00 
   104.21     14.45   5732.56      0.02      2.77      7.00 
   104.22     14.45   5732.56      0.01      0.00      0.00 
   104.23     14.44   5737.18     -0.00      4.62      0.00 
   104.24     14.45   5739.03      0.00      1.85      0.00 
   104.25     14.47   5729.78      0.01     -2.77      0.00 
