#Written by Robertson Geologging WinLogger V1.0/406
~VERSION INFORMATION
#------------------------------------------------------------------------------
 VERS. 2.0 : CWLS LOG ASCII STANDARD - VERSION 2.0
 WRAP. NO  : ONE LINE PER DEPTH STEP
~WELL INFORMATION
#MNEM.UNIT         DATA                                DESCRIPTION OF MNEMONIC
#------------------------------------------------------------------------------
 STRT.M         58.0600                            :   START DEPTH
 STOP.M        154.1000                            :   STOP DEPTH
 STEP.M          0.0100                            :   STEP VALUE
 NULL.        -999.2500                            :   NULL VALUE
 COMP.    Coal Authority                           :   COMPANY NAME
 WELL.    Lumley                                   :   WELL NAME
 FLD.     N/A                                      :   FIELD NAME
 LOC.     N/A                                      :   LOCATION
 PROV.    N/A                                      :   PROVINCE
 SRVC.    N/A                                      :   SERVICE COMPANY NAME
 DATE.    01 Oct 08                                :   DATE
 UWI.     N/A                                      :   UNIQUE WELL IDENTIFIER
~PARAMETER INFORMATION
#MNEMO.UNIT         VALUE                 DESCRIPTION OF MNEMONIC
#------------------------------------------------------------------------------
~OTHER INFORMATION SECTION
#------------------------------------------------------------------------------
 TCGS2822
~CURVE INFORMATION
#MNEMO.UNIT         API CODE              CURVE DESCRIPTION
#------------------------------------------------------------------------------
 DEPTH.M                                 :   0     Depth
 TEMP.DegC                               :   1     Temperature
 COND.uS/cm                              :   2     Conductivity
 DELT.DegC                               :   3     Delta T
 DELC.uS/cm                              :   4     Delta C
 NGAM.CPS                                :   5     Natural Gamma
#------------------------------------------------------------------------------
~A  DEPTH     TEMP      COND      DELT      DELC      NGAM      
# ...
   153.10     14.43   5900.90     -0.06     16.66      0.00 
   153.11     14.43   5900.90     -0.07     23.14      0.00 
   153.12     14.43   5901.83     -0.05     17.58      0.00 
   153.13     14.43   5901.83     -0.06     30.54      0.00 
   153.14     14.43   5901.83     -0.06     17.58      0.00 
   153.15     14.43   5900.90     -0.08     17.58      7.00 
   153.16     14.42   5902.75     -0.09     18.51      0.00 
   153.17     14.41   5902.75     -0.10     24.99      0.00 
   153.18     14.40   5903.68     -0.10     19.44      4.00 
   153.19     14.39   5903.68     -0.09     19.44      4.00 
   153.20     14.39   5905.53     -0.08     13.88      0.00 
   153.21     14.40   5905.53     -0.07     21.29      5.00 
   153.22     14.42   5903.68     -0.08     19.44      4.00 
   153.23     14.42   5905.53     -0.07     21.29      0.00 
   153.24     14.43   5905.53     -0.06     13.88      5.00 
   153.25     14.43   5905.53     -0.07     21.29     10.00 
   153.26     14.43   5905.53     -0.05     13.88      0.00 
   153.27     14.44   5908.31     -0.04     16.66      0.00 
   153.28     14.43   5905.53     -0.06     22.21      0.00 
   153.29     14.41   5910.16     -0.09     18.51     15.00 
   153.30     14.39   5905.53     -0.12     13.88      0.00 
   153.31     14.39   5910.16     -0.11     18.51      0.00 
   153.32     14.40   5908.31     -0.09     16.66      4.00 
   153.33     14.41   5908.31     -0.06     16.66      4.00 
   153.34     14.44   5912.01     -0.02     20.36      9.00 
   153.35     14.44   5910.16     -0.03     12.03     10.00 
   153.36     14.43   5908.31     -0.07     16.66      4.00 
   153.37     14.43   5912.01     -0.05     20.36      9.00 
   153.38     14.42   5910.16     -0.06     18.51      0.00 
   153.39     14.41   5912.01     -0.06     12.96      0.00 
   153.40     14.43   5912.01     -0.03     20.36      4.00 
   153.41     14.42   5910.16     -0.04     12.03      0.00 
   153.42     14.42   5910.16     -0.04     12.03      4.00 
   153.43     14.41   5912.01     -0.04     12.96      0.00 
   153.44     14.40   5912.93     -0.04     21.29      0.00 
   153.45     14.39   5914.79     -0.04     16.66      8.00 
   153.46     14.39   5910.16     -0.04     12.03      4.00 
   153.47     14.41   5914.79     -0.02     15.74      0.00 
   153.48     14.41   5914.79     -0.03     16.66      0.00 
   153.49     14.41   5915.71     -0.04     17.59      3.00 
   153.50     14.42   5914.79     -0.03     16.66      0.00 
   153.51     14.42   5918.49     -0.04     12.03      0.00 
   153.52     14.41   5912.93     -0.03     14.81      3.00 
   153.53     14.42   5915.71     -0.02     17.59      0.00 
   153.54     14.42   5919.41     -0.01     20.36      3.00 
   153.55     14.42   5914.79     -0.02     10.18     10.00 
   153.56     14.42   5914.79     -0.02     16.66      3.00 
   153.57     14.43   5910.16     -0.01      5.55      3.00 
   153.58     14.43   5912.93     -0.03      8.33      3.00 
   153.59     14.43   5910.16     -0.04     11.11      0.00 
   153.60     14.43   5919.41     -0.03     21.29      3.00 
   153.61     14.41   5922.19     -0.06     17.59      0.00 
   153.62     14.41   5924.04     -0.04     19.44      3.00 
   153.63     14.41   5922.19     -0.04     23.14      3.00 
   153.64     14.41   5919.41     -0.04     14.81      6.00 
   153.65     14.41   5922.19     -0.03     24.07      0.00 
   153.66     14.40   5919.41     -0.04     14.81      3.00 
   153.67     14.41   5919.41     -0.02     14.81      0.00 
   153.68     14.41   5919.41     -0.01     14.81      3.00 
   153.69     14.41   5915.71     -0.02     17.59      0.00 
   153.70     14.42   5919.41     -0.00     12.96      3.00 
   153.71     14.42   5915.71     -0.01     17.59      7.00 
   153.72     14.43   5918.49     -0.00     13.88     12.00 
   153.73     14.42   5915.71     -0.01     16.66      7.00 
   153.74     14.43   5915.71     -0.03     11.11      3.00 
   153.75     14.43   5915.71     -0.01     11.11     11.00 
   153.76     14.42   5918.49     -0.03     20.36      4.00 
   153.77     14.43   5912.01     -0.02      5.55      4.00 
   153.78     14.43   5916.64     -0.02     18.51      4.00 
   153.79     14.42   5914.79     -0.03     10.18      0.00 
   153.80     14.42   5910.16     -0.02     11.11      8.00 
   153.81     14.41   5915.71     -0.02     11.11      2.00 
   153.82     14.42   5913.86     -0.02     15.74      2.00 
   153.83     14.42   5914.79     -0.02     15.74      1.00 
   153.84     14.40   5913.86     -0.03      9.26      7.00 
   153.85     14.40   5912.93     -0.05     14.81      2.00 
   153.86     14.40   5912.93     -0.04      6.48      2.00 
   153.87     14.40   5912.93     -0.05     14.81      2.00 
   153.88     14.40   5912.93     -0.06     21.29      2.00 
   153.89     14.40   5912.93     -0.05      8.33      2.00 
   153.90     14.40   5912.93     -0.03     14.81      2.00 
   153.91     14.40   5912.93     -0.02     13.88      2.00 
   153.92     14.40   5912.93     -0.02      8.33      2.00 
   153.93     14.40   5912.93     -0.02     14.81      2.00 
   153.94     14.40   5912.93     -0.02      8.33      2.00 
   153.95     14.40   5912.93     -0.03     14.81      2.00 
   153.96     14.40   5912.93     -0.04     13.88      2.00 
   153.97     14.40   5912.93     -0.04      8.33      2.00 
   153.98     14.40   5912.93     -0.06     14.81      2.00 
   153.99     14.40   5912.93     -0.05     14.81      2.00 
   154.00     14.40   5912.93     -0.03      8.33      2.00 
   154.01     14.40   5912.93     -0.02     13.88      2.00 
   154.02     14.40   5912.93     -0.03     14.81      2.00 
   154.03     14.40   5912.93     -0.02     10.18      2.00 
   154.04     14.40   5912.93     -0.02     10.18      2.00 
   154.05     14.40   5912.93     -0.02     15.74      2.00 
   154.06     14.40   5912.93     -0.01     10.18      2.00 
   154.07     14.40   5912.93     -0.02     10.18      2.00 
   154.08     14.40   5912.93     -0.03     11.11      2.00 
   154.09     14.40   5912.93     -0.04     12.03      2.00 
   154.10     14.40   5912.93     -0.04     12.03      2.00 
