#Written by Robertson Geologging WinLogger V1.0/370
~VERSION INFORMATION
#------------------------------------------------------------------------------
 VERS. 2.0 : CWLS LOG ASCII STANDARD - VERSION 2.0
 WRAP. NO  : ONE LINE PER DEPTH STEP
~WELL INFORMATION
#MNEM.UNIT         DATA                                DESCRIPTION OF MNEMONIC
#------------------------------------------------------------------------------
 STRT.M         50.0700                            :   START DEPTH
 STOP.M        138.5000                            :   STOP DEPTH
 STEP.M          0.0100                            :   STEP VALUE
 NULL.        -999.2500                            :   NULL VALUE
 COMP.    White Young Green                        :   COMPANY NAME
 WELL.    Lumley 6 Pit                             :   WELL NAME
 FLD.     lumley                                   :   FIELD NAME
 LOC.     N/A                                      :   LOCATION
 PROV.    N/A                                      :   PROVINCE
 SRVC.    N/A                                      :   SERVICE COMPANY NAME
 DATE.    06 Oct 05                                :   DATE
 UWI.     N/A                                      :   UNIQUE WELL IDENTIFIER
~PARAMETER INFORMATION
#MNEMO.UNIT         VALUE                 DESCRIPTION OF MNEMONIC
#------------------------------------------------------------------------------
~OTHER INFORMATION SECTION
#------------------------------------------------------------------------------
 TCGS1365
 Hole finnished 133 .Probe would not penatrate crust as seen on CCTV
~CURVE INFORMATION
#MNEMO.UNIT         API CODE              CURVE DESCRIPTION
#------------------------------------------------------------------------------
 DEPTH.M                                 :   0     Depth
 TEMP.DegC                               :   1     Temperature
 CN25.mS/cm                              :   2     Conductivity@25DegC
 COND.mS/cm                              :   3     Conductivity
 DELT.DegC                               :   4     Delta T
 DELC.mS/cm                              :   5     Delta C
 NGAM.CPS                                :   6     Natural Gamma
#------------------------------------------------------------------------------
~A  DEPTH     TEMP      CN25      COND      DELT      DELC      NGAM      
# ...
    61.37     11.42      9.67      2.05     -0.01      0.00      1.94 
    61.38     11.42      9.67      2.05     -0.01      0.00      1.94 
    61.39     11.42      9.67      2.05     -0.01      0.00      2.29 
    61.40     11.42      9.67      2.05     -0.00      0.00      2.29 
    61.41     11.42      9.67      2.05     -0.00      0.00      2.29 
    61.42     11.42      9.67      2.05     -0.00      0.00      1.88 
    61.43     11.42      9.67      2.05     -0.00      0.00      1.88 
    61.44     11.42      9.67      2.05     -0.00      0.00      1.88 
    61.45     11.42      9.67      2.05     -0.00      0.01      1.88 
    61.46     11.42      9.67      2.05     -0.00      0.00      1.88 
    61.47     11.42      9.67      2.05     -0.00      0.00      1.88 
    61.48     11.42      9.67      2.05     -0.00      0.00      1.88 
    61.49     11.42      9.67      2.05     -0.00      0.01      1.47 
    61.50     11.42      9.67      2.05     -0.01      0.01      1.47 
    61.51     11.42      9.67      2.05     -0.01      0.01      1.47 
    61.52     11.42      9.67      2.05     -0.01      0.01      1.47 
    61.53     11.42      9.67      2.05     -0.01      0.01      1.06 
    61.54     11.42      9.67      2.05     -0.01      0.01      1.06 
    61.55     11.42      9.67      2.05     -0.01      0.01      1.06 
    61.56     11.42      9.67      2.05     -0.01      0.01      1.06 
    61.57     11.42      9.67      2.05     -0.02      0.02      1.47 
    61.58     11.41      9.67      2.05     -0.02      0.02      1.12 
    61.59     11.41      9.67      2.05     -0.02      0.02      1.12 
    61.60     11.41      9.67      2.04     -0.01      0.01      0.76 
    61.61     11.41      9.67      2.05     -0.01      0.01      0.76 
    61.62     11.41      9.67      2.05     -0.01      0.01      0.76 
    61.63     11.42      9.67      2.05     -0.01      0.01      0.76 
    61.64     11.42      9.67      2.05     -0.00      0.00      0.76 
    61.65     11.42      9.67      2.05     -0.00      0.00      0.76 
    61.66     11.42      9.67      2.05     -0.00      0.00      0.76 
    61.67     11.42      9.67      2.05     -0.00     -0.00      0.76 
    61.68     11.42      9.67      2.05      0.00     -0.00      0.76 
    61.69     11.42      9.67      2.05      0.00     -0.00      0.76 
    61.70     11.42      9.67      2.05      0.00     -0.01      0.76 
    61.71     11.42      9.67      2.05      0.00     -0.00      1.18 
    61.72     11.42      9.67      2.05      0.00     -0.00      1.18 
    61.73     11.43      9.66      2.05      0.01     -0.01      0.82 
    61.74     11.43      9.66      2.05      0.00     -0.01      0.41 
    61.75     11.42      9.66      2.05      0.00     -0.00      0.41 
    61.76     11.42      9.66      2.05      0.00     -0.00      0.76 
    61.77     11.42      9.66      2.04     -0.00      0.00      0.76 
    61.78     11.42      9.67      2.05     -0.00      0.00      1.12 
    61.79     11.42      9.66      2.05     -0.00      0.00      1.12 
    61.80     11.42      9.66      2.05      0.00     -0.00      1.12 
    61.81     11.42      9.67      2.05      0.00     -0.00      1.12 
    61.82     11.42      9.67      2.05      0.00     -0.00      1.12 
    61.83     11.42      9.67      2.04     -0.00     -0.00      1.53 
    61.84     11.42      9.67      2.05     -0.00      0.00      1.53 
    61.85     11.42      9.67      2.05     -0.01      0.01      1.53 
    61.86     11.42      9.67      2.05     -0.01      0.01      1.53 
    61.87     11.42      9.67      2.05     -0.00      0.01      1.53 
    61.88     11.41      9.67      2.05     -0.00      0.00      1.12 
    61.89     11.41      9.67      2.04     -0.00      0.00      1.12 
    61.90     11.41      9.67      2.04     -0.00     -0.00      1.12 
    61.91     11.41      9.68      2.05     -0.00      0.01      1.12 
    61.92     11.41      9.68      2.05     -0.00      0.01      1.12 
    61.93     11.42      9.67      2.05     -0.00      0.00      0.76 
    61.94     11.42      9.67      2.05     -0.00      0.00      0.76 
    61.95     11.42      9.67      2.05      0.00      0.00      0.41 
    61.96     11.42      9.66      2.04      0.00     -0.01      0.82 
    61.97     11.42      9.66      2.04      0.01     -0.01      0.82 
    61.98     11.43      9.66      2.05      0.01     -0.01      0.82 
    61.99     11.43      9.66      2.05      0.01     -0.01      0.82 
    62.00     11.43      9.66      2.05      0.01     -0.01      0.76 
    62.01     11.43      9.66      2.05      0.01     -0.01      0.76 
    62.02     11.43      9.65      2.04      0.01     -0.01      0.76 
    62.03     11.43      9.65      2.05      0.01     -0.01      1.12 
    62.04     11.43      9.65      2.05      0.01     -0.01      1.12 
    62.05     11.43      9.65      2.05      0.01     -0.01      1.12 
    62.06     11.43      9.65      2.05      0.01     -0.01      1.12 
    62.07     11.43      9.66      2.05      0.01     -0.01      1.12 
    62.08     11.43      9.66      2.05      0.01     -0.01      1.12 
    62.09     11.43      9.65      2.05      0.01     -0.01      1.12 
    62.10     11.43      9.66      2.05      0.01     -0.01      1.12 
    62.11     11.43      9.66      2.05      0.00     -0.01      1.12 
    62.12     11.43      9.66      2.04      0.00     -0.00      1.12 
    62.13     11.42      9.67      2.05     -0.00      0.00      0.71 
    62.14     11.42      9.67      2.05     -0.00      0.01      1.12 
    62.15     11.42      9.67      2.05     -0.01      0.00      1.12 
    62.16     11.42      9.67      2.05     -0.01      0.00      1.12 
    62.17     11.42      9.67      2.05     -0.00      0.00      0.76 
    62.18     11.42      9.67      2.04     -0.00      0.00      0.76 
    62.19     11.42      9.67      2.05     -0.00      0.01      0.76 
    62.20     11.42      9.67      2.05     -0.00      0.01      0.41 
    62.21     11.42      9.67      2.05     -0.00      0.00      0.41 
    62.22     11.42      9.67      2.05     -0.00      0.00      0.82 
    62.23     11.42      9.67      2.05      0.00     -0.00      0.82 
    62.24     11.42      9.66      2.05      0.00     -0.01      0.82 
    62.25     11.42      9.66      2.05      0.01     -0.01      0.82 
    62.26     11.43      9.66      2.05      0.01     -0.01      1.18 
    62.27     11.43      9.66      2.05      0.01     -0.01      1.18 
    62.28     11.43      9.66      2.05      0.01     -0.01      1.18 
    62.29     11.43      9.66      2.05      0.01     -0.01      1.18 
    62.30     11.42      9.66      2.05      0.01     -0.01      1.18 
    62.31     11.42      9.66      2.05      0.01     -0.01      1.18 
    62.32     11.42      9.66      2.05      0.01     -0.01      1.18 
    62.33     11.42      9.66      2.05      0.01     -0.01      1.18 
    62.34     11.42      9.67      2.05      0.00     -0.00      1.18 
    62.35     11.42      9.67      2.05      0.00     -0.00      1.18 
    62.36     11.42      9.67      2.05      0.00      0.00      1.18 
    62.37     11.42      9.67      2.05      0.00      0.00      1.18 
    62.38     11.42      9.67      2.05      0.00      0.00      1.18 
    62.39     11.42      9.67      2.04      0.00     -0.01      0.76 
    62.40     11.42      9.67      2.05     -0.00      0.00      1.12 
    62.41     11.42      9.67      2.05     -0.00      0.00      1.12 
    62.42     11.42      9.67      2.05     -0.00      0.00      1.12 
    62.43     11.42      9.67      2.05     -0.00     -0.00      0.76 
    62.44     11.42      9.66      2.04      0.00     -0.00      0.76 
    62.45     11.42      9.66      2.05      0.00     -0.00      0.76 
    62.46     11.42      9.66      2.04      0.00     -0.01      0.76 
    62.47     11.43      9.66      2.05      0.01     -0.01      0.76 
    62.48     11.43      9.66      2.05      0.01     -0.01      0.35 
    62.49     11.43      9.66      2.05      0.01     -0.01      0.35 
