#Written by Robertson Geologging WinLogger V1.0/406
~VERSION INFORMATION
#------------------------------------------------------------------------------
 VERS. 2.0 : CWLS LOG ASCII STANDARD - VERSION 2.0
 WRAP. NO  : ONE LINE PER DEPTH STEP
~WELL INFORMATION
#MNEM.UNIT         DATA                                DESCRIPTION OF MNEMONIC
#------------------------------------------------------------------------------
 STRT.M         58.0600                            :   START DEPTH
 STOP.M        154.1000                            :   STOP DEPTH
 STEP.M          0.0100                            :   STEP VALUE
 NULL.        -999.2500                            :   NULL VALUE
 COMP.    Coal Authority                           :   COMPANY NAME
 WELL.    Lumley                                   :   WELL NAME
 FLD.     N/A                                      :   FIELD NAME
 LOC.     N/A                                      :   LOCATION
 PROV.    N/A                                      :   PROVINCE
 SRVC.    N/A                                      :   SERVICE COMPANY NAME
 DATE.    01 Oct 08                                :   DATE
 UWI.     N/A                                      :   UNIQUE WELL IDENTIFIER
~PARAMETER INFORMATION
#MNEMO.UNIT         VALUE                 DESCRIPTION OF MNEMONIC
#------------------------------------------------------------------------------
~OTHER INFORMATION SECTION
#------------------------------------------------------------------------------
 TCGS2822
~CURVE INFORMATION
#MNEMO.UNIT         API CODE              CURVE DESCRIPTION
#------------------------------------------------------------------------------
 DEPTH.M                                 :   0     Depth
 TEMP.DegC                               :   1     Temperature
 COND.uS/cm                              :   2     Conductivity
 DELT.DegC                               :   3     Delta T
 DELC.uS/cm                              :   4     Delta C
 NGAM.CPS                                :   5     Natural Gamma
#------------------------------------------------------------------------------
~A  DEPTH     TEMP      COND      DELT      DELC      NGAM      
# ...
    89.74     13.90   4752.65      0.04     12.84      0.00 
    89.75     13.89   4747.15      0.02     -5.51      0.00 
    89.76     13.91   4746.23      0.04      0.00      0.00 
    89.77     13.90   4747.15      0.01      0.00      0.00 
    89.78     13.90   4752.65      0.01      6.42      0.00 
    89.79     13.90   4747.15     -0.01      0.00      0.00 
    89.80     13.89   4746.23     -0.01      0.00      0.00 
    89.81     13.89   4747.15     -0.01      7.34      0.00 
    89.82     13.90   4752.65     -0.01      0.00      7.00 
    89.83     13.90   4747.15      0.00      0.92      0.00 
    89.84     13.91   4746.23      0.00      6.42      0.00 
    89.85     13.91   4747.15      0.00      0.92      8.00 
    89.86     13.93   4752.65      0.01      5.51      0.00 
    89.87     13.92   4747.15      0.02      0.92      0.00 
    89.88     13.92   4746.23      0.00     -0.92      7.00 
    89.89     13.92   4754.49     -0.00      8.26      8.00 
    89.90     13.93   4746.23      0.01     -0.92      0.00 
    89.91     13.93   4746.23      0.00      0.00      0.00 
    89.92     13.94   4754.49      0.02      7.34      0.00 
    89.93     13.93   4746.23      0.02      0.00      0.00 
    89.94     13.92   4747.15      0.01      0.00      0.00 
    89.95     13.92   4752.65      0.01      6.42      0.00 
    89.96     13.90   4746.23     -0.00     -0.92      7.00 
    89.97     13.91   4747.15     -0.01      0.92      0.00 
    89.98     13.90   4752.65     -0.03     12.84      0.00 
    89.99     13.89   4747.15     -0.02     -5.51      0.00 
    90.00     13.90   4746.23     -0.02      0.00      0.00 
    90.01     13.88   4754.49     -0.03      7.34      8.00 
    90.02     13.90   4746.23     -0.00      0.00      7.00 
    90.03     13.91   4746.23      0.01      0.00      0.00 
    90.04     13.91   4754.49      0.03      7.34      0.00 
    90.05     13.92   4746.23      0.03      0.00      0.00 
    90.06     13.92   4746.23      0.02     -0.92      0.00 
    90.07     13.93   4754.49      0.02      8.26      0.00 
    90.08     13.91   4746.23      0.00      0.00      0.00 
    90.09     13.90   4747.15      0.01      0.00      0.00 
    90.10     13.90   4752.65      0.02      0.00      0.00 
    90.11     13.88   4747.15     -0.02      0.00      0.00 
    90.12     13.90   4746.23     -0.00      0.00      0.00 
    90.13     13.91   4747.15     -0.00      0.92      8.00 
    90.14     13.90   4752.65     -0.00      5.51      0.00 
    90.15     13.90   4746.23      0.00     -6.42      7.00 
    90.16     13.88   4747.15      0.00      0.92      0.00 
    90.17     13.87   4752.65     -0.02      5.51      0.00 
    90.18     13.89   4747.15     -0.00      0.92      8.00 
    90.19     13.91   4746.23      0.02     -6.42      0.00 
    90.20     13.92   4754.49      0.03      7.34      0.00 
    90.21     13.93   4746.23      0.04      0.00      0.00 
    90.22     13.91   4747.15      0.00      0.92      0.00 
    90.23     13.91   4746.23      0.00     -0.92      0.00 
    90.24     13.89   4754.49     -0.03      1.84      0.00 
    90.25     13.89   4746.23     -0.03      0.00      0.00 
    90.26     13.91   4747.15     -0.00      0.00      0.00 
    90.27     13.91   4746.23     -0.01      0.00      0.00 
    90.28     13.91   4754.49      0.01      1.84      0.00 
    90.29     13.89   4739.81      0.00     -7.34      0.00 
    90.30     13.89   4747.15      0.00      0.92      0.00 
    90.31     13.89   4746.23      0.00     -0.92      7.00 
    90.32     13.91   4752.65      0.01      0.00      0.00 
    90.33     13.91   4747.15      0.00      7.34     16.00 
    90.34     13.92   4746.23      0.01     -0.92      0.00 
    90.35     13.93   4752.65      0.03      6.42      7.00 
    90.36     13.90   4747.15      0.01      0.00      0.00 
    90.37     13.90   4746.23      0.02     -6.42      0.00 
    90.38     13.89   4746.23     -0.00      0.00      0.00 
    90.39     13.87   4754.49     -0.03      7.34      0.00 
    90.40     13.89   4746.23     -0.03     -6.42      0.00 
    90.41     13.89   4746.23     -0.03      0.00      0.00 
    90.42     13.89   4747.15     -0.02      0.00      0.00 
    90.43     13.89   4752.65      0.00      6.42      0.00 
    90.44     13.91   4747.15      0.03     -5.51      0.00 
    90.45     13.90   4746.23      0.03     -0.92      0.00 
    90.46     13.88   4752.65      0.02      6.42      0.00 
    90.47     13.88   4747.15     -0.00     -5.51      0.00 
    90.48     13.88   4746.23     -0.02     -0.92      0.00 
    90.49     13.90   4746.23     -0.01      0.00      0.00 
    90.50     13.93   4754.49      0.02      7.34      8.00 
    90.51     13.94   4746.23      0.03     -6.42      0.00 
    90.52     13.93   4747.15      0.03      0.92      0.00 
    90.53     13.94   4752.65      0.04      5.51      0.00 
    90.54     13.93   4746.23      0.02     -6.42      0.00 
    90.55     13.91   4747.15      0.02      0.00      0.00 
    90.56     13.90   4746.23     -0.00      0.00      0.00 
    90.57     13.87   4754.49     -0.03      7.34      0.00 
    90.58     13.86   4746.23     -0.03     -6.42      7.00 
    90.59     13.87   4746.23     -0.04      0.00      0.00 
    90.60     13.89   4754.49     -0.01      7.34      0.00 
    90.61     13.92   4746.23      0.01      0.00      0.00 
    90.62     13.91   4747.15     -0.00     -7.34      8.00 
    90.63     13.92   4752.65      0.01      6.42      0.00 
    90.64     13.92   4747.15      0.01      0.00      0.00 
    90.65     13.89   4746.23     -0.02      0.00      0.00 
    90.66     13.90   4752.65     -0.01     -1.84      0.00 
    90.67     13.90   4747.15     -0.00      0.92      0.00 
    90.68     13.91   4746.23     -0.00     -0.92      0.00 
    90.69     13.93   4747.15      0.04      0.92      0.00 
    90.70     13.92   4752.65      0.02     -1.84      0.00 
    90.71     13.91   4747.15      0.01      0.92      0.00 
    90.72     13.90   4746.23      0.00     -0.92      0.00 
    90.73     13.91   4754.49      0.01      1.84      0.00 
    90.74     13.91   4746.23      0.01     -0.92      0.00 
    90.75     13.91   4746.23      0.00      0.00      0.00 
    90.76     13.90   4754.49      0.00      7.34      0.00 
    90.77     13.88   4746.23     -0.02     -6.42      0.00 
    90.78     13.90   4747.15      0.00      0.00      8.00 
    90.79     13.89   4752.65     -0.00      6.42      0.00 
    90.80     13.89   4746.23      0.00     -0.92      0.00 
    90.81     13.91   4754.49      0.01      1.84      0.00 
    90.82     13.90   4746.23      0.00     -0.92      0.00 
    90.83     13.90   4747.15     -0.00      0.92      0.00 
    90.84     13.90   4752.65     -0.01      5.51      0.00 
    90.85     13.90   4747.15     -0.03     -5.51      0.00 
    90.86     13.92   4746.23     -0.00     -0.92      0.00 
    90.87     13.92   4754.49      0.00      8.26      0.00 
    90.88     13.91   4746.23     -0.00     -8.26      7.00 
    90.89     13.90   4747.15     -0.03      0.92      0.00 
    90.90     13.88   4752.65     -0.05      6.42      0.00 
    90.91     13.88   4747.15     -0.06     -7.34      0.00 
    90.92     13.89   4752.65     -0.04      6.42      0.00 
    90.93     13.90   4747.15     -0.02      0.00      0.00 
    90.94     13.87   4746.23     -0.05     -6.42      0.00 
    90.95     13.89   4752.65     -0.01      6.42      0.00 
    90.96     13.89   4747.15     -0.01      0.00      0.00 
    90.97     13.90   4752.65      0.00      0.00      0.00 
    90.98     13.92   4747.15      0.03      0.00      8.00 
    90.99     13.90   4746.23      0.00      0.00      0.00 
    91.00     13.91   4754.49      0.02      0.00      0.00 
    91.01     13.88   4746.23     -0.02      0.00      0.00 
    91.02     13.90   4747.15     -0.01      0.92      8.00 
    91.03     13.90   4752.65     -0.01     -1.84      0.00 
    91.04     13.89   4746.23     -0.03      0.00      0.00 
    91.05     13.91   4754.49     -0.00      8.26      0.00 
