#Written by Robertson Geologging WinLogger V1.0/406
~VERSION INFORMATION
#------------------------------------------------------------------------------
 VERS. 2.0 : CWLS LOG ASCII STANDARD - VERSION 2.0
 WRAP. NO  : ONE LINE PER DEPTH STEP
~WELL INFORMATION
#MNEM.UNIT         DATA                                DESCRIPTION OF MNEMONIC
#------------------------------------------------------------------------------
 STRT.M         58.0600                            :   START DEPTH
 STOP.M        154.1000                            :   STOP DEPTH
 STEP.M          0.0100                            :   STEP VALUE
 NULL.        -999.2500                            :   NULL VALUE
 COMP.    Coal Authority                           :   COMPANY NAME
 WELL.    Lumley                                   :   WELL NAME
 FLD.     N/A                                      :   FIELD NAME
 LOC.     N/A                                      :   LOCATION
 PROV.    N/A                                      :   PROVINCE
 SRVC.    N/A                                      :   SERVICE COMPANY NAME
 DATE.    01 Oct 08                                :   DATE
 UWI.     N/A                                      :   UNIQUE WELL IDENTIFIER
~PARAMETER INFORMATION
#MNEMO.UNIT         VALUE                 DESCRIPTION OF MNEMONIC
#------------------------------------------------------------------------------
~OTHER INFORMATION SECTION
#------------------------------------------------------------------------------
 TCGS2822
~CURVE INFORMATION
#MNEMO.UNIT         API CODE              CURVE DESCRIPTION
#------------------------------------------------------------------------------
 DEPTH.M                                 :   0     Depth
 TEMP.DegC                               :   1     Temperature
 COND.uS/cm                              :   2     Conductivity
 DELT.DegC                               :   3     Delta T
 DELC.uS/cm                              :   4     Delta C
 NGAM.CPS                                :   5     Natural Gamma
#------------------------------------------------------------------------------
~A  DEPTH     TEMP      COND      DELT      DELC      NGAM      
# ...
   146.50     14.29   5818.55     -0.04    -39.78      7.00 
   146.51     14.29   5813.93     -0.04    -46.26      0.00 
   146.52     14.29   5818.55     -0.02    -46.26      7.00 
   146.53     14.27   5818.55     -0.06    -33.30      0.00 
   146.54     14.25   5818.55     -0.07    -41.63      0.00 
   146.55     14.26   5822.25     -0.06    -29.60      0.00 
   146.56     14.25   5825.03     -0.07    -26.83      7.00 
   146.57     14.28   5818.55     -0.05    -34.23      0.00 
   146.58     14.30   5825.03     -0.04    -26.83      0.00 
   146.59     14.30   5829.65     -0.06    -22.20      0.00 
   146.60     14.29   5825.03     -0.06    -27.75      7.00 
   146.61     14.27   5831.50     -0.06    -13.88      0.00 
   146.62     14.27   5829.65     -0.06    -15.73      8.00 
   146.63     14.28   5831.50     -0.07    -21.28      0.00 
   146.64     14.29   5831.50     -0.07    -13.88      0.00 
   146.65     14.30   5825.03     -0.06    -20.35      7.00 
   146.66     14.27   5831.50     -0.10     -6.48      0.00 
   146.67     14.25   5831.50     -0.10    -13.88      7.00 
   146.68     14.24   5831.50     -0.10     -6.48     14.00 
   146.69     14.23   5829.65     -0.11    -15.73      0.00 
   146.70     14.24   5831.50     -0.10     -5.55     14.00 
   146.71     14.24   5831.50     -0.08    -13.88     14.00 
   146.72     14.23   5829.65     -0.09     -8.33      0.00 
   146.73     14.24   5831.50     -0.10     -5.55      0.00 
   146.74     14.25   5831.50     -0.08    -13.88      7.00 
   146.75     14.26   5829.65     -0.09     -8.33      8.00 
   146.76     14.26   5831.50     -0.06     -6.48     21.00 
   146.77     14.27   5837.05     -0.02     -0.93      0.00 
   146.78     14.27   5825.03     -0.04    -12.03     14.00 
   146.79     14.27   5831.50     -0.03      0.00      7.00 
   146.80     14.27   5845.38     -0.03      7.40      0.00 
   146.81     14.28   5831.50     -0.03     -6.48      7.00 
   146.82     14.27   5831.50     -0.03      0.00     14.00 
   146.83     14.27   5831.50     -0.03      1.85      0.00 
   146.84     14.26   5837.05     -0.06     -0.93      0.00 
   146.85     14.25   5831.50     -0.07     -6.48      0.00 
   146.86     14.27   5825.03     -0.04     -6.48      0.00 
   146.87     14.26   5831.50     -0.03     -5.55      0.00 
   146.88     14.27   5829.65     -0.00     -1.85      0.00 
   146.89     14.26   5825.03     -0.03     -6.48      7.00 
   146.90     14.25   5831.50     -0.06      0.00      0.00 
   146.91     14.26   5831.50     -0.07      0.00     21.00 
   146.92     14.25   5829.65     -0.08      4.63      8.00 
   146.93     14.26   5831.50     -0.06      1.85      0.00 
   146.94     14.25   5831.50     -0.06     12.95      7.00 
   146.95     14.23   5831.50     -0.06      6.48      0.00 
   146.96     14.22   5831.50     -0.07     12.95     28.00 
   146.97     14.23   5829.65     -0.06     11.10      8.00 
   146.98     14.26   5831.50     -0.05     17.58     14.00 
   146.99     14.27   5831.50     -0.06     12.95      0.00 
   147.00     14.28   5831.50     -0.02     12.95     14.00 
   147.01     14.27   5831.50     -0.02     12.95     14.00 
   147.02     14.26   5831.50     -0.03     12.95      7.00 
   147.03     14.25   5829.65     -0.03     11.10     16.00 
   147.04     14.26   5831.50     -0.03     12.95      0.00 
   147.05     14.27   5837.98     -0.02     24.05      7.00 
   147.06     14.27   5831.50     -0.02     12.95      0.00 
   147.07     14.27   5831.50     -0.01     19.43      7.00 
   147.08     14.26   5831.50     -0.02     12.95     14.00 
   147.09     14.26   5829.65     -0.03     11.10      8.00 
   147.10     14.26   5831.50     -0.02     17.58      7.00 
   147.11     14.25   5831.50     -0.02     19.43      7.00 
   147.12     14.25   5831.50     -0.01     19.43     21.00 
   147.13     14.24   5837.98      0.00     25.90      7.00 
   147.14     14.26   5831.50      0.00     12.95      0.00 
   147.15     14.25   5831.50     -0.03     17.58     14.00 
   147.16     14.26   5831.50     -0.02     19.43      0.00 
   147.17     14.26   5831.50     -0.03     12.95      0.00 
   147.18     14.25   5837.05     -0.05     24.98     16.00 
   147.19     14.28   5831.50      0.00     17.58      7.00 
   147.20     14.28   5831.50     -0.01     19.43      7.00 
   147.21     14.28   5831.50     -0.00     12.95     28.00 
   147.22     14.27   5829.65      0.00     17.58      8.00 
   147.23     14.26   5837.98     -0.02     25.90     21.00 
   147.24     14.26   5831.50     -0.03     12.95      0.00 
   147.25     14.25   5831.50     -0.03     17.58      0.00 
   147.26     14.25   5831.50     -0.03     19.43      7.00 
   147.27     14.25   5837.05     -0.03     24.98      8.00 
   147.28     14.24   5831.50     -0.03     19.43      7.00 
   147.29     14.26   5831.50     -0.03      9.25     14.00 
   147.30     14.29   5831.50      0.00     19.43      7.00 
   147.31     14.29   5831.50      0.00     17.58     14.00 
   147.32     14.29   5837.05      0.00     24.98      8.00 
   147.33     14.29   5831.50      0.00     12.95      7.00 
   147.34     14.28   5831.50     -0.02     19.43     21.00 
   147.35     14.27   5831.50     -0.03     17.58      7.00 
   147.36     14.27   5837.98     -0.02     19.43      7.00 
   147.37     14.25   5831.50     -0.01     19.43      7.00 
   147.38     14.26   5829.65     -0.02     15.73      0.00 
   147.39     14.28   5837.98      0.00     19.43      0.00 
   147.40     14.26   5831.50     -0.01     19.43     14.00 
   147.41     14.26   5831.50     -0.03     12.95      0.00 
   147.42     14.26   5837.05     -0.02     23.13      8.00 
   147.43     14.25   5831.50     -0.02     12.95      0.00 
   147.44     14.27   5831.50      0.00     19.43     14.00 
   147.45     14.27   5831.50      0.02     12.95      7.00 
   147.46     14.28   5837.05      0.02     14.80     16.00 
   147.47     14.27   5831.50      0.01     19.43     28.00 
   147.48     14.27   5831.50     -0.01     12.95      0.00 
   147.49     14.27   5831.50     -0.02     12.95      0.00 
   147.50     14.27   5837.05     -0.01     23.13     33.00 
   147.51     14.28   5831.50     -0.00     12.95      0.00 
   147.52     14.27   5831.50      0.00     12.95      7.00 
   147.53     14.27   5837.05      0.02     18.50      8.00 
   147.54     14.27   5831.50      0.01      9.25      0.00 
   147.55     14.26   5831.50      0.01      6.48      7.00 
   147.56     14.27   5831.50     -0.01     12.95      0.00 
   147.57     14.26   5837.05     -0.04     12.03      0.00 
   147.58     14.25   5831.50     -0.04      1.85      7.00 
   147.59     14.27   5831.50     -0.02      6.48      7.00 
   147.60     14.27   5831.50      0.00      0.00      0.00 
   147.61     14.27   5837.05      0.00      7.40     16.00 
   147.62     14.28   5831.50      0.00      0.00      7.00 
   147.63     14.27   5825.03     -0.02     -6.48     14.00 
   147.64     14.27   5837.05     -0.02     12.03      0.00 
   147.65     14.28   5831.50      0.01      0.00      0.00 
   147.66     14.26   5831.50      0.01      0.00      0.00 
   147.67     14.28   5837.05      0.04      5.55     16.00 
   147.68     14.28   5831.50      0.05      1.85     14.00 
   147.69     14.28   5831.50      0.04      0.00      0.00 
   147.70     14.29   5829.65      0.05     -1.85      0.00 
   147.71     14.28   5837.98      0.04      8.33     14.00 
   147.72     14.28   5831.50      0.04      0.00      0.00 
   147.73     14.28   5829.65      0.03     -1.85      0.00 
   147.74     14.28   5837.98      0.02      8.33      0.00 
   147.75     14.27   5831.50      0.01      0.00      7.00 
   147.76     14.27   5831.50      0.00     -5.55      0.00 
   147.77     14.27   5829.65      0.00      4.63      0.00 
   147.78     14.26   5837.98     -0.01      6.48      0.00 
   147.79     14.26   5831.50     -0.01    -13.88      0.00 
   147.80     14.26   5831.50     -0.02      0.00      7.00 
   147.81     14.27   5829.65     -0.00     -1.85      0.00 
