#Written by Robertson Geologging WinLogger V1.0/370
~VERSION INFORMATION
#------------------------------------------------------------------------------
 VERS. 2.0 : CWLS LOG ASCII STANDARD - VERSION 2.0
 WRAP. NO  : ONE LINE PER DEPTH STEP
~WELL INFORMATION
#MNEM.UNIT         DATA                                DESCRIPTION OF MNEMONIC
#------------------------------------------------------------------------------
 STRT.M         50.0700                            :   START DEPTH
 STOP.M        138.5000                            :   STOP DEPTH
 STEP.M          0.0100                            :   STEP VALUE
 NULL.        -999.2500                            :   NULL VALUE
 COMP.    White Young Green                        :   COMPANY NAME
 WELL.    Lumley 6 Pit                             :   WELL NAME
 FLD.     lumley                                   :   FIELD NAME
 LOC.     N/A                                      :   LOCATION
 PROV.    N/A                                      :   PROVINCE
 SRVC.    N/A                                      :   SERVICE COMPANY NAME
 DATE.    06 Oct 05                                :   DATE
 UWI.     N/A                                      :   UNIQUE WELL IDENTIFIER
~PARAMETER INFORMATION
#MNEMO.UNIT         VALUE                 DESCRIPTION OF MNEMONIC
#------------------------------------------------------------------------------
~OTHER INFORMATION SECTION
#------------------------------------------------------------------------------
 TCGS1365
 Hole finnished 133 .Probe would not penatrate crust as seen on CCTV
~CURVE INFORMATION
#MNEMO.UNIT         API CODE              CURVE DESCRIPTION
#------------------------------------------------------------------------------
 DEPTH.M                                 :   0     Depth
 TEMP.DegC                               :   1     Temperature
 CN25.mS/cm                              :   2     Conductivity@25DegC
 COND.mS/cm                              :   3     Conductivity
 DELT.DegC                               :   4     Delta T
 DELC.mS/cm                              :   5     Delta C
 NGAM.CPS                                :   6     Natural Gamma
#------------------------------------------------------------------------------
~A  DEPTH     TEMP      CN25      COND      DELT      DELC      NGAM      
# ...
   102.05     14.23     11.08      5.51     -0.00      0.02      2.00 
   102.06     14.23     11.08      5.51     -0.00      0.02      2.00 
   102.07     14.24     11.09      5.52      0.00      0.03      2.00 
   102.08     14.24     11.09      5.52      0.00      0.02      2.00 
   102.09     14.24     11.08      5.52      0.00      0.02      2.00 
   102.10     14.24     11.08      5.52      0.01      0.01      2.00 
   102.11     14.24     11.08      5.52      0.01      0.01      2.00 
   102.12     14.24     11.08      5.52      0.01      0.01      2.00 
   102.13     14.24     11.08      5.52      0.01      0.01      2.35 
   102.14     14.24     11.09      5.52      0.01      0.02      2.35 
   102.15     14.24     11.09      5.52      0.01      0.01      2.35 
   102.16     14.24     11.08      5.51      0.01      0.01      2.35 
   102.17     14.23     11.08      5.51      0.01      0.01      1.94 
   102.18     14.23     11.09      5.51      0.01      0.01      1.53 
   102.19     14.23     11.09      5.51      0.00      0.02      1.53 
   102.20     14.23     11.09      5.51      0.00      0.02      1.94 
   102.21     14.23     11.10      5.52     -0.00      0.02      1.94 
   102.22     14.23     11.10      5.52     -0.00      0.03      1.94 
   102.23     14.23     11.10      5.52     -0.00      0.03      1.53 
   102.24     14.23     11.10      5.52     -0.00      0.03      1.59 
   102.25     14.23     11.09      5.52     -0.00      0.02      1.18 
   102.26     14.23     11.09      5.51     -0.00      0.02      1.18 
   102.27     14.23     11.10      5.52     -0.00      0.03      1.18 
   102.28     14.23     11.10      5.52     -0.00      0.03      1.18 
   102.29     14.23     11.10      5.52     -0.00      0.03      1.59 
   102.30     14.23     11.10      5.52     -0.00      0.03      1.24 
   102.31     14.23     11.10      5.52     -0.01      0.03      1.59 
   102.32     14.23     11.10      5.52     -0.01      0.03      1.59 
   102.33     14.23     11.10      5.52     -0.01      0.03      2.00 
   102.34     14.22     11.10      5.52     -0.01      0.03      2.00 
   102.35     14.22     11.10      5.52     -0.01      0.04      2.35 
   102.36     14.22     11.10      5.52     -0.01      0.04      2.35 
   102.37     14.22     11.10      5.52     -0.01      0.04      2.35 
   102.38     14.22     11.11      5.52     -0.01      0.04      2.35 
   102.39     14.22     11.11      5.52     -0.01      0.04      2.35 
   102.40     14.22     11.10      5.52     -0.01      0.03      2.35 
   102.41     14.22     11.11      5.52     -0.01      0.03      1.94 
   102.42     14.22     11.11      5.52     -0.01      0.03      1.94 
   102.43     14.22     11.11      5.52     -0.00      0.02      2.35 
   102.44     14.22     11.11      5.52     -0.00      0.03      2.35 
   102.45     14.22     11.11      5.52     -0.00      0.03      2.76 
   102.46     14.22     11.11      5.52     -0.01      0.02      2.35 
   102.47     14.22     11.11      5.52     -0.01      0.03      2.35 
   102.48     14.21     11.12      5.52     -0.01      0.03      2.41 
   102.49     14.22     11.11      5.52     -0.01      0.03      2.82 
   102.50     14.22     11.12      5.52     -0.01      0.04      2.41 
   102.51     14.21     11.12      5.52     -0.01      0.04      2.41 
   102.52     14.21     11.12      5.52     -0.01      0.04      2.47 
   102.53     14.21     11.12      5.52     -0.02      0.04      2.47 
   102.54     14.21     11.12      5.52     -0.02      0.04      2.06 
   102.55     14.21     11.12      5.52     -0.02      0.04      2.06 
   102.56     14.21     11.12      5.52     -0.02      0.04      2.06 
   102.57     14.21     11.12      5.52     -0.02      0.04      2.06 
   102.58     14.21     11.13      5.53     -0.01      0.04      2.06 
   102.59     14.21     11.13      5.52     -0.01      0.04      2.47 
   102.60     14.21     11.13      5.52     -0.01      0.04      2.06 
   102.61     14.21     11.13      5.52     -0.01      0.03      2.47 
   102.62     14.21     11.13      5.52     -0.01      0.03      2.06 
   102.63     14.21     11.13      5.52     -0.01      0.03      2.06 
   102.64     14.21     11.12      5.52     -0.00      0.02      2.06 
   102.65     14.21     11.12      5.52     -0.00      0.02      1.65 
   102.66     14.22     11.12      5.53     -0.00      0.03      1.65 
   102.67     14.22     11.12      5.53      0.00      0.03      1.65 
   102.68     14.22     11.12      5.53      0.00      0.02      1.65 
   102.69     14.22     11.12      5.53      0.00      0.02      1.24 
   102.70     14.22     11.12      5.52      0.00      0.02      1.65 
   102.71     14.22     11.12      5.53      0.00      0.02      1.65 
   102.72     14.22     11.12      5.53      0.00      0.02      1.65 
   102.73     14.22     11.12      5.53     -0.00      0.03      1.65 
   102.74     14.22     11.12      5.53     -0.00      0.03      1.65 
   102.75     14.22     11.12      5.53     -0.01      0.03      1.65 
   102.76     14.22     11.12      5.53     -0.01      0.03      1.24 
   102.77     14.22     11.13      5.53     -0.01      0.03      1.24 
   102.78     14.22     11.12      5.53     -0.01      0.03      1.18 
   102.79     14.22     11.12      5.53     -0.01      0.03      1.18 
   102.80     14.22     11.12      5.53     -0.01      0.03      1.18 
   102.81     14.22     11.12      5.53     -0.01      0.03      1.18 
   102.82     14.22     11.13      5.53     -0.01      0.03      1.18 
   102.83     14.22     11.12      5.53     -0.01      0.03      0.76 
   102.84     14.22     11.12      5.53     -0.01      0.03      0.76 
   102.85     14.22     11.12      5.53     -0.01      0.03      0.76 
   102.86     14.22     11.12      5.53     -0.01      0.03      0.76 
   102.87     14.22     11.13      5.53     -0.01      0.03      0.35 
   102.88     14.22     11.12      5.53     -0.01      0.03      0.76 
   102.89     14.22     11.12      5.53     -0.01      0.03      0.76 
   102.90     14.22     11.13      5.53     -0.01      0.03      0.76 
   102.91     14.22     11.12      5.53     -0.01      0.03      0.76 
   102.92     14.22     11.13      5.53     -0.01      0.03      0.76 
   102.93     14.22     11.13      5.53     -0.01      0.03      1.59 
   102.94     14.22     11.13      5.53     -0.01      0.03      2.00 
   102.95     14.21     11.13      5.53     -0.01      0.04      1.65 
   102.96     14.21     11.13      5.53     -0.01      0.03      1.65 
   102.97     14.21     11.13      5.53     -0.01      0.04      1.65 
   102.98     14.21     11.13      5.53     -0.01      0.03      1.65 
   102.99     14.21     11.13      5.53     -0.01      0.04      1.65 
   103.00     14.21     11.14      5.53     -0.02      0.04      1.65 
   103.01     14.21     11.14      5.53     -0.02      0.05      1.65 
   103.02     14.21     11.14      5.54     -0.02      0.05      2.06 
   103.03     14.21     11.14      5.53     -0.02      0.05      2.06 
   103.04     14.21     11.14      5.54     -0.02      0.05      2.06 
   103.05     14.21     11.13      5.54     -0.02      0.05      1.65 
   103.06     14.22     11.14      5.54     -0.02      0.05      1.65 
   103.07     14.21     11.13      5.53     -0.02      0.05      1.65 
   103.08     14.21     11.13      5.53     -0.02      0.05      2.06 
   103.09     14.22     11.13      5.54     -0.02      0.05      2.06 
   103.10     14.22     11.13      5.54     -0.02      0.05      1.24 
   103.11     14.22     11.14      5.54     -0.02      0.05      1.24 
   103.12     14.22     11.13      5.53     -0.02      0.05      1.24 
   103.13     14.22     11.13      5.54     -0.02      0.04      1.24 
   103.14     14.22     11.13      5.54     -0.01      0.04      1.24 
   103.15     14.22     11.12      5.53     -0.01      0.04      1.65 
   103.16     14.22     11.13      5.54     -0.01      0.04      2.06 
   103.17     14.22     11.13      5.53     -0.01      0.04      2.06 
