#Written by Robertson Geologging WinLogger V1.0/406
~VERSION INFORMATION
#------------------------------------------------------------------------------
 VERS. 2.0 : CWLS LOG ASCII STANDARD - VERSION 2.0
 WRAP. NO  : ONE LINE PER DEPTH STEP
~WELL INFORMATION
#MNEM.UNIT         DATA                                DESCRIPTION OF MNEMONIC
#------------------------------------------------------------------------------
 STRT.M         58.0600                            :   START DEPTH
 STOP.M        154.1000                            :   STOP DEPTH
 STEP.M          0.0100                            :   STEP VALUE
 NULL.        -999.2500                            :   NULL VALUE
 COMP.    Coal Authority                           :   COMPANY NAME
 WELL.    Lumley                                   :   WELL NAME
 FLD.     N/A                                      :   FIELD NAME
 LOC.     N/A                                      :   LOCATION
 PROV.    N/A                                      :   PROVINCE
 SRVC.    N/A                                      :   SERVICE COMPANY NAME
 DATE.    01 Oct 08                                :   DATE
 UWI.     N/A                                      :   UNIQUE WELL IDENTIFIER
~PARAMETER INFORMATION
#MNEMO.UNIT         VALUE                 DESCRIPTION OF MNEMONIC
#------------------------------------------------------------------------------
~OTHER INFORMATION SECTION
#------------------------------------------------------------------------------
 TCGS2822
~CURVE INFORMATION
#MNEMO.UNIT         API CODE              CURVE DESCRIPTION
#------------------------------------------------------------------------------
 DEPTH.M                                 :   0     Depth
 TEMP.DegC                               :   1     Temperature
 COND.uS/cm                              :   2     Conductivity
 DELT.DegC                               :   3     Delta T
 DELC.uS/cm                              :   4     Delta C
 NGAM.CPS                                :   5     Natural Gamma
#------------------------------------------------------------------------------
~A  DEPTH     TEMP      COND      DELT      DELC      NGAM      
# ...
   139.90     14.29   5818.55     -0.00      0.00      0.00 
   139.91     14.30   5825.03      0.00      6.48      0.00 
   139.92     14.29   5829.65      0.02     17.58      0.00 
   139.93     14.29   5825.03      0.01      2.78      0.00 
   139.94     14.29   5825.03      0.03     12.95      0.00 
   139.95     14.27   5818.55      0.01      0.00      0.00 
   139.96     14.27   5831.50     -0.00     12.95      0.00 
   139.97     14.27   5825.03      0.01      6.48      0.00 
   139.98     14.26   5822.25      0.00      8.32      8.00 
   139.99     14.27   5825.03      0.03      6.48      7.00 
   140.00     14.27   5825.03      0.02      6.48      0.00 
   140.01     14.27   5831.50     -0.01     12.95      0.00 
   140.02     14.27   5825.03     -0.02     11.10      0.00 
   140.03     14.28   5825.03     -0.01      6.48      7.00 
   140.04     14.29   5825.03      0.01      6.48      0.00 
   140.05     14.27   5825.03      0.02      2.78      0.00 
   140.06     14.28   5825.03      0.00      6.48      0.00 
   140.07     14.27   5829.65     -0.01     11.10      0.00 
   140.08     14.26   5825.03     -0.04     11.10      7.00 
   140.09     14.27   5825.03     -0.03      6.48      0.00 
   140.10     14.26   5831.50     -0.02     12.95      0.00 
   140.11     14.26   5813.93     -0.01     -4.62      0.00 
   140.12     14.28   5825.03      0.04      6.48      0.00 
   140.13     14.29   5831.50      0.04     17.58      0.00 
   140.14     14.28   5825.03      0.01      6.48      0.00 
   140.15     14.29   5825.03      0.02      6.48      0.00 
   140.16     14.28   5829.65      0.00     11.10      0.00 
   140.17     14.28   5825.03      0.00      6.48      0.00 
   140.18     14.29   5825.03      0.02      2.78     14.00 
   140.19     14.28   5831.50      0.01     12.95      0.00 
   140.20     14.28   5822.25      0.00      3.70      0.00 
   140.21     14.26   5831.50      0.01     17.58      0.00 
   140.22     14.27   5825.03      0.00      6.48      0.00 
   140.23     14.28   5825.03      0.01      6.48      0.00 
   140.24     14.28   5829.65      0.01      7.40      0.00 
   140.25     14.29   5825.03      0.01      6.48      0.00 
   140.26     14.29   5825.03      0.03      6.48      0.00 
   140.27     14.29   5831.50      0.01     12.95      0.00 
   140.28     14.29   5822.25      0.01      0.00      0.00 
   140.29     14.30   5825.03      0.02      6.48      7.00 
   140.30     14.30   5825.03      0.02      6.48      0.00 
   140.31     14.31   5829.65      0.05     11.10      0.00 
   140.32     14.30   5825.03      0.04      6.48      0.00 
   140.33     14.29   5825.03      0.02      2.78      0.00 
   140.34     14.27   5825.03     -0.01      6.48      7.00 
   140.35     14.28   5822.25     -0.01      3.70      8.00 
   140.36     14.28   5825.03     -0.00      6.48      0.00 
   140.37     14.29   5825.03      0.01      6.48      0.00 
   140.38     14.30   5825.03      0.04      0.00      0.00 
   140.39     14.29   5822.25      0.00      3.70      0.00 
   140.40     14.30   5825.03      0.02      2.78      0.00 
   140.41     14.30   5825.03      0.01      6.48      0.00 
   140.42     14.30   5825.03      0.00      0.00      0.00 
   140.43     14.30   5829.65      0.03     11.10      0.00 
   140.44     14.29   5825.03      0.02      2.78      0.00 
   140.45     14.28   5825.03      0.01      0.00      0.00 
   140.46     14.28   5825.03      0.04      0.00      0.00 
   140.47     14.27   5825.03      0.01      2.78      0.00 
   140.48     14.27   5822.25      0.01      3.70      0.00 
   140.49     14.27   5831.50      0.02      6.48      0.00 
   140.50     14.28   5825.03      0.01      2.78      0.00 
   140.51     14.29   5825.03      0.02      0.00      0.00 
   140.52     14.28   5825.03      0.01      6.48      0.00 
   140.53     14.28   5829.65     -0.01      0.00      0.00 
   140.54     14.27   5825.03     -0.00      6.48      0.00 
   140.55     14.29   5825.03      0.01      0.00      0.00 
   140.56     14.29   5825.03      0.01      2.78      0.00 
   140.57     14.30   5829.65      0.01      4.63      8.00 
   140.58     14.29   5825.03      0.00      0.00      0.00 
   140.59     14.27   5825.03     -0.02      0.00      0.00 
   140.60     14.27   5825.03     -0.03      2.78      0.00 
   140.61     14.27   5829.65     -0.03      4.63      0.00 
   140.62     14.29   5825.03     -0.01      0.00      0.00 
   140.63     14.30   5825.03     -0.00      2.78      0.00 
   140.64     14.29   5831.50     -0.01      6.48      0.00 
   140.65     14.28   5822.25     -0.02     -2.78      0.00 
   140.66     14.27   5831.50     -0.04      1.85      0.00 
   140.67     14.27   5825.03     -0.03      6.48      0.00 
   140.68     14.29   5829.65     -0.00      4.63      0.00 
   140.69     14.28   5825.03     -0.01      0.00      0.00 
   140.70     14.30   5825.03      0.01     -4.63      0.00 
   140.71     14.30   5829.65      0.02     11.10      0.00 
   140.72     14.29   5825.03      0.01      0.00      0.00 
   140.73     14.30   5831.50      0.02      6.48      0.00 
   140.74     14.30   5822.25      0.03     -2.78      8.00 
   140.75     14.28   5831.50      0.00      9.25      0.00 
   140.76     14.28   5825.03     -0.01      0.00      7.00 
   140.77     14.27   5829.65     -0.02      4.63      0.00 
   140.78     14.27   5825.03     -0.01      6.48      0.00 
   140.79     14.29   5829.65      0.01      4.63      0.00 
   140.80     14.29   5825.03      0.01      2.78      0.00 
   140.81     14.28   5825.03      0.01      0.00      0.00 
   140.82     14.28   5829.65      0.00     11.10      0.00 
   140.83     14.29   5831.50      0.02      6.48      0.00 
   140.84     14.31   5825.03      0.05      6.48      7.00 
   140.85     14.31   5829.65      0.04      7.40      0.00 
   140.86     14.30   5825.03      0.02      0.00      0.00 
   140.87     14.29   5825.03      0.00      0.00      0.00 
   140.88     14.28   5829.65     -0.01      4.63      8.00 
   140.89     14.28   5825.03     -0.01      6.48      0.00 
   140.90     14.30   5831.50     -0.00      6.48      0.00 
   140.91     14.31   5831.50      0.02      1.85      0.00 
   140.92     14.31   5825.03      0.02      0.00      0.00 
   140.93     14.30   5831.50      0.00      6.48      0.00 
   140.94     14.29   5825.03      0.01      6.48      0.00 
   140.95     14.28   5831.50      0.01      0.00      0.00 
   140.96     14.29   5829.65      0.02      4.63      0.00 
   140.97     14.29   5831.50      0.02      9.25      0.00 
   140.98     14.29   5825.03      0.02      0.00      0.00 
   140.99     14.30   5831.50      0.02      6.48      0.00 
   141.00     14.29   5831.50      0.01      0.00      0.00 
   141.01     14.29   5831.50      0.01      6.48      0.00 
   141.02     14.29   5829.65      0.01      4.63      0.00 
   141.03     14.29   5825.03      0.00      0.00      7.00 
   141.04     14.29   5831.50      0.01      6.48      0.00 
   141.05     14.29   5831.50      0.00      6.48      0.00 
   141.06     14.29   5831.50      0.02      1.85      0.00 
   141.07     14.28   5831.50      0.01      6.48      0.00 
   141.08     14.26   5831.50     -0.01      6.48      0.00 
   141.09     14.28   5829.65      0.02     -1.85      0.00 
   141.10     14.27   5831.50      0.01     17.58      0.00 
   141.11     14.28   5831.50      0.00      6.48      0.00 
   141.12     14.29   5831.50      0.00      0.00      0.00 
   141.13     14.28   5831.50      0.00      6.48     14.00 
   141.14     14.29   5831.50      0.00      6.48      0.00 
   141.15     14.30   5837.05      0.02      7.40      8.00 
   141.16     14.31   5831.50      0.02      6.48      0.00 
   141.17     14.30   5831.50      0.01      6.48      0.00 
   141.18     14.29   5831.50      0.01      0.00      0.00 
   141.19     14.28   5831.50      0.00      9.25      0.00 
   141.20     14.28   5831.50      0.01      0.00      0.00 
   141.21     14.28   5837.05      0.00     12.03      0.00 
