#Written by Robertson Geologging WinLogger V1.0/406
~VERSION INFORMATION
#------------------------------------------------------------------------------
 VERS. 2.0 : CWLS LOG ASCII STANDARD - VERSION 2.0
 WRAP. NO  : ONE LINE PER DEPTH STEP
~WELL INFORMATION
#MNEM.UNIT         DATA                                DESCRIPTION OF MNEMONIC
#------------------------------------------------------------------------------
 STRT.M         58.0600                            :   START DEPTH
 STOP.M        154.1000                            :   STOP DEPTH
 STEP.M          0.0100                            :   STEP VALUE
 NULL.        -999.2500                            :   NULL VALUE
 COMP.    Coal Authority                           :   COMPANY NAME
 WELL.    Lumley                                   :   WELL NAME
 FLD.     N/A                                      :   FIELD NAME
 LOC.     N/A                                      :   LOCATION
 PROV.    N/A                                      :   PROVINCE
 SRVC.    N/A                                      :   SERVICE COMPANY NAME
 DATE.    01 Oct 08                                :   DATE
 UWI.     N/A                                      :   UNIQUE WELL IDENTIFIER
~PARAMETER INFORMATION
#MNEMO.UNIT         VALUE                 DESCRIPTION OF MNEMONIC
#------------------------------------------------------------------------------
~OTHER INFORMATION SECTION
#------------------------------------------------------------------------------
 TCGS2822
~CURVE INFORMATION
#MNEMO.UNIT         API CODE              CURVE DESCRIPTION
#------------------------------------------------------------------------------
 DEPTH.M                                 :   0     Depth
 TEMP.DegC                               :   1     Temperature
 COND.uS/cm                              :   2     Conductivity
 DELT.DegC                               :   3     Delta T
 DELC.uS/cm                              :   4     Delta C
 NGAM.CPS                                :   5     Natural Gamma
#------------------------------------------------------------------------------
~A  DEPTH     TEMP      COND      DELT      DELC      NGAM      
# ...
    71.26     13.79   4433.74     -0.04    -23.80      0.00 
    71.27     13.78   4431.91     -0.04    -32.95      0.00 
    71.28     13.77   4425.51     -0.05    -32.04      0.00 
    71.29     13.77   4433.74     -0.04    -31.12      0.00 
    71.30     13.78   4431.91     -0.03    -25.63      0.00 
    71.31     13.79   4431.91     -0.03    -32.95      7.00 
    71.32     13.81   4426.42     -0.01    -31.12      0.00 
    71.33     13.79   4431.91     -0.02    -24.71      7.00 
    71.34     13.79   4426.42     -0.03    -38.45      0.00 
    71.35     13.77   4431.91     -0.03    -25.63      0.00 
    71.36     13.76   4433.74     -0.05    -22.88      0.00 
    71.37     13.76   4431.91     -0.04    -32.95      0.00 
    71.38     13.77   4426.42     -0.03    -31.12      0.00 
    71.39     13.79   4431.91     -0.01    -24.71      7.00 
    71.40     13.79   4433.74      0.00    -31.12      0.00 
    71.41     13.80   4431.91      0.01    -25.63      7.00 
    71.42     13.80   4433.74      0.01    -23.80      0.00 
    71.43     13.80   4431.91      0.02    -32.95      0.00 
    71.44     13.81   4431.91      0.02    -25.63      0.00 
    71.45     13.79   4426.42      0.00    -30.21      0.00 
    71.46     13.80   4431.91      0.00    -32.95      0.00 
    71.47     13.80   4433.74      0.00    -22.88      0.00 
    71.48     13.80   4431.91     -0.00    -25.63      0.00 
    71.49     13.81   4433.74      0.01    -31.12      8.00 
    71.50     13.79   4431.91      0.00    -25.63      7.00 
    71.51     13.78   4433.74      0.00    -23.80      0.00 
    71.52     13.79   4431.91     -0.01    -32.95      0.00 
    71.53     13.79   4433.74     -0.01    -23.80      0.00 
    71.54     13.80   4431.91      0.00    -25.63      0.00 
    71.55     13.79   4433.74     -0.02    -22.88      8.00 
    71.56     13.79   4438.32     -0.03    -26.55      0.00 
    71.57     13.78   4433.74     -0.03    -22.88      0.00 
    71.58     13.78   4438.32     -0.01    -19.22      0.00 
    71.59     13.78   4441.98     -0.01    -15.56      0.00 
    71.60     13.77   4438.32     -0.01    -26.55      0.00 
    71.61     13.79   4441.98     -0.00    -15.56      8.00 
    71.62     13.77   4438.32     -0.04    -18.31      0.00 
    71.63     13.79   4441.98     -0.02    -15.56      0.00 
    71.64     13.79   4444.73     -0.03    -12.82      0.00 
    71.65     13.78   4441.98     -0.04     -7.32      8.00 
    71.66     13.78   4444.73     -0.03    -12.82      0.00 
    71.67     13.78   4449.30     -0.02      4.58      0.00 
    71.68     13.79   4444.73     -0.00     -4.58      0.00 
    71.69     13.79   4444.73      0.00     -6.41      7.00 
    71.70     13.78   4449.30     -0.03      0.00      0.00 
    71.71     13.78   4444.73     -0.02      0.00      0.00 
    71.72     13.78   4444.73     -0.03      0.00      0.00 
    71.73     13.79   4449.30     -0.03      7.32      0.00 
    71.74     13.80   4451.14     -0.01      6.41      0.00 
    71.75     13.79   4444.73     -0.02     -4.58      0.00 
    71.76     13.78   4449.30     -0.01      4.58      0.00 
    71.77     13.77   4451.14     -0.03      9.15      0.00 
    71.78     13.76   4444.73     -0.03      0.00      0.00 
    71.79     13.76   4449.30     -0.03     17.39      0.00 
    71.80     13.77   4451.14     -0.05      9.15      0.00 
    71.81     13.78   4449.30     -0.04      4.58      0.00 
    71.82     13.78   4444.73     -0.04      6.41      0.00 
    71.83     13.78   4456.63     -0.03     14.65      0.00 
    71.84     13.77   4451.14     -0.03     12.82      7.00 
    71.85     13.77   4449.30     -0.03      7.32      8.00 
    71.86     13.77   4451.14     -0.03     12.82      0.00 
    71.87     13.76   4451.14     -0.05     12.82      7.00 
    71.88     13.78   4456.63     -0.03     14.65      0.00 
    71.89     13.76   4451.14     -0.05     12.82      0.00 
    71.90     13.76   4457.54     -0.05     15.56      0.00 
    71.91     13.79   4449.30     -0.02     10.98      0.00 
    71.92     13.77   4457.54     -0.04     23.80      0.00 
    71.93     13.79   4451.14     -0.02     12.82      0.00 
    71.94     13.80   4456.63     -0.01     22.88      0.00 
    71.95     13.78   4451.14     -0.03     12.82      0.00 
    71.96     13.79   4457.54     -0.02     19.22      0.00 
    71.97     13.80   4456.63      0.00     22.88      0.00 
    71.98     13.79   4451.14     -0.01     19.22      0.00 
    71.99     13.79   4457.54     -0.02     23.80      0.00 
    72.00     13.80   4456.63     -0.01     18.31      0.00 
    72.01     13.77   4457.54     -0.02     31.12      0.00 
    72.02     13.79   4457.54      0.01     19.22      0.00 
    72.03     13.80   4449.30      0.01     22.88      0.00 
    72.04     13.79   4457.54      0.00     25.63      0.00 
    72.05     13.79   4457.54     -0.02     23.80      0.00 
    72.06     13.78   4456.63     -0.02     31.12      8.00 
    72.07     13.77   4457.54     -0.01     31.12      0.00 
    72.08     13.78   4457.54     -0.01     25.63      0.00 
    72.09     13.79   4456.63     -0.00     31.12      8.00 
    72.10     13.79   4457.54     -0.01     31.12      0.00 
    72.11     13.80   4456.63     -0.01     31.12      8.00 
    72.12     13.80   4457.54     -0.00     31.12      7.00 
    72.13     13.80   4457.54      0.00     25.63      7.00 
    72.14     13.82   4456.63      0.02     30.21      0.00 
    72.15     13.81   4457.54      0.05     32.04     14.00 
    72.16     13.82   4457.54      0.04     31.12      7.00 
    72.17     13.82   4456.63      0.04     24.71      0.00 
    72.18     13.81   4457.54      0.02     31.12      0.00 
    72.19     13.81   4457.54      0.00     32.04      0.00 
    72.20     13.81   4456.63      0.02     22.88      0.00 
    72.21     13.81   4457.54      0.01     32.04      0.00 
    72.22     13.81   4456.63      0.02     24.71      0.00 
    72.23     13.81   4457.54      0.01     31.12      0.00 
    72.24     13.81   4456.63      0.01     24.71      0.00 
    72.25     13.81   4457.54      0.02     23.80      0.00 
    72.26     13.80   4464.87      0.01     32.95      0.00 
    72.27     13.80   4457.54      0.03     32.04      0.00 
    72.28     13.79   4456.63      0.02     22.88      0.00 
    72.29     13.80   4457.54      0.02     25.63      7.00 
    72.30     13.80   4456.63      0.01     24.71      0.00 
    72.31     13.80   4457.54     -0.00     31.12      0.00 
    72.32     13.79   4464.87      0.00     32.95      0.00 
    72.33     13.78   4457.54     -0.01     31.12      0.00 
    72.34     13.79   4456.63      0.01     24.71      0.00 
    72.35     13.78   4457.54      0.02     23.80      0.00 
    72.36     13.79   4456.63      0.03     24.71      0.00 
    72.37     13.81   4457.54      0.04     31.12      0.00 
    72.38     13.81   4456.63      0.02     24.71      0.00 
    72.39     13.81   4457.54      0.02     23.80      0.00 
    72.40     13.81   4457.54      0.01     25.63      0.00 
    72.41     13.82   4464.87      0.02     31.12      0.00 
    72.42     13.80   4457.54     -0.00     25.63      0.00 
    72.43     13.80   4456.63     -0.00     24.71      0.00 
    72.44     13.80   4457.54      0.00     31.12      0.00 
    72.45     13.78   4456.63     -0.02     24.71      0.00 
    72.46     13.78   4457.54     -0.02     23.80      0.00 
    72.47     13.77   4457.54     -0.02     25.63      0.00 
    72.48     13.79   4456.63     -0.02     22.88      0.00 
    72.49     13.79   4457.54      0.00     25.63      0.00 
    72.50     13.81   4456.63      0.03     22.88      0.00 
    72.51     13.80   4464.87      0.01     32.95      0.00 
    72.52     13.79   4456.63     -0.00     22.88      0.00 
    72.53     13.79   4457.54     -0.01     25.63      0.00 
    72.54     13.78   4457.54     -0.01     23.80      0.00 
    72.55     13.80   4456.63      0.01     18.31      0.00 
    72.56     13.81   4457.54      0.03     23.80      0.00 
    72.57     13.81   4456.63      0.03     18.31      0.00 
