#Written by Robertson Geologging WinLogger V1.0/370
~VERSION INFORMATION
#------------------------------------------------------------------------------
 VERS. 2.0 : CWLS LOG ASCII STANDARD - VERSION 2.0
 WRAP. NO  : ONE LINE PER DEPTH STEP
~WELL INFORMATION
#MNEM.UNIT         DATA                                DESCRIPTION OF MNEMONIC
#------------------------------------------------------------------------------
 STRT.M         50.0700                            :   START DEPTH
 STOP.M        138.5000                            :   STOP DEPTH
 STEP.M          0.0100                            :   STEP VALUE
 NULL.        -999.2500                            :   NULL VALUE
 COMP.    White Young Green                        :   COMPANY NAME
 WELL.    Lumley 6 Pit                             :   WELL NAME
 FLD.     lumley                                   :   FIELD NAME
 LOC.     N/A                                      :   LOCATION
 PROV.    N/A                                      :   PROVINCE
 SRVC.    N/A                                      :   SERVICE COMPANY NAME
 DATE.    06 Oct 05                                :   DATE
 UWI.     N/A                                      :   UNIQUE WELL IDENTIFIER
~PARAMETER INFORMATION
#MNEMO.UNIT         VALUE                 DESCRIPTION OF MNEMONIC
#------------------------------------------------------------------------------
~OTHER INFORMATION SECTION
#------------------------------------------------------------------------------
 TCGS1365
 Hole finnished 133 .Probe would not penatrate crust as seen on CCTV
~CURVE INFORMATION
#MNEMO.UNIT         API CODE              CURVE DESCRIPTION
#------------------------------------------------------------------------------
 DEPTH.M                                 :   0     Depth
 TEMP.DegC                               :   1     Temperature
 CN25.mS/cm                              :   2     Conductivity@25DegC
 COND.mS/cm                              :   3     Conductivity
 DELT.DegC                               :   4     Delta T
 DELC.mS/cm                              :   5     Delta C
 NGAM.CPS                                :   6     Natural Gamma
#------------------------------------------------------------------------------
~A  DEPTH     TEMP      CN25      COND      DELT      DELC      NGAM      
    50.07      0.00     15.89      0.00      0.00      0.00      0.00 
    50.08      0.00     15.89      0.00      0.00      0.00      0.00 
    50.09      0.00     15.89      0.00      0.00      0.00      0.00 
    50.10      0.00     15.89      0.00      0.00      0.00      0.00 
    50.11      0.00     15.89      0.00      0.00      0.00      0.00 
    50.12      0.00     15.89      0.00      0.00      0.00      0.00 
    50.13      0.00     15.89      0.00      0.00      0.00      0.00 
    50.14      0.00     15.89      0.00      0.00      0.00      0.00 
    50.15      0.00     15.89      0.00      0.00      0.00      0.00 
    50.16      0.00     15.89      0.00      0.00      0.00      0.00 
    50.17      0.00     15.89      0.00      0.00      0.00      0.00 
    50.18      0.00     15.89      0.00      0.00      0.00      0.00 
    50.19      0.00     15.89      0.00      0.00      0.00      0.00 
    50.20      0.00     15.89      0.00      0.00      0.00      0.00 
    50.21      0.00     15.89      0.00      0.00      0.00      0.00 
    50.22      0.00     15.89      0.00      0.00      0.00      0.00 
    50.23      0.00     15.89      0.00      0.00      0.00      0.00 
    50.24      0.00     15.89      0.00      0.00      0.00      0.00 
    50.25      0.00     15.89      0.00      0.00      0.00      0.00 
    50.26      0.00     15.89      0.00      0.00      0.00      0.00 
    50.27      0.00     15.89      0.00      0.00      0.00      0.00 
    50.28      0.00     15.89      0.00      0.00      0.00      0.00 
    50.29      0.00     15.89      0.00      0.00      0.00      0.00 
    50.30      0.00     15.89      0.00      0.00      0.00      0.00 
    50.31      0.00     15.89      0.00      0.00      0.00      0.00 
    50.32      0.00     15.89      0.00      0.00      0.00      0.00 
    50.33      0.00     15.89      0.00      0.00      0.00      0.00 
    50.34      0.00     15.89      0.00      0.00      0.00      0.00 
    50.35      0.00     15.89      0.00      0.00      0.00      0.00 
    50.36      0.00     15.89      0.00      0.00      0.00      0.00 
    50.37      0.00     15.89      0.00      0.00      0.00      0.00 
    50.38      0.00     15.89      0.00      0.00      0.00      0.00 
    50.39      0.00     15.89      0.00      0.00      0.00      0.00 
    50.40      0.00     15.89      0.00      0.00      0.00      0.00 
    50.41      0.00     15.89      0.00      0.00      0.00      0.00 
    50.42      0.00     15.89      0.00      0.00      0.00      0.00 
    50.43      0.00     15.89      0.00      0.00      0.00      0.00 
    50.44      0.00     15.89      0.00      0.00      0.00      0.00 
    50.45      0.00     15.89      0.00      0.00      0.00      0.00 
    50.46      0.00     15.89      0.00      0.00      0.00      0.00 
    50.47      0.00     15.89      0.00      0.00      0.00      0.00 
    50.48      0.00     15.89      0.00      0.00      0.00      0.00 
    50.49      0.00     15.89      0.00      0.00      0.00      0.00 
    50.50      0.00     15.89      0.00      0.00      0.00      0.00 
    50.51      0.00     15.89      0.00      0.00      0.00      0.00 
    50.52      0.00     15.89      0.00      0.00      0.00      0.00 
    50.53      0.00     15.89      0.00      0.00      0.00      0.00 
    50.54      0.00     15.89      0.00      0.00      0.00      0.00 
    50.55      0.00     15.89      0.00      0.00      0.00      0.00 
    50.56      0.00     15.89      0.00      0.00      0.00      0.00 
    50.57      0.00     15.89      0.00      0.00      0.00      0.00 
    50.58      0.00     15.89      0.00      0.00      0.00      0.00 
    50.59      0.00     15.89      0.00      0.00      0.00      0.00 
    50.60      0.00     15.89      0.00      0.00      0.00      0.00 
    50.61      0.00     15.89      0.00      0.00      0.00      0.00 
    50.62      0.00     15.89      0.00      0.00      0.00      0.00 
    50.63      0.00     15.89      0.00      0.00      0.00      0.00 
    50.64      0.00     15.89      0.00      0.00      0.00      0.00 
    50.65      0.00     15.89      0.00      0.00      0.00      0.00 
    50.66      0.00     15.89      0.00      0.00      0.00      0.00 
    50.67      0.00     15.89      0.00      0.00      0.00      0.00 
    50.68      0.00     15.89      0.00      0.00      0.00      0.00 
    50.69      0.00     15.89      0.00      0.00      0.00      0.00 
    50.70      0.00     15.89      0.00      0.00      0.00      0.00 
    50.71      0.00     15.89      0.00      0.00      0.00      0.00 
    50.72      0.00     15.89      0.00      0.00      0.00      0.00 
    50.73      0.00     15.89      0.00      0.00      0.00      0.00 
    50.74      0.00     15.89      0.00      0.00      0.00      0.00 
    50.75      0.00     15.89      0.00      0.00      0.00      0.00 
    50.76      0.00     15.89      0.00      0.00      0.00      0.00 
    50.77      0.00     15.89      0.00      0.00      0.00      0.00 
    50.78      0.00     15.89      0.00      0.00      0.00      0.00 
    50.79      0.00     15.89      0.00      0.00      0.00      0.00 
    50.80      0.00     15.89      0.00      0.00      0.00      0.00 
    50.81      0.00     15.89      0.00      0.00      0.00      0.00 
    50.82      0.00     15.89      0.00      0.00      0.00      0.00 
    50.83      0.00     15.89      0.00      0.00      0.00      0.00 
    50.84      0.00     15.89      0.00      0.00      0.00      0.00 
    50.85      0.00     15.89      0.00      0.00      0.00      0.00 
    50.86      0.00     15.89      0.00      0.00      0.00      0.00 
    50.87      0.00     15.89      0.00      0.00      0.00      0.00 
    50.88      0.00     15.89      0.00      0.00      0.00      0.00 
    50.89      0.00     15.89      0.00      0.00      0.00      0.00 
    50.90      0.00     15.89      0.00      0.00      0.00      0.00 
    50.91      0.00     15.89      0.00      0.00      0.00      0.00 
    50.92      0.00     15.89      0.00      0.00      0.00      0.00 
    50.93      0.00     15.89      0.00      0.00      0.00      0.00 
    50.94      0.00     15.89      0.00      0.00      0.00      0.00 
    50.95      0.00     15.89      0.00      0.00      0.00      0.00 
    50.96      0.00     15.89      0.00      0.00      0.00      0.00 
    50.97      0.00     15.89      0.00      0.00      0.00      0.00 
    50.98      0.00     15.89      0.00      0.00      0.00      0.00 
    50.99      0.00     15.89      0.00      0.00      0.00      0.00 
    51.00      0.00     15.89      0.00      0.00      0.00      0.00 
    51.01      0.00     15.89      0.00      0.00      0.00      0.00 
    51.02      0.00     15.89      0.00      0.00      0.00      0.00 
    51.03      0.00     15.89      0.00      0.00      0.00      0.00 
    51.04      0.00     15.89      0.00      0.00      0.00      0.00 
    51.05      0.00     15.89      0.00      0.00      0.00      0.00 
    51.06      0.00     15.89      0.00      0.00      0.00      0.00 
    51.07      0.00     15.89      0.00      0.00      0.00      0.00 
    51.08      0.00     15.89      0.00      0.00      0.00      0.00 
    51.09      0.00     15.89      0.00      0.00      0.00      0.00 
    51.10      0.00     15.89      0.00      0.00      0.00      0.00 
    51.11      0.00     15.89      0.00      0.00      0.00      0.00 
    51.12      0.00     15.89      0.00      0.00      0.00      0.00 
    51.13      0.00     15.89      0.00      0.00      0.00      0.00 
    51.14      0.00     15.89      0.00      0.00      0.00      0.00 
    51.15      0.00     15.89      0.00      0.00      0.00      0.00 
    51.16      0.00     15.89      0.00      0.00      0.00      0.00 
    51.17      0.00     15.89      0.00      0.00      0.00      0.00 
    51.18      0.00     15.89      0.00      0.00      0.00      0.00 
    51.19      0.00     15.89      0.00      0.00      0.00      0.00 
