#Written by Robertson Geologging WinLogger V1.0/406
~VERSION INFORMATION
#------------------------------------------------------------------------------
 VERS. 2.0 : CWLS LOG ASCII STANDARD - VERSION 2.0
 WRAP. NO  : ONE LINE PER DEPTH STEP
~WELL INFORMATION
#MNEM.UNIT         DATA                                DESCRIPTION OF MNEMONIC
#------------------------------------------------------------------------------
 STRT.M         58.0600                            :   START DEPTH
 STOP.M        154.1000                            :   STOP DEPTH
 STEP.M          0.0100                            :   STEP VALUE
 NULL.        -999.2500                            :   NULL VALUE
 COMP.    Coal Authority                           :   COMPANY NAME
 WELL.    Lumley                                   :   WELL NAME
 FLD.     N/A                                      :   FIELD NAME
 LOC.     N/A                                      :   LOCATION
 PROV.    N/A                                      :   PROVINCE
 SRVC.    N/A                                      :   SERVICE COMPANY NAME
 DATE.    01 Oct 08                                :   DATE
 UWI.     N/A                                      :   UNIQUE WELL IDENTIFIER
~PARAMETER INFORMATION
#MNEMO.UNIT         VALUE                 DESCRIPTION OF MNEMONIC
#------------------------------------------------------------------------------
~OTHER INFORMATION SECTION
#------------------------------------------------------------------------------
 TCGS2822
~CURVE INFORMATION
#MNEMO.UNIT         API CODE              CURVE DESCRIPTION
#------------------------------------------------------------------------------
 DEPTH.M                                 :   0     Depth
 TEMP.DegC                               :   1     Temperature
 COND.uS/cm                              :   2     Conductivity
 DELT.DegC                               :   3     Delta T
 DELC.uS/cm                              :   4     Delta C
 NGAM.CPS                                :   5     Natural Gamma
#------------------------------------------------------------------------------
~A  DEPTH     TEMP      COND      DELT      DELC      NGAM      
# ...
   128.02     14.45   5765.84     -0.03     12.94      0.00 
   128.03     14.46   5765.84     -0.01     12.94      0.00 
   128.04     14.46   5765.84     -0.02     12.94      0.00 
   128.05     14.45   5765.84     -0.03     12.94      0.00 
   128.06     14.46   5765.84      0.00     12.94      0.00 
   128.07     14.45   5765.84     -0.00     12.94      0.00 
   128.08     14.46   5767.69     -0.00     14.79      0.00 
   128.09     14.45   5772.31     -0.03     19.42      7.00 
   128.10     14.43   5765.84     -0.04     12.94      0.00 
   128.11     14.43   5765.84     -0.05     12.94      0.00 
   128.12     14.44   5772.31     -0.03     19.42      7.00 
   128.13     14.45   5767.69      0.00      7.40      0.00 
   128.14     14.45   5772.31     -0.02     19.42      0.00 
   128.15     14.46   5772.31     -0.01     19.42      0.00 
   128.16     14.44   5767.69     -0.03     14.79      0.00 
   128.17     14.46   5765.84     -0.01      6.47      7.00 
   128.18     14.47   5772.31      0.01     19.42      0.00 
   128.19     14.46   5772.31     -0.00     19.42      0.00 
   128.20     14.46   5767.69      0.00     14.79      0.00 
   128.21     14.44   5772.31     -0.00     12.94      0.00 
   128.22     14.44   5772.31     -0.00     19.42      0.00 
   128.23     14.44   5772.31     -0.02     27.74      0.00 
   128.24     14.42   5767.69     -0.06      8.32      0.00 
   128.25     14.41   5772.31     -0.07     19.42      0.00 
   128.26     14.41   5772.31     -0.06     19.42      0.00 
   128.27     14.42   5772.31     -0.05     12.02      0.00 
   128.28     14.44   5767.69     -0.01     14.79      0.00 
   128.29     14.43   5772.31     -0.01     12.94      0.00 
   128.30     14.43   5772.31     -0.03     19.42      0.00 
   128.31     14.41   5772.31     -0.04     12.02      0.00 
   128.32     14.40   5767.69     -0.07     14.79      0.00 
   128.33     14.40   5772.31     -0.07     12.94      7.00 
   128.34     14.37   5772.31     -0.09     19.42      0.00 
   128.35     14.39   5772.31     -0.06     12.02      0.00 
   128.36     14.40   5767.69     -0.05     14.79      0.00 
   128.37     14.40   5772.31     -0.03     12.94      0.00 
   128.38     14.42   5772.31     -0.03     19.42      0.00 
   128.39     14.42   5772.31     -0.05     12.94      0.00 
   128.40     14.41   5772.31     -0.07     19.42      0.00 
   128.41     14.41   5776.01     -0.08     16.64      0.00 
   128.42     14.40   5772.31     -0.07     19.42      0.00 
   128.43     14.40   5772.31     -0.06     12.94      0.00 
   128.44     14.41   5772.31     -0.04     19.42      0.00 
   128.45     14.40   5776.01     -0.05     15.72      0.00 
   128.46     14.41   5772.31     -0.03     19.42      0.00 
   128.47     14.40   5765.84     -0.02      6.47      0.00 
   128.48     14.40   5772.31     -0.04     19.42      0.00 
   128.49     14.38   5772.31     -0.06     12.94      0.00 
   128.50     14.37   5772.31     -0.09     12.94      0.00 
   128.51     14.38   5776.01     -0.11     23.12      0.00 
   128.52     14.38   5772.31     -0.10     12.94      0.00 
   128.53     14.38   5772.31     -0.09     19.42     14.00 
   128.54     14.39   5772.31     -0.08     12.02      0.00 
   128.55     14.38   5767.69     -0.08     14.79      0.00 
   128.56     14.37   5772.31     -0.08     12.94      0.00 
   128.57     14.38   5772.31     -0.07     12.94      0.00 
   128.58     14.38   5776.01     -0.07     16.64      0.00 
   128.59     14.38   5772.31     -0.06     19.42      0.00 
   128.60     14.39   5772.31     -0.06     12.94      0.00 
   128.61     14.39   5767.69     -0.07      8.32      8.00 
   128.62     14.39   5772.31     -0.06     12.94      0.00 
   128.63     14.39   5772.31     -0.06     12.94      0.00 
   128.64     14.39   5776.01     -0.06     23.12      0.00 
   128.65     14.38   5772.31     -0.08     12.02      7.00 
   128.66     14.38   5772.31     -0.10     12.94      0.00 
   128.67     14.39   5767.69     -0.09      8.32      0.00 
   128.68     14.39   5772.31     -0.10     19.42      0.00 
   128.69     14.40   5772.31     -0.09     12.02      0.00 
   128.70     14.40   5776.01     -0.09     16.64      0.00 
   128.71     14.39   5772.31     -0.10     12.94      0.00 
   128.72     14.38   5767.69     -0.09      8.32      0.00 
   128.73     14.37   5772.31     -0.08     19.42      7.00 
   128.74     14.36   5772.31     -0.07     12.02      0.00 
   128.75     14.38   5776.01     -0.05     16.64      0.00 
   128.76     14.40   5765.84     -0.05      6.47      0.00 
   128.77     14.41   5772.31     -0.05     12.94      0.00 
   128.78     14.42   5772.31     -0.05     12.94      0.00 
   128.79     14.40   5767.69     -0.07      8.32      0.00 
   128.80     14.39   5772.31     -0.08     19.42      0.00 
   128.81     14.37   5772.31     -0.10     12.94      0.00 
   128.82     14.37   5772.31     -0.09     12.94      0.00 
   128.83     14.38   5767.69     -0.08      8.32      0.00 
   128.84     14.39   5772.31     -0.06     12.02      0.00 
   128.85     14.40   5772.31     -0.07      6.47      0.00 
   128.86     14.40   5765.84     -0.07      6.47      0.00 
   128.87     14.40   5776.01     -0.06     16.64      0.00 
   128.88     14.40   5772.31     -0.05     12.94      7.00 
   128.89     14.40   5765.84     -0.03      0.00      0.00 
   128.90     14.41   5772.31     -0.04     12.94      0.00 
   128.91     14.40   5772.31     -0.07     12.02      0.00 
   128.92     14.38   5765.84     -0.10      6.47      0.00 
   128.93     14.38   5772.31     -0.11      6.47      0.00 
   128.94     14.38   5772.31     -0.10     12.94      0.00 
   128.95     14.38   5772.31     -0.11      6.47      0.00 
   128.96     14.40   5767.69     -0.08      8.32      0.00 
   128.97     14.41   5772.31     -0.04      6.47      0.00 
   128.98     14.43   5772.31     -0.03     12.02      7.00 
   128.99     14.43   5765.84      0.00      6.47      0.00 
   129.00     14.43   5772.31     -0.02     12.94      0.00 
   129.01     14.43   5772.31     -0.03      6.47      0.00 
   129.02     14.41   5772.31     -0.05      6.47      0.00 
   129.03     14.41   5767.69     -0.05      1.85      0.00 
   129.04     14.42   5772.31     -0.03      6.47      0.00 
   129.05     14.42   5765.84     -0.04      0.00      0.00 
   129.06     14.41   5772.31     -0.05      6.47      7.00 
   129.07     14.40   5772.31     -0.06      4.62      0.00 
   129.08     14.39   5772.31     -0.06      0.00      0.00 
   129.09     14.40   5772.31     -0.03      6.47      0.00 
   129.10     14.42   5767.69     -0.01      1.85      0.00 
   129.11     14.42   5772.31     -0.02      0.00      0.00 
   129.12     14.43   5772.31     -0.03      4.62      0.00 
   129.13     14.41   5772.31     -0.04      0.00      0.00 
   129.14     14.40   5772.31     -0.06      0.00      0.00 
   129.15     14.39   5772.31     -0.06      4.62      0.00 
   129.16     14.39   5778.78     -0.07     12.95      0.00 
   129.17     14.41   5767.69     -0.07     -4.62      0.00 
   129.18     14.41   5772.31     -0.05      0.00      0.00 
   129.19     14.43   5778.78     -0.04     11.10      0.00 
   129.20     14.41   5772.31     -0.03      0.00      0.00 
   129.21     14.40   5772.31     -0.05      0.00      0.00 
   129.22     14.39   5778.78     -0.05      6.47      0.00 
   129.23     14.39   5772.31     -0.02      4.62      0.00 
   129.24     14.40   5776.01     -0.01      3.70      0.00 
   129.25     14.41   5772.31      0.00      0.00      0.00 
   129.26     14.42   5778.78      0.00      6.47      0.00 
   129.27     14.41   5778.78     -0.03     11.10      0.00 
   129.28     14.40   5772.31     -0.03      0.00      0.00 
   129.29     14.41   5776.01     -0.02      3.70      0.00 
   129.30     14.41   5778.78      0.00      6.47      0.00 
   129.31     14.43   5772.31      0.03      4.62      0.00 
   129.32     14.44   5776.01      0.04      3.70      8.00 
   129.33     14.43   5778.78      0.06      6.47      0.00 
