#Written by Robertson Geologging WinLogger V1.0/406
~VERSION INFORMATION
#------------------------------------------------------------------------------
 VERS. 2.0 : CWLS LOG ASCII STANDARD - VERSION 2.0
 WRAP. NO  : ONE LINE PER DEPTH STEP
~WELL INFORMATION
#MNEM.UNIT         DATA                                DESCRIPTION OF MNEMONIC
#------------------------------------------------------------------------------
 STRT.M         58.0600                            :   START DEPTH
 STOP.M        154.1000                            :   STOP DEPTH
 STEP.M          0.0100                            :   STEP VALUE
 NULL.        -999.2500                            :   NULL VALUE
 COMP.    Coal Authority                           :   COMPANY NAME
 WELL.    Lumley                                   :   WELL NAME
 FLD.     N/A                                      :   FIELD NAME
 LOC.     N/A                                      :   LOCATION
 PROV.    N/A                                      :   PROVINCE
 SRVC.    N/A                                      :   SERVICE COMPANY NAME
 DATE.    01 Oct 08                                :   DATE
 UWI.     N/A                                      :   UNIQUE WELL IDENTIFIER
~PARAMETER INFORMATION
#MNEMO.UNIT         VALUE                 DESCRIPTION OF MNEMONIC
#------------------------------------------------------------------------------
~OTHER INFORMATION SECTION
#------------------------------------------------------------------------------
 TCGS2822
~CURVE INFORMATION
#MNEMO.UNIT         API CODE              CURVE DESCRIPTION
#------------------------------------------------------------------------------
 DEPTH.M                                 :   0     Depth
 TEMP.DegC                               :   1     Temperature
 COND.uS/cm                              :   2     Conductivity
 DELT.DegC                               :   3     Delta T
 DELC.uS/cm                              :   4     Delta C
 NGAM.CPS                                :   5     Natural Gamma
#------------------------------------------------------------------------------
~A  DEPTH     TEMP      COND      DELT      DELC      NGAM      
# ...
   121.42     14.44   5745.50      0.01      0.92      0.00 
   121.43     14.43   5752.89     -0.00      7.40      0.00 
   121.44     14.44   5752.89     -0.02      0.00      0.00 
   121.45     14.45   5745.50     -0.02      0.00      0.00 
   121.46     14.47   5752.89      0.00      8.32      0.00 
   121.47     14.46   5752.89      0.00      7.40      0.00 
   121.48     14.48   5752.89      0.03      7.40      0.00 
   121.49     14.47   5752.89      0.03      7.40      0.00 
   121.50     14.47   5752.89      0.02      8.32      0.00 
   121.51     14.48   5752.89      0.03      7.40      0.00 
   121.52     14.48   5752.89      0.01      7.40      0.00 
   121.53     14.47   5752.89     -0.00      8.32      0.00 
   121.54     14.46   5745.50     -0.02      0.00      0.00 
   121.55     14.45   5745.50     -0.04      6.47      0.00 
   121.56     14.45   5737.18     -0.03     -7.40      0.00 
   121.57     14.45   5739.03     -0.01     -6.47      0.00 
   121.58     14.46   5726.09     -0.01    -18.49      0.00 
   121.59     14.45   5729.78     -0.01    -15.72      0.00 
   121.60     14.45   5726.09      0.00    -18.49      0.00 
   121.61     14.47   5721.46      0.02    -24.03      0.00 
   121.62     14.46   5719.61      0.01    -25.88      0.00 
   121.63     14.47   5719.61      0.02    -33.28      0.00 
   121.64     14.47   5714.07      0.01    -31.43      0.00 
   121.65     14.45   5719.61     -0.01    -33.28      0.00 
   121.66     14.47   5713.15      0.02    -32.35      0.00 
   121.67     14.47   5714.07      0.02    -31.43      8.00 
   121.68     14.47   5713.15      0.01    -31.43      0.00 
   121.69     14.48   5713.15      0.03    -39.75      0.00 
   121.70     14.48   5706.68      0.03    -38.82      0.00 
   121.71     14.47   5713.15      0.00    -31.43      7.00 
   121.72     14.46   5706.68      0.00    -38.82      0.00 
   121.73     14.44   5713.15     -0.04    -31.43      7.00 
   121.74     14.43   5706.68     -0.05    -38.82      0.00 
   121.75     14.44   5713.15     -0.03    -31.43      0.00 
   121.76     14.45   5713.15     -0.02    -32.35      7.00 
   121.77     14.47   5714.07      0.00    -31.43      0.00 
   121.78     14.47   5713.15     -0.00    -31.43      0.00 
   121.79     14.45   5714.07     -0.01    -31.43      0.00 
   121.80     14.44   5719.61     -0.02    -24.96      7.00 
   121.81     14.43   5714.07     -0.02    -24.96      0.00 
   121.82     14.43   5719.61     -0.03    -24.96      0.00 
   121.83     14.43   5726.09     -0.03    -19.41      0.00 
   121.84     14.44   5714.07     -0.03    -30.50      0.00 
   121.85     14.43   5719.61     -0.04    -19.41      0.00 
   121.86     14.43   5719.61     -0.03    -24.96      0.00 
   121.87     14.42   5721.46     -0.04    -17.56      0.00 
   121.88     14.42   5726.09     -0.04    -18.49      0.00 
   121.89     14.43   5726.09     -0.02    -12.94      0.00 
   121.90     14.44   5721.46     -0.01    -23.11      0.00 
   121.91     14.43   5726.09     -0.02    -12.94      0.00 
   121.92     14.45   5726.09     -0.01    -12.94      0.00 
   121.93     14.44   5721.46     -0.03    -23.11      0.00 
   121.94     14.42   5726.09     -0.06    -12.94      0.00 
   121.95     14.43   5721.46     -0.03    -17.56      0.00 
   121.96     14.41   5726.09     -0.05    -18.49      7.00 
   121.97     14.40   5726.09     -0.06    -12.94      7.00 
   121.98     14.43   5729.78     -0.03     -9.24      8.00 
   121.99     14.42   5726.09     -0.05    -11.09      0.00 
   122.00     14.43   5729.78     -0.03     -9.24      0.00 
   122.01     14.43   5732.56     -0.03    -12.02      0.00 
   122.02     14.41   5732.56     -0.07     -6.47      0.00 
   122.03     14.42   5729.78     -0.07     -7.40      0.00 
   122.04     14.41   5732.56     -0.09     -6.47      0.00 
   122.05     14.43   5739.03     -0.08      9.24      0.00 
   122.06     14.43   5729.78     -0.08     -9.24      8.00 
   122.07     14.41   5732.56     -0.08     -6.47      0.00 
   122.08     14.42   5729.78     -0.06     -7.40      0.00 
   122.09     14.41   5732.56     -0.04     -6.47      0.00 
   122.10     14.41   5726.09     -0.03    -11.09      0.00 
   122.11     14.41   5729.78     -0.04     -9.24      0.00 
   122.12     14.42   5732.56     -0.05     -6.47      0.00 
   122.13     14.42   5721.46     -0.07    -15.71      8.00 
   122.14     14.43   5732.56     -0.05     -6.47      0.00 
   122.15     14.43   5721.46     -0.05    -11.09      0.00 
   122.16     14.42   5726.09     -0.05    -18.49      0.00 
   122.17     14.42   5729.78     -0.03     -9.24      0.00 
   122.18     14.40   5726.09     -0.05    -12.94     14.00 
   122.19     14.41   5729.78     -0.03     -7.40      0.00 
   122.20     14.43   5726.09     -0.01    -12.94      7.00 
   122.21     14.41   5726.09     -0.05    -11.09      7.00 
   122.22     14.43   5729.78     -0.02     -9.24      8.00 
   122.23     14.43   5726.09     -0.03    -12.94      7.00 
   122.24     14.42   5721.46     -0.04    -15.71      0.00 
   122.25     14.43   5726.09     -0.02    -12.94      7.00 
   122.26     14.42   5729.78     -0.05    -14.79      0.00 
   122.27     14.41   5726.09     -0.06    -12.94      0.00 
   122.28     14.39   5726.09     -0.06    -11.09      0.00 
   122.29     14.40   5721.46     -0.07    -17.56      0.00 
   122.30     14.40   5726.09     -0.06    -11.09      0.00 
   122.31     14.42   5726.09     -0.04    -19.41      0.00 
   122.32     14.43   5729.78     -0.04     -7.40      0.00 
   122.33     14.43   5726.09     -0.04    -19.41      0.00 
   122.34     14.41   5721.46     -0.06    -23.11      8.00 
   122.35     14.40   5732.56     -0.08    -12.94      0.00 
   122.36     14.41   5726.09     -0.06    -18.49      0.00 
   122.37     14.43   5729.78     -0.04    -15.72      0.00 
   122.38     14.44   5726.09     -0.03    -18.49      0.00 
   122.39     14.43   5737.18     -0.03     -8.32      0.00 
   122.40     14.40   5726.09     -0.05    -26.81      7.00 
   122.41     14.39   5729.78     -0.06    -15.72      0.00 
   122.42     14.38   5732.56     -0.06    -20.34      0.00 
   122.43     14.39   5732.56     -0.05    -20.34      0.00 
   122.44     14.41   5737.18     -0.04     -8.32      0.00 
   122.45     14.41   5732.56     -0.06    -20.34      0.00 
   122.46     14.41   5729.78     -0.05    -23.11      0.00 
   122.47     14.41   5732.56     -0.07    -20.34      0.00 
   122.48     14.42   5737.18     -0.05    -15.72      0.00 
   122.49     14.42   5732.56     -0.05    -20.34      0.00 
   122.50     14.43   5732.56     -0.05    -20.34      0.00 
   122.51     14.43   5729.78     -0.05    -23.11      8.00 
   122.52     14.41   5732.56     -0.06    -20.34      0.00 
   122.53     14.40   5737.18     -0.06     -8.32      8.00 
   122.54     14.38   5732.56     -0.07    -12.94      7.00 
   122.55     14.40   5729.78     -0.06     -7.40      0.00 
   122.56     14.42   5739.03     -0.04      0.00      0.00 
   122.57     14.43   5729.78     -0.03      3.70      0.00 
   122.58     14.44   5737.18     -0.01      7.40      0.00 
   122.59     14.44   5732.56     -0.01      6.47      7.00 
   122.60     14.43   5737.18     -0.04     15.71      0.00 
   122.61     14.43   5732.56     -0.03     12.94      0.00 
   122.62     14.43   5737.18     -0.05     17.56      0.00 
   122.63     14.40   5739.03     -0.07     24.96      0.00 
   122.64     14.39   5729.78     -0.06     10.17      0.00 
   122.65     14.40   5739.03     -0.07     25.88      0.00 
   122.66     14.43   5737.18     -0.04     23.11      0.00 
   122.67     14.45   5739.03     -0.01     25.88      7.00 
   122.68     14.46   5737.18     -0.02     24.03      0.00 
   122.69     14.45   5739.03     -0.03     32.35      0.00 
   122.70     14.43   5737.18     -0.03     24.03      0.00 
   122.71     14.41   5739.03     -0.05     32.35      7.00 
   122.72     14.41   5737.18     -0.03     24.03      0.00 
   122.73     14.41   5739.03     -0.02     32.35      0.00 
