#Written by Robertson Geologging WinLogger V1.0/370
~VERSION INFORMATION
#------------------------------------------------------------------------------
 VERS. 2.0 : CWLS LOG ASCII STANDARD - VERSION 2.0
 WRAP. NO  : ONE LINE PER DEPTH STEP
~WELL INFORMATION
#MNEM.UNIT         DATA                                DESCRIPTION OF MNEMONIC
#------------------------------------------------------------------------------
 STRT.M         50.0700                            :   START DEPTH
 STOP.M        138.5000                            :   STOP DEPTH
 STEP.M          0.0100                            :   STEP VALUE
 NULL.        -999.2500                            :   NULL VALUE
 COMP.    White Young Green                        :   COMPANY NAME
 WELL.    Lumley 6 Pit                             :   WELL NAME
 FLD.     lumley                                   :   FIELD NAME
 LOC.     N/A                                      :   LOCATION
 PROV.    N/A                                      :   PROVINCE
 SRVC.    N/A                                      :   SERVICE COMPANY NAME
 DATE.    06 Oct 05                                :   DATE
 UWI.     N/A                                      :   UNIQUE WELL IDENTIFIER
~PARAMETER INFORMATION
#MNEMO.UNIT         VALUE                 DESCRIPTION OF MNEMONIC
#------------------------------------------------------------------------------
~OTHER INFORMATION SECTION
#------------------------------------------------------------------------------
 TCGS1365
 Hole finnished 133 .Probe would not penatrate crust as seen on CCTV
~CURVE INFORMATION
#MNEMO.UNIT         API CODE              CURVE DESCRIPTION
#------------------------------------------------------------------------------
 DEPTH.M                                 :   0     Depth
 TEMP.DegC                               :   1     Temperature
 CN25.mS/cm                              :   2     Conductivity@25DegC
 COND.mS/cm                              :   3     Conductivity
 DELT.DegC                               :   4     Delta T
 DELC.mS/cm                              :   5     Delta C
 NGAM.CPS                                :   6     Natural Gamma
#------------------------------------------------------------------------------
~A  DEPTH     TEMP      CN25      COND      DELT      DELC      NGAM      
# ...
   107.70     14.22     11.31      5.67      0.01     -0.01      1.59 
   107.71     14.21     11.30      5.67      0.01     -0.01      1.59 
   107.72     14.21     11.31      5.67      0.01     -0.01      1.59 
   107.73     14.21     11.31      5.67      0.01     -0.01      1.59 
   107.74     14.22     11.30      5.67      0.01     -0.01      1.18 
   107.75     14.22     11.31      5.67      0.01     -0.01      1.59 
   107.76     14.22     11.30      5.67      0.01     -0.02      1.88 
   107.77     14.22     11.30      5.67      0.02     -0.01      1.88 
   107.78     14.22     11.30      5.67      0.02     -0.02      1.88 
   107.79     14.22     11.30      5.67      0.02     -0.02      1.88 
   107.80     14.22     11.30      5.67      0.02     -0.02      1.47 
   107.81     14.22     11.30      5.67      0.02     -0.02      1.47 
   107.82     14.22     11.30      5.67      0.02     -0.02      1.47 
   107.83     14.22     11.30      5.67      0.01     -0.01      1.47 
   107.84     14.22     11.30      5.67      0.01     -0.01      1.47 
   107.85     14.22     11.30      5.67      0.01     -0.01      1.47 
   107.86     14.22     11.30      5.67      0.00     -0.00      1.53 
   107.87     14.22     11.31      5.67      0.00      0.00      1.53 
   107.88     14.21     11.31      5.67     -0.00      0.01      1.53 
   107.89     14.21     11.31      5.67     -0.01      0.01      1.53 
   107.90     14.21     11.31      5.67     -0.01      0.01      1.94 
   107.91     14.21     11.32      5.67     -0.01      0.02      2.29 
   107.92     14.21     11.32      5.67     -0.01      0.02      1.88 
   107.93     14.21     11.31      5.67     -0.01      0.02      1.18 
   107.94     14.21     11.31      5.67     -0.01      0.01      1.18 
   107.95     14.21     11.31      5.67     -0.01      0.01      1.18 
   107.96     14.21     11.31      5.67     -0.01      0.01      1.18 
   107.97     14.21     11.31      5.67     -0.00      0.01      1.18 
   107.98     14.21     11.31      5.67     -0.00      0.01      1.18 
   107.99     14.21     11.31      5.67     -0.00      0.00      1.18 
   108.00     14.21     11.31      5.67      0.00      0.00      1.18 
   108.01     14.21     11.31      5.67      0.00      0.00      1.18 
   108.02     14.21     11.31      5.67      0.00      0.00      1.18 
   108.03     14.21     11.31      5.67      0.00      0.00      0.76 
   108.04     14.21     11.31      5.67      0.00      0.00      0.76 
   108.05     14.21     11.31      5.67     -0.00      0.00      0.76 
   108.06     14.21     11.31      5.67     -0.00      0.00      0.76 
   108.07     14.21     11.31      5.67     -0.00      0.01      0.35 
   108.08     14.21     11.31      5.67     -0.00      0.01      0.00 
   108.09     14.21     11.31      5.67     -0.00      0.00      0.41 
   108.10     14.21     11.31      5.67      0.00     -0.00      0.41 
   108.11     14.21     11.31      5.67      0.00     -0.00      0.41 
   108.12     14.22     11.31      5.67      0.01     -0.01      0.41 
   108.13     14.22     11.30      5.67      0.01     -0.01      0.41 
   108.14     14.22     11.30      5.67      0.01     -0.01      0.41 
   108.15     14.22     11.30      5.67      0.01     -0.02      0.41 
   108.16     14.22     11.30      5.67      0.02     -0.02      0.41 
   108.17     14.22     11.30      5.67      0.02     -0.02      0.82 
   108.18     14.22     11.30      5.67      0.02     -0.02      0.82 
   108.19     14.22     11.30      5.67      0.02     -0.02      0.82 
   108.20     14.22     11.30      5.67      0.02     -0.02      0.82 
   108.21     14.22     11.30      5.67      0.02     -0.02      0.82 
   108.22     14.22     11.30      5.67      0.02     -0.02      0.82 
   108.23     14.22     11.30      5.67      0.02     -0.02      0.82 
   108.24     14.22     11.30      5.67      0.02     -0.02      0.82 
   108.25     14.22     11.30      5.67      0.01     -0.02      0.82 
   108.26     14.22     11.30      5.67      0.01     -0.01      0.41 
   108.27     14.22     11.30      5.67      0.01     -0.01      0.41 
   108.28     14.22     11.30      5.67      0.01     -0.01      0.41 
   108.29     14.22     11.30      5.67      0.01     -0.01      0.41 
   108.30     14.22     11.31      5.67      0.01     -0.01      0.76 
   108.31     14.21     11.31      5.67      0.01     -0.00      0.76 
   108.32     14.21     11.31      5.67      0.00     -0.01      0.76 
   108.33     14.21     11.31      5.67      0.00     -0.00      0.76 
   108.34     14.21     11.32      5.67     -0.00      0.01      0.35 
   108.35     14.21     11.32      5.67     -0.00      0.01      0.76 
   108.36     14.21     11.32      5.67     -0.00      0.00      0.76 
   108.37     14.21     11.32      5.67     -0.00      0.00      0.76 
   108.38     14.21     11.32      5.67     -0.00      0.00      0.76 
   108.39     14.21     11.32      5.67     -0.00      0.00      1.59 
   108.40     14.21     11.32      5.67     -0.00      0.01      1.94 
   108.41     14.20     11.32      5.67     -0.01      0.01      1.94 
   108.42     14.21     11.32      5.67     -0.00      0.01      1.94 
   108.43     14.20     11.32      5.67     -0.00      0.01      1.94 
   108.44     14.21     11.32      5.67     -0.00      0.01      2.35 
   108.45     14.21     11.32      5.67     -0.00      0.00      2.35 
   108.46     14.20     11.32      5.67     -0.00      0.01      2.71 
   108.47     14.21     11.32      5.67     -0.00      0.01      3.18 
   108.48     14.21     11.32      5.67     -0.00      0.00      3.18 
   108.49     14.21     11.32      5.67     -0.00      0.00      3.59 
   108.50     14.21     11.32      5.67      0.00      0.00      3.59 
   108.51     14.21     11.31      5.67      0.00     -0.00      3.59 
   108.52     14.21     11.31      5.67      0.01     -0.00      3.18 
   108.53     14.21     11.31      5.67      0.00     -0.00      3.18 
   108.54     14.21     11.31      5.67      0.00     -0.00      3.59 
   108.55     14.22     11.31      5.67      0.00      0.01      3.59 
   108.56     14.22     11.31      5.67      0.00      0.00      2.76 
   108.57     14.22     11.30      5.67      0.00     -0.00      2.41 
   108.58     14.22     11.30      5.67      0.00     -0.00      2.41 
   108.59     14.22     11.30      5.67      0.00      0.00      3.12 
   108.60     14.22     11.31      5.67      0.00      0.00      3.12 
   108.61     14.22     11.30      5.67      0.00      0.00      2.71 
   108.62     14.22     11.30      5.67      0.00      0.00      2.71 
   108.63     14.22     11.30      5.67      0.00     -0.00      2.35 
   108.64     14.23     11.30      5.67      0.00     -0.00      1.88 
   108.65     14.23     11.30      5.67      0.01     -0.01      1.88 
   108.66     14.23     11.29      5.67      0.01     -0.01      1.82 
   108.67     14.23     11.29      5.67      0.01     -0.01      1.82 
   108.68     14.22     11.30      5.67      0.01     -0.01      1.82 
   108.69     14.22     11.30      5.67      0.01     -0.01      1.82 
   108.70     14.22     11.30      5.67      0.01     -0.00      2.24 
   108.71     14.22     11.30      5.67      0.00     -0.01      1.82 
   108.72     14.22     11.30      5.67      0.00     -0.00      1.82 
   108.73     14.22     11.31      5.67      0.00      0.00      2.18 
   108.74     14.21     11.31      5.67     -0.00      0.00      2.18 
   108.75     14.21     11.31      5.67     -0.00      0.01      2.53 
   108.76     14.21     11.31      5.67     -0.01      0.01      1.82 
   108.77     14.21     11.32      5.67     -0.01      0.02      1.82 
   108.78     14.21     11.32      5.67     -0.02      0.02      2.18 
   108.79     14.20     11.32      5.67     -0.02      0.02      2.18 
   108.80     14.20     11.32      5.67     -0.02      0.02      2.18 
   108.81     14.20     11.32      5.67     -0.02      0.02      1.82 
   108.82     14.20     11.32      5.67     -0.02      0.02      2.18 
