#Written by Robertson Geologging WinLogger V1.0/406
~VERSION INFORMATION
#------------------------------------------------------------------------------
 VERS. 2.0 : CWLS LOG ASCII STANDARD - VERSION 2.0
 WRAP. NO  : ONE LINE PER DEPTH STEP
~WELL INFORMATION
#MNEM.UNIT         DATA                                DESCRIPTION OF MNEMONIC
#------------------------------------------------------------------------------
 STRT.M         58.0600                            :   START DEPTH
 STOP.M        154.1000                            :   STOP DEPTH
 STEP.M          0.0100                            :   STEP VALUE
 NULL.        -999.2500                            :   NULL VALUE
 COMP.    Coal Authority                           :   COMPANY NAME
 WELL.    Lumley                                   :   WELL NAME
 FLD.     N/A                                      :   FIELD NAME
 LOC.     N/A                                      :   LOCATION
 PROV.    N/A                                      :   PROVINCE
 SRVC.    N/A                                      :   SERVICE COMPANY NAME
 DATE.    01 Oct 08                                :   DATE
 UWI.     N/A                                      :   UNIQUE WELL IDENTIFIER
~PARAMETER INFORMATION
#MNEMO.UNIT         VALUE                 DESCRIPTION OF MNEMONIC
#------------------------------------------------------------------------------
~OTHER INFORMATION SECTION
#------------------------------------------------------------------------------
 TCGS2822
~CURVE INFORMATION
#MNEMO.UNIT         API CODE              CURVE DESCRIPTION
#------------------------------------------------------------------------------
 DEPTH.M                                 :   0     Depth
 TEMP.DegC                               :   1     Temperature
 COND.uS/cm                              :   2     Conductivity
 DELT.DegC                               :   3     Delta T
 DELC.uS/cm                              :   4     Delta C
 NGAM.CPS                                :   5     Natural Gamma
#------------------------------------------------------------------------------
~A  DEPTH     TEMP      COND      DELT      DELC      NGAM      
# ...
    64.66     13.78   4433.74     -0.04     -4.58      0.00 
    64.67     13.78   4433.74     -0.05     -8.24      0.00 
    64.68     13.78   4433.74     -0.05    -12.81      0.00 
    64.69     13.79   4431.91     -0.03     -6.41      0.00 
    64.70     13.79   4441.98     -0.04     13.73      0.00 
    64.71     13.79   4433.74     -0.05      1.83      0.00 
    64.72     13.79   4441.98     -0.04      8.24      0.00 
    64.73     13.80   4441.98     -0.02      8.24      0.00 
    64.74     13.79   4441.98     -0.00      8.24      0.00 
    64.75     13.80   4441.98      0.02      8.24      0.00 
    64.76     13.82   4441.98      0.01     15.56      0.00 
    64.77     13.82   4444.73      0.02     10.98      0.00 
    64.78     13.81   4433.74      0.01      0.00      8.00 
    64.79     13.80   4433.74     -0.01      7.32      0.00 
    64.80     13.78   4441.98     -0.02      8.24      0.00 
    64.81     13.78   4433.74     -0.01      7.32      0.00 
    64.82     13.79   4433.74     -0.02      0.00      8.00 
    64.83     13.80   4433.74     -0.00      7.32      0.00 
    64.84     13.80   4433.74     -0.01      1.83      0.00 
    64.85     13.80   4431.91     -0.01      5.49      0.00 
    64.86     13.79   4426.42     -0.02     -7.32      0.00 
    64.87     13.80   4433.74      0.00      0.00      0.00 
    64.88     13.80   4433.74      0.00      7.32      0.00 
    64.89     13.80   4441.98     -0.01      8.24      8.00 
    64.90     13.80   4431.91     -0.02     -1.83      0.00 
    64.91     13.79   4433.74     -0.04      1.83      0.00 
    64.92     13.79   4433.74     -0.04      7.32      0.00 
    64.93     13.78   4433.74     -0.02      0.00      0.00 
    64.94     13.79   4425.51     -0.00     -8.24      0.00 
    64.95     13.79   4419.10     -0.01     -7.32      0.00 
    64.96     13.78   4419.10     -0.03    -14.64      0.00 
    64.97     13.77   4410.86     -0.04    -21.05      0.00 
    64.98     13.77   4410.86     -0.06    -22.88      0.00 
    64.99     13.78   4410.86     -0.02    -22.88      0.00 
    65.00     13.79   4405.37     -0.01    -28.37      7.00 
    65.01     13.79   4410.86     -0.01    -22.88      0.00 
    65.02     13.79   4403.54      0.01    -22.88      0.00 
    65.03     13.81   4403.54     -0.01    -30.20      0.00 
    65.04     13.82   4411.78      0.00    -14.64      0.00 
    65.05     13.79   4403.54     -0.04    -30.20      0.00 
    65.06     13.79   4410.86     -0.05    -21.05      0.00 
    65.07     13.78   4411.78     -0.04    -14.64      7.00 
    65.08     13.78   4410.86     -0.04    -22.88      0.00 
    65.09     13.80   4410.86     -0.00    -15.56      8.00 
    65.10     13.80   4410.86      0.00    -22.88      0.00 
    65.11     13.79   4410.86      0.00    -15.56      0.00 
    65.12     13.78   4411.78     -0.02    -20.13      0.00 
    65.13     13.78   4410.86     -0.03    -22.88      8.00 
    65.14     13.78   4410.86     -0.02    -15.56      0.00 
    65.15     13.77   4410.86     -0.04    -22.88      8.00 
    65.16     13.76   4419.10     -0.05    -12.81      0.00 
    65.17     13.78   4410.86     -0.03    -15.56      0.00 
    65.18     13.78   4419.10     -0.02    -14.64      0.00 
    65.19     13.80   4411.78      0.01    -20.13      0.00 
    65.20     13.81   4419.10      0.02     -7.32      0.00 
    65.21     13.79   4419.10      0.01     -7.32      0.00 
    65.22     13.77   4419.10     -0.00     -6.41      0.00 
    65.23     13.77   4419.10     -0.01    -14.64      0.00 
    65.24     13.76   4426.42     -0.01      0.00      0.00 
    65.25     13.77   4419.10     -0.01     -7.32      0.00 
    65.26     13.78   4426.42     -0.01      0.92      0.00 
    65.27     13.79   4425.51     -0.00      6.41      0.00 
    65.28     13.79   4433.74      0.00      7.32      0.00 
    65.29     13.78   4426.42     -0.01      7.32      0.00 
    65.30     13.77   4433.74     -0.01      8.24      0.00 
    65.31     13.76   4426.42     -0.01      0.00      0.00 
    65.32     13.76   4426.42     -0.01      7.32      0.00 
    65.33     13.77   4433.74     -0.00      8.24      0.00 
    65.34     13.79   4425.51     -0.00      6.41      0.00 
    65.35     13.81   4419.10      0.00      0.00      0.00 
    65.36     13.81   4419.10     -0.02      8.24      0.00 
    65.37     13.80   4419.10     -0.02      0.00      0.00 
    65.38     13.78   4410.86     -0.03      0.00      8.00 
    65.39     13.78   4410.86     -0.02     -8.24      0.00 
    65.40     13.79   4411.78     -0.00     -7.32      0.00 
    65.41     13.79   4405.37      0.00    -13.73      0.00 
    65.42     13.80   4405.37      0.01    -13.73      0.00 
    65.43     13.79   4407.20     -0.00    -11.90      0.00 
    65.44     13.80   4405.37      0.01    -13.73      0.00 
    65.45     13.81   4407.20      0.03    -19.22      6.00 
    65.46     13.81   4411.78      0.04     -7.32      7.00 
    65.47     13.81   4407.20      0.04    -18.30      0.00 
    65.48     13.81   4411.78      0.02     -7.32     14.00 
    65.49     13.79   4407.20      0.00    -19.22      0.00 
    65.50     13.80   4411.78      0.01    -14.64      0.00 
    65.51     13.81   4407.20      0.00    -19.22      6.00 
    65.52     13.80   4412.69     -0.00    -12.81      0.00 
    65.53     13.79   4405.37     -0.01    -21.05      0.00 
    65.54     13.77   4412.69     -0.03    -13.73      0.00 
    65.55     13.76   4411.78     -0.03    -13.73      0.00 
    65.56     13.79   4407.20      0.01    -26.54      0.00 
    65.57     13.78   4411.78      0.00    -14.64      0.00 
    65.58     13.79   4407.20      0.02    -26.54      0.00 
    65.59     13.79   4405.37      0.01    -21.05      0.00 
    65.60     13.78   4405.37     -0.01    -26.54      0.00 
    65.61     13.80   4407.20      0.00    -26.54      0.00 
    65.62     13.80   4398.97      0.00    -34.78      7.00 
    65.63     13.81   4405.37      0.03    -26.54      0.00 
    65.64     13.80   4396.22      0.03    -37.52      0.00 
    65.65     13.81   4398.97      0.03    -34.78      0.00 
    65.66     13.79   4401.71      0.01    -32.03      0.00 
    65.67     13.78   4398.97     -0.00    -34.78      0.00 
    65.68     13.77   4401.71     -0.02    -30.20      0.00 
    65.69     13.75   4405.37     -0.04    -36.61      7.00 
    65.70     13.76   4398.97     -0.03    -34.78      0.00 
    65.71     13.76   4407.20     -0.02    -34.78      0.00 
    65.72     13.77   4398.97     -0.02    -43.01      7.00 
    65.73     13.78   4405.37     -0.01    -36.61      0.00 
    65.74     13.80   4405.37     -0.00    -36.61      0.00 
    65.75     13.79   4405.37     -0.03    -36.61      0.00 
    65.76     13.80   4407.20     -0.02    -37.52      0.00 
    65.77     13.80   4405.37     -0.01    -28.37      7.00 
    65.78     13.77   4405.37     -0.03    -28.37      0.00 
    65.79     13.76   4405.37     -0.01    -36.61      0.00 
    65.80     13.74   4401.71     -0.04    -32.03      0.00 
    65.81     13.74   4411.78     -0.04    -21.96      7.00 
    65.82     13.76   4405.37     -0.04    -28.37      0.00 
    65.83     13.76   4411.78     -0.03    -21.96      7.00 
    65.84     13.79   4407.20     -0.01    -24.71      0.00 
    65.85     13.81   4411.78      0.02    -14.64      7.00 
    65.86     13.81   4411.78      0.01    -21.96      0.00 
    65.87     13.81   4411.78      0.00    -21.96      0.00 
    65.88     13.79   4411.78     -0.01    -30.20      0.00 
    65.89     13.77   4419.10     -0.03    -12.81      0.00 
    65.90     13.74   4411.78     -0.04    -21.96      7.00 
    65.91     13.74   4411.78     -0.04    -21.96      0.00 
    65.92     13.76   4419.10     -0.02    -14.64     14.00 
    65.93     13.77   4419.10     -0.02     -6.41      0.00 
    65.94     13.79   4419.10      0.00      0.00      0.00 
    65.95     13.79   4419.10      0.01      0.00      0.00 
    65.96     13.77   4419.10      0.00      8.24      0.00 
    65.97     13.77   4424.59     -0.00     13.73      0.00 
