#Written by Robertson Geologging WinLogger V1.0/406
~VERSION INFORMATION
#------------------------------------------------------------------------------
 VERS. 2.0 : CWLS LOG ASCII STANDARD - VERSION 2.0
 WRAP. NO  : ONE LINE PER DEPTH STEP
~WELL INFORMATION
#MNEM.UNIT         DATA                                DESCRIPTION OF MNEMONIC
#------------------------------------------------------------------------------
 STRT.M         58.0600                            :   START DEPTH
 STOP.M        154.1000                            :   STOP DEPTH
 STEP.M          0.0100                            :   STEP VALUE
 NULL.        -999.2500                            :   NULL VALUE
 COMP.    Coal Authority                           :   COMPANY NAME
 WELL.    Lumley                                   :   WELL NAME
 FLD.     N/A                                      :   FIELD NAME
 LOC.     N/A                                      :   LOCATION
 PROV.    N/A                                      :   PROVINCE
 SRVC.    N/A                                      :   SERVICE COMPANY NAME
 DATE.    01 Oct 08                                :   DATE
 UWI.     N/A                                      :   UNIQUE WELL IDENTIFIER
~PARAMETER INFORMATION
#MNEMO.UNIT         VALUE                 DESCRIPTION OF MNEMONIC
#------------------------------------------------------------------------------
~OTHER INFORMATION SECTION
#------------------------------------------------------------------------------
 TCGS2822
~CURVE INFORMATION
#MNEMO.UNIT         API CODE              CURVE DESCRIPTION
#------------------------------------------------------------------------------
 DEPTH.M                                 :   0     Depth
 TEMP.DegC                               :   1     Temperature
 COND.uS/cm                              :   2     Conductivity
 DELT.DegC                               :   3     Delta T
 DELC.uS/cm                              :   4     Delta C
 NGAM.CPS                                :   5     Natural Gamma
#------------------------------------------------------------------------------
~A  DEPTH     TEMP      COND      DELT      DELC      NGAM      
# ...
    76.54     13.82   4472.19      0.02      0.92      0.00 
    76.55     13.82   4477.68      0.03      6.41      0.00 
    76.56     13.81   4472.19      0.02      0.00      8.00 
    76.57     13.81   4477.68      0.02      6.41      0.00 
    76.58     13.83   4472.19      0.03      0.00      0.00 
    76.59     13.83   4471.28      0.05      0.00      0.00 
    76.60     13.83   4479.52      0.04      7.32      0.00 
    76.61     13.81   4471.28      0.03      0.00      0.00 
    76.62     13.79   4477.68      0.00      6.41      7.00 
    76.63     13.79   4472.19     -0.01      0.00      0.00 
    76.64     13.79   4477.68     -0.02      6.41      0.00 
    76.65     13.78   4471.28     -0.04     -0.92      0.00 
    76.66     13.80   4479.52     -0.02      8.24      0.00 
    76.67     13.79   4471.28     -0.04      0.00      0.00 
    76.68     13.81   4479.52     -0.01      7.32      0.00 
    76.69     13.84   4471.28      0.04      0.00      0.00 
    76.70     13.82   4477.68      0.03      6.41      0.00 
    76.71     13.84   4472.19      0.06      0.00      0.00 
    76.72     13.82   4477.68      0.03      6.41      0.00 
    76.73     13.80   4472.19      0.01      0.00      8.00 
    76.74     13.80   4477.68      0.01      6.41      0.00 
    76.75     13.77   4472.19     -0.01      0.92      0.00 
    76.76     13.80   4477.68      0.00      5.49      0.00 
    76.77     13.81   4471.28      0.02      0.00      0.00 
    76.78     13.80   4479.52     -0.00      7.32      8.00 
    76.79     13.80   4477.68     -0.00      6.41      0.00 
    76.80     13.78   4472.19     -0.01      0.00      0.00 
    76.81     13.79   4477.68     -0.00      0.00      0.00 
    76.82     13.78   4471.28     -0.00     -0.92      0.00 
    76.83     13.80   4479.52      0.04      8.24      0.00 
    76.84     13.80   4471.28      0.05      6.41      0.00 
    76.85     13.78   4471.28      0.03      0.00      0.00 
    76.86     13.81   4472.19      0.04      0.00      0.00 
    76.87     13.79   4477.68     -0.00      6.41      0.00 
    76.88     13.78   4477.68     -0.01      6.41      0.00 
    76.89     13.79   4472.19     -0.03      0.00      0.00 
    76.90     13.77   4477.68     -0.04      6.41      7.00 
    76.91     13.79   4472.19     -0.01      0.00      8.00 
    76.92     13.81   4477.68     -0.00      6.41      0.00 
    76.93     13.80   4477.68     -0.01      5.49      0.00 
    76.94     13.81   4472.19     -0.01      0.92      0.00 
    76.95     13.80   4477.68     -0.02      6.41      0.00 
    76.96     13.78   4477.68     -0.03      5.49      0.00 
    76.97     13.81   4472.19      0.01      0.92      0.00 
    76.98     13.80   4477.68      0.00      5.49      0.00 
    76.99     13.81   4477.68      0.01      6.41      0.00 
    77.00     13.83   4472.19      0.03      0.00      0.00 
    77.01     13.82   4477.68      0.01      6.41      0.00 
    77.02     13.83   4477.68      0.03      5.49     14.00 
    77.03     13.82   4472.19      0.01     -5.49      0.00 
    77.04     13.81   4477.68      0.00      5.49      0.00 
    77.05     13.78   4477.68     -0.01      6.41      0.00 
    77.06     13.77   4471.28     -0.03     -0.92      0.00 
    77.07     13.76   4479.52     -0.02      1.83      0.00 
    77.08     13.77   4477.68     -0.01      5.49      0.00 
    77.09     13.80   4472.19      0.02     -5.49      0.00 
    77.10     13.80   4477.68      0.02      6.41      0.00 
    77.11     13.82   4477.68      0.02      5.49      0.00 
    77.12     13.82   4472.19      0.02     -5.49      0.00 
    77.13     13.80   4477.68     -0.02      5.49      0.00 
    77.14     13.82   4479.52     -0.02      1.83      8.00 
    77.15     13.80   4471.28     -0.03      0.00      0.00 
    77.16     13.80   4479.52     -0.04      7.32      0.00 
    77.17     13.81   4477.68     -0.01      0.00      0.00 
    77.18     13.80   4471.28     -0.02      0.00      0.00 
    77.19     13.80   4479.52     -0.02      0.00      0.00 
    77.20     13.81   4477.68      0.00      6.41      7.00 
    77.21     13.79   4472.19     -0.01      0.00      0.00 
    77.22     13.80   4477.68      0.01      0.00      0.00 
    77.23     13.83   4472.19      0.04      0.00      8.00 
    77.24     13.81   4477.68      0.01      0.00      0.00 
    77.25     13.81   4479.52      0.02      7.32      0.00 
    77.26     13.81   4471.28     -0.00      0.00      0.00 
    77.27     13.79   4479.52     -0.03      0.00      0.00 
    77.28     13.82   4477.68      0.01      6.41      0.00 
    77.29     13.83   4472.19      0.01     -5.49      0.00 
    77.30     13.83   4477.68      0.03      5.49      0.00 
    77.31     13.83   4472.19      0.03      0.92      0.00 
    77.32     13.82   4477.68      0.02     -1.83      0.00 
    77.33     13.80   4479.52      0.03      8.24      0.00 
    77.34     13.80   4471.28      0.03     -0.92      0.00 
    77.35     13.81   4477.68      0.04      0.00      0.00 
    77.36     13.81   4479.52      0.01      8.24      0.00 
    77.37     13.82   4471.28      0.00     -8.24      0.00 
    77.38     13.81   4479.52      0.00      8.24      0.00 
    77.39     13.80   4477.68     -0.02      5.49      0.00 
    77.40     13.81   4472.19      0.00     -5.49      0.00 
    77.41     13.79   4477.68     -0.01      5.49      7.00 
    77.42     13.80   4472.19     -0.00     -5.49      0.00 
    77.43     13.81   4477.68     -0.01      5.49      0.00 
    77.44     13.80   4479.52     -0.04      1.83      8.00 
    77.45     13.81   4477.68     -0.01      5.49      0.00 
    77.46     13.82   4472.19     -0.01     -5.49      0.00 
    77.47     13.83   4477.68      0.03      5.49      7.00 
    77.48     13.83   4477.68      0.05      6.41      0.00 
    77.49     13.85   4477.68      0.04     -1.83      0.00 
    77.50     13.84   4479.52      0.03      8.24      0.00 
    77.51     13.83   4471.28      0.00     -8.24      0.00 
    77.52     13.82   4477.68     -0.01      6.41      0.00 
    77.53     13.80   4479.52     -0.02      7.32      8.00 
    77.54     13.81   4477.68     -0.01      0.00      0.00 
    77.55     13.80   4472.19     -0.00      0.00      0.00 
    77.56     13.80   4477.68     -0.01      0.00      0.00 
    77.57     13.80   4479.52     -0.03      7.32      0.00 
    77.58     13.78   4477.68     -0.05      6.41      0.00 
    77.59     13.79   4479.52     -0.04      0.00      8.00 
    77.60     13.80   4477.68     -0.01      6.41      0.00 
    77.61     13.79   4472.19      0.00     -5.49      0.00 
    77.62     13.80   4484.09      0.01     11.90      0.00 
    77.63     13.80   4472.19      0.01     -5.49      0.00 
    77.64     13.79   4477.68      0.00      6.41      0.00 
    77.65     13.80   4479.52     -0.00      0.00      0.00 
    77.66     13.79   4477.68      0.00      6.41      0.00 
    77.67     13.78   4479.52     -0.03      0.00      0.00 
    77.68     13.80   4477.68     -0.03      6.41      0.00 
    77.69     13.80   4479.52     -0.02      1.83      8.00 
    77.70     13.82   4477.68     -0.02      5.49      0.00 
    77.71     13.82   4479.52      0.00      1.83      0.00 
    77.72     13.81   4477.68      0.01      5.49      0.00 
    77.73     13.80   4479.52      0.00      1.83      8.00 
    77.74     13.79   4484.09      0.02     11.90      0.00 
    77.75     13.80   4479.52      0.00      1.83      0.00 
    77.76     13.81   4477.68      0.00      6.41      7.00 
    77.77     13.80   4479.52      0.00      0.00      0.00 
    77.78     13.82   4479.52      0.02      1.83      0.00 
    77.79     13.82   4477.68      0.04      5.49      0.00 
    77.80     13.84   4479.52      0.05      1.83      0.00 
    77.81     13.84   4484.09      0.06     12.82      0.00 
    77.82     13.83   4479.52      0.03      0.00      0.00 
    77.83     13.82   4477.68      0.02      6.41      0.00 
    77.84     13.80   4479.52      0.01      8.24      0.00 
    77.85     13.80   4477.68     -0.01      5.49      0.00 
