#Written by Robertson Geologging WinLogger V1.0/370
~VERSION INFORMATION
#------------------------------------------------------------------------------
 VERS. 2.0 : CWLS LOG ASCII STANDARD - VERSION 2.0
 WRAP. NO  : ONE LINE PER DEPTH STEP
~WELL INFORMATION
#MNEM.UNIT         DATA                                DESCRIPTION OF MNEMONIC
#------------------------------------------------------------------------------
 STRT.M         50.0700                            :   START DEPTH
 STOP.M        138.5000                            :   STOP DEPTH
 STEP.M          0.0100                            :   STEP VALUE
 NULL.        -999.2500                            :   NULL VALUE
 COMP.    White Young Green                        :   COMPANY NAME
 WELL.    Lumley 6 Pit                             :   WELL NAME
 FLD.     lumley                                   :   FIELD NAME
 LOC.     N/A                                      :   LOCATION
 PROV.    N/A                                      :   PROVINCE
 SRVC.    N/A                                      :   SERVICE COMPANY NAME
 DATE.    06 Oct 05                                :   DATE
 UWI.     N/A                                      :   UNIQUE WELL IDENTIFIER
~PARAMETER INFORMATION
#MNEMO.UNIT         VALUE                 DESCRIPTION OF MNEMONIC
#------------------------------------------------------------------------------
~OTHER INFORMATION SECTION
#------------------------------------------------------------------------------
 TCGS1365
 Hole finnished 133 .Probe would not penatrate crust as seen on CCTV
~CURVE INFORMATION
#MNEMO.UNIT         API CODE              CURVE DESCRIPTION
#------------------------------------------------------------------------------
 DEPTH.M                                 :   0     Depth
 TEMP.DegC                               :   1     Temperature
 CN25.mS/cm                              :   2     Conductivity@25DegC
 COND.mS/cm                              :   3     Conductivity
 DELT.DegC                               :   4     Delta T
 DELC.mS/cm                              :   5     Delta C
 NGAM.CPS                                :   6     Natural Gamma
#------------------------------------------------------------------------------
~A  DEPTH     TEMP      CN25      COND      DELT      DELC      NGAM      
# ...
    85.10     13.14     10.04      3.71      0.03     -0.03      0.00 
    85.11     13.14     10.04      3.71      0.03     -0.03      0.00 
    85.12     13.14     10.04      3.71      0.03     -0.02      0.00 
    85.13     13.14     10.04      3.71      0.03     -0.02      0.00 
    85.14     13.14     10.04      3.71      0.02     -0.02      0.00 
    85.15     13.14     10.04      3.71      0.02     -0.02      0.00 
    85.16     13.14     10.04      3.71      0.02     -0.02      0.41 
    85.17     13.14     10.04      3.71      0.02     -0.01      0.41 
    85.18     13.14     10.04      3.71      0.01     -0.01      0.41 
    85.19     13.14     10.04      3.71      0.01     -0.00      0.41 
    85.20     13.14     10.04      3.71      0.01     -0.00      0.41 
    85.21     13.14     10.05      3.71      0.00      0.00      0.41 
    85.22     13.14     10.04      3.71      0.00      0.00      0.41 
    85.23     13.14     10.04      3.71      0.00     -0.00      0.82 
    85.24     13.14     10.04      3.71      0.01     -0.00      0.82 
    85.25     13.14     10.04      3.71      0.01      0.00      0.82 
    85.26     13.14     10.05      3.71      0.00      0.00      0.82 
    85.27     13.13     10.05      3.71      0.00      0.00      0.82 
    85.28     13.13     10.05      3.71      0.00     -0.00      0.82 
    85.29     13.14     10.05      3.71      0.01      0.00      0.82 
    85.30     13.14     10.04      3.71      0.01     -0.00      0.82 
    85.31     13.14     10.04      3.71      0.01     -0.00      0.82 
    85.32     13.14     10.04      3.71      0.01     -0.01      0.82 
    85.33     13.14     10.04      3.71      0.01     -0.01      0.41 
    85.34     13.14     10.04      3.71      0.01      0.00      0.41 
    85.35     13.14     10.04      3.71      0.01     -0.00      0.41 
    85.36     13.14     10.04      3.71      0.01     -0.00      0.41 
    85.37     13.14     10.04      3.71      0.01     -0.00      0.41 
    85.38     13.14     10.04      3.71      0.01     -0.01      0.41 
    85.39     13.14     10.04      3.71      0.01     -0.00      0.41 
    85.40     13.14     10.04      3.71      0.01     -0.01      0.00 
    85.41     13.14     10.04      3.71      0.01     -0.01      0.00 
    85.42     13.14     10.04      3.71      0.01     -0.01      0.00 
    85.43     13.14     10.04      3.71      0.01     -0.01      0.00 
    85.44     13.14     10.04      3.71      0.01     -0.01      0.00 
    85.45     13.14     10.04      3.71      0.01     -0.01      0.00 
    85.46     13.14     10.04      3.71      0.01     -0.01      0.00 
    85.47     13.14     10.04      3.71      0.01     -0.01      0.41 
    85.48     13.15     10.03      3.71      0.01     -0.01      0.41 
    85.49     13.15     10.04      3.71      0.01     -0.01      0.41 
    85.50     13.15     10.03      3.71      0.01     -0.01      0.41 
    85.51     13.15     10.04      3.71      0.01     -0.01      0.41 
    85.52     13.15     10.03      3.71      0.01     -0.01      0.41 
    85.53     13.15     10.03      3.71      0.02     -0.01      0.41 
    85.54     13.15     10.03      3.71      0.02     -0.01      0.41 
    85.55     13.15     10.03      3.71      0.02     -0.01      0.41 
    85.56     13.15     10.03      3.71      0.02     -0.01      0.41 
    85.57     13.15     10.03      3.71      0.01     -0.01      0.41 
    85.58     13.15     10.03      3.71      0.01     -0.01      0.41 
    85.59     13.15     10.03      3.71      0.01     -0.01      0.41 
    85.60     13.15     10.03      3.71      0.02     -0.02      0.41 
    85.61     13.15     10.03      3.71      0.02     -0.01      0.41 
    85.62     13.15     10.03      3.71      0.01     -0.01      0.82 
    85.63     13.15     10.03      3.71      0.01     -0.01      0.82 
    85.64     13.15     10.03      3.71      0.01     -0.01      0.41 
    85.65     13.14     10.04      3.71      0.01     -0.00      0.41 
    85.66     13.14     10.04      3.71      0.01     -0.00      0.82 
    85.67     13.14     10.04      3.71      0.01     -0.01      0.82 
    85.68     13.14     10.04      3.71      0.01     -0.00      0.82 
    85.69     13.14     10.04      3.71      0.01     -0.01      0.82 
    85.70     13.14     10.04      3.71      0.01     -0.00      1.24 
    85.71     13.14     10.04      3.71      0.01     -0.00      1.24 
    85.72     13.14     10.04      3.71      0.01     -0.00      1.24 
    85.73     13.14     10.04      3.71      0.00     -0.00      1.24 
    85.74     13.14     10.04      3.71      0.00      0.00      1.24 
    85.75     13.14     10.04      3.71      0.00      0.00      1.24 
    85.76     13.14     10.04      3.71      0.00      0.00      2.06 
    85.77     13.14     10.04      3.71      0.00      0.00      2.06 
    85.78     13.14     10.04      3.71      0.00     -0.00      2.06 
    85.79     13.14     10.05      3.72      0.00      0.00      1.65 
    85.80     13.14     10.05      3.71      0.00      0.00      1.65 
    85.81     13.14     10.05      3.71     -0.00      0.01      1.65 
    85.82     13.14     10.05      3.71     -0.00      0.01      1.65 
    85.83     13.14     10.05      3.71     -0.00      0.01      1.24 
    85.84     13.14     10.04      3.71     -0.00      0.01      1.24 
    85.85     13.14     10.04      3.71     -0.00      0.00      1.24 
    85.86     13.14     10.04      3.71     -0.00      0.01      1.24 
    85.87     13.14     10.04      3.71     -0.00      0.01      0.82 
    85.88     13.14     10.05      3.72     -0.01      0.01      0.82 
    85.89     13.14     10.05      3.71     -0.01      0.01      0.82 
    85.90     13.14     10.05      3.71     -0.01      0.01      0.82 
    85.91     13.14     10.04      3.71     -0.00      0.01      0.82 
    85.92     13.14     10.05      3.72     -0.00      0.01      1.24 
    85.93     13.14     10.04      3.71      0.00      0.00      0.41 
    85.94     13.14     10.05      3.72     -0.00      0.01      0.82 
    85.95     13.14     10.04      3.71     -0.00      0.01      0.82 
    85.96     13.14     10.04      3.71     -0.00      0.01      0.82 
    85.97     13.14     10.04      3.71     -0.00      0.00      0.82 
    85.98     13.14     10.04      3.71      0.00      0.00      0.82 
    85.99     13.14     10.04      3.71      0.00      0.00      0.82 
    86.00     13.14     10.04      3.71      0.00      0.00      0.82 
    86.01     13.14     10.04      3.71      0.00     -0.00      0.82 
    86.02     13.14     10.04      3.71      0.00      0.00      1.24 
    86.03     13.14     10.04      3.71      0.00      0.00      1.24 
    86.04     13.14     10.04      3.71      0.00     -0.00      1.24 
    86.05     13.15     10.04      3.71      0.00      0.00      1.24 
    86.06     13.14     10.04      3.71      0.00     -0.00      1.24 
    86.07     13.14     10.04      3.72      0.00      0.00      1.65 
    86.08     13.14     10.04      3.71      0.00     -0.00      1.65 
    86.09     13.14     10.04      3.72      0.00      0.00      1.24 
    86.10     13.14     10.04      3.71      0.00     -0.00      1.24 
    86.11     13.14     10.04      3.72      0.00      0.00      0.82 
    86.12     13.14     10.03      3.71      0.00     -0.01      0.82 
    86.13     13.14     10.04      3.71      0.00     -0.00      0.82 
    86.14     13.14     10.04      3.71      0.00     -0.00      0.82 
    86.15     13.14     10.04      3.71     -0.00      0.00      0.82 
    86.16     13.14     10.04      3.71     -0.00     -0.00      0.82 
    86.17     13.14     10.04      3.71     -0.00      0.00      0.82 
    86.18     13.14     10.04      3.71     -0.00      0.00      0.82 
    86.19     13.14     10.05      3.71     -0.00      0.00      0.41 
    86.20     13.14     10.04      3.71     -0.00     -0.00      0.41 
    86.21     13.14     10.05      3.71     -0.00      0.00      0.41 
    86.22     13.14     10.04      3.71     -0.00      0.00      0.41 
