#Written by Robertson Geologging WinLogger V1.0/370
~VERSION INFORMATION
#------------------------------------------------------------------------------
 VERS. 2.0 : CWLS LOG ASCII STANDARD - VERSION 2.0
 WRAP. NO  : ONE LINE PER DEPTH STEP
~WELL INFORMATION
#MNEM.UNIT         DATA                                DESCRIPTION OF MNEMONIC
#------------------------------------------------------------------------------
 STRT.M         50.0700                            :   START DEPTH
 STOP.M        138.5000                            :   STOP DEPTH
 STEP.M          0.0100                            :   STEP VALUE
 NULL.        -999.2500                            :   NULL VALUE
 COMP.    White Young Green                        :   COMPANY NAME
 WELL.    Lumley 6 Pit                             :   WELL NAME
 FLD.     lumley                                   :   FIELD NAME
 LOC.     N/A                                      :   LOCATION
 PROV.    N/A                                      :   PROVINCE
 SRVC.    N/A                                      :   SERVICE COMPANY NAME
 DATE.    06 Oct 05                                :   DATE
 UWI.     N/A                                      :   UNIQUE WELL IDENTIFIER
~PARAMETER INFORMATION
#MNEMO.UNIT         VALUE                 DESCRIPTION OF MNEMONIC
#------------------------------------------------------------------------------
~OTHER INFORMATION SECTION
#------------------------------------------------------------------------------
 TCGS1365
 Hole finnished 133 .Probe would not penatrate crust as seen on CCTV
~CURVE INFORMATION
#MNEMO.UNIT         API CODE              CURVE DESCRIPTION
#------------------------------------------------------------------------------
 DEPTH.M                                 :   0     Depth
 TEMP.DegC                               :   1     Temperature
 CN25.mS/cm                              :   2     Conductivity@25DegC
 COND.mS/cm                              :   3     Conductivity
 DELT.DegC                               :   4     Delta T
 DELC.mS/cm                              :   5     Delta C
 NGAM.CPS                                :   6     Natural Gamma
#------------------------------------------------------------------------------
~A  DEPTH     TEMP      CN25      COND      DELT      DELC      NGAM      
# ...
    79.45     12.78     10.02      3.39      0.24      0.33      0.76 
    79.46     12.78     10.02      3.39      0.24      0.34      0.35 
    79.47     12.78     10.03      3.39      0.24      0.34      0.35 
    79.48     12.78     10.03      3.39      0.24      0.34      0.35 
    79.49     12.78     10.03      3.40      0.25      0.34      0.35 
    79.50     12.78     10.03      3.40      0.25      0.34      0.35 
    79.51     12.78     10.03      3.40      0.25      0.33      0.35 
    79.52     12.78     10.03      3.40      0.25      0.32      0.35 
    79.53     12.78     10.04      3.40      0.25      0.32      0.35 
    79.54     12.78     10.04      3.40      0.25      0.31      0.35 
    79.55     12.78     10.05      3.41      0.25      0.30      0.35 
    79.56     12.78     10.05      3.41      0.25      0.28      0.35 
    79.57     12.78     10.05      3.41      0.25      0.26      0.35 
    79.58     12.78     10.05      3.41      0.25      0.23      0.76 
    79.59     12.79     10.05      3.41      0.25      0.21      0.76 
    79.60     12.79     10.05      3.41      0.25      0.19      0.76 
    79.61     12.79     10.05      3.42      0.25      0.16      0.76 
    79.62     12.79     10.05      3.42      0.25      0.14      0.76 
    79.63     12.80     10.04      3.42      0.26      0.11      0.76 
    79.64     12.80     10.05      3.42      0.26      0.09      0.76 
    79.65     12.80     10.05      3.43      0.26      0.07      0.76 
    79.66     12.80     10.05      3.43      0.26      0.06      0.76 
    79.67     12.80     10.05      3.43      0.26      0.04      0.41 
    79.68     12.80     10.05      3.43      0.26      0.03      0.82 
    79.69     12.81     10.05      3.44      0.26      0.02      0.82 
    79.70     12.81     10.05      3.44      0.26      0.01      0.82 
    79.71     12.80     10.06      3.44      0.26      0.01      0.82 
    79.72     12.81     10.06      3.44      0.26      0.00      0.82 
    79.73     12.81     10.06      3.44      0.25      0.00      0.82 
    79.74     12.81     10.07      3.45      0.25     -0.00      0.82 
    79.75     12.81     10.07      3.45      0.25     -0.00      0.41 
    79.76     12.81     10.07      3.45      0.24     -0.01      0.41 
    79.77     12.81     10.07      3.45      0.24     -0.00      0.41 
    79.78     12.82     10.07      3.46      0.23      0.00      0.41 
    79.79     12.82     10.07      3.46      0.23      0.01      0.82 
    79.80     12.82     10.07      3.46      0.22      0.01      0.82 
    79.81     12.82     10.07      3.46      0.21      0.02      0.82 
    79.82     12.83     10.07      3.46      0.21      0.02      0.82 
    79.83     12.83     10.07      3.47      0.20      0.03      0.82 
    79.84     12.83     10.07      3.47      0.20      0.03      0.82 
    79.85     12.83     10.07      3.47      0.19      0.04      0.41 
    79.86     12.83     10.07      3.47      0.18      0.05      0.41 
    79.87     12.84     10.07      3.48      0.18      0.05      0.41 
    79.88     12.84     10.07      3.48      0.18      0.05      0.41 
    79.89     12.85     10.07      3.48      0.18      0.05      0.41 
    79.90     12.85     10.06      3.48      0.18      0.05      0.41 
    79.91     12.86     10.06      3.49      0.18      0.06      0.41 
    79.92     12.86     10.06      3.49      0.17      0.06      0.41 
    79.93     12.86     10.06      3.49      0.17      0.06      0.41 
    79.94     12.87     10.06      3.49      0.17      0.06      0.41 
    79.95     12.87     10.05      3.49      0.16      0.06      0.41 
    79.96     12.87     10.05      3.49      0.16      0.06      0.00 
    79.97     12.88     10.05      3.49      0.16      0.06      0.00 
    79.98     12.88     10.05      3.49      0.16      0.07      0.00 
    79.99     12.88     10.05      3.50      0.16      0.07      0.35 
    80.00     12.89     10.05      3.50      0.15      0.07      0.35 
    80.01     12.89     10.05      3.50      0.15      0.07      0.35 
    80.02     12.89     10.05      3.50      0.15      0.08      0.35 
    80.03     12.89     10.04      3.50      0.15      0.07      0.35 
    80.04     12.89     10.04      3.50      0.15      0.08      0.35 
    80.05     12.90     10.04      3.50      0.15      0.08      0.35 
    80.06     12.90     10.04      3.51      0.15      0.08      0.35 
    80.07     12.90     10.04      3.51      0.15      0.08      0.35 
    80.08     12.90     10.05      3.51      0.15      0.08      0.35 
    80.09     12.90     10.05      3.51      0.15      0.08      0.35 
    80.10     12.91     10.04      3.51      0.16      0.07      0.35 
    80.11     12.91     10.04      3.52      0.16      0.07      0.35 
    80.12     12.91     10.04      3.52      0.16      0.06      0.35 
    80.13     12.92     10.04      3.52      0.17      0.06      0.35 
    80.14     12.92     10.04      3.52      0.17      0.06      0.35 
    80.15     12.92     10.04      3.52      0.17      0.05      0.35 
    80.16     12.92     10.04      3.52      0.17      0.05      0.00 
    80.17     12.92     10.05      3.53      0.17      0.06      0.00 
    80.18     12.92     10.05      3.53      0.17      0.05      0.00 
    80.19     12.92     10.05      3.53      0.17      0.05      0.00 
    80.20     12.92     10.05      3.53      0.17      0.05      0.00 
    80.21     12.92     10.05      3.53      0.16      0.06      0.00 
    80.22     12.92     10.05      3.53      0.16      0.06      0.00 
    80.23     12.92     10.05      3.53      0.16      0.06      0.00 
    80.24     12.92     10.06      3.54      0.16      0.06      0.00 
    80.25     12.92     10.06      3.54      0.16      0.06      0.35 
    80.26     12.92     10.06      3.54      0.16      0.07      0.35 
    80.27     12.92     10.06      3.54      0.15      0.07      0.35 
    80.28     12.92     10.06      3.54      0.15      0.06      0.35 
    80.29     12.93     10.06      3.54      0.16      0.07      0.35 
    80.30     12.93     10.06      3.54      0.16      0.07      0.35 
    80.31     12.93     10.06      3.54      0.16      0.06      0.76 
    80.32     12.93     10.06      3.55      0.16      0.06      0.76 
    80.33     12.93     10.06      3.55      0.16      0.06      0.76 
    80.34     12.93     10.07      3.55      0.16      0.06      0.76 
    80.35     12.93     10.07      3.55      0.16      0.07      1.18 
    80.36     12.93     10.07      3.56      0.16      0.06      1.18 
    80.37     12.93     10.07      3.56      0.16      0.06      1.18 
    80.38     12.93     10.07      3.56      0.16      0.06      1.18 
    80.39     12.93     10.07      3.56      0.16      0.06      1.18 
    80.40     12.94     10.07      3.56      0.16      0.06      1.18 
    80.41     12.94     10.08      3.56      0.16      0.06      1.18 
    80.42     12.94     10.07      3.56      0.16      0.05      0.82 
    80.43     12.94     10.08      3.57      0.16      0.06      0.82 
    80.44     12.94     10.08      3.57      0.16      0.06      0.82 
    80.45     12.94     10.08      3.57      0.16      0.06      0.82 
    80.46     12.94     10.08      3.57      0.16      0.05      0.82 
    80.47     12.94     10.08      3.57      0.16      0.05      1.24 
    80.48     12.94     10.08      3.57      0.16      0.05      0.82 
    80.49     12.94     10.08      3.57      0.16      0.05      0.82 
    80.50     12.94     10.09      3.58      0.16      0.05      0.82 
    80.51     12.94     10.09      3.58      0.16      0.05      0.82 
    80.52     12.94     10.09      3.58      0.16      0.05      0.41 
    80.53     12.94     10.09      3.58      0.16      0.05      0.41 
    80.54     12.94     10.09      3.58      0.16      0.04      0.41 
    80.55     12.95     10.09      3.58      0.16      0.04      0.41 
    80.56     12.95     10.09      3.58      0.16      0.04      0.41 
    80.57     12.95     10.09      3.59      0.17      0.04      0.41 
