#Written by Robertson Geologging WinLogger V1.0/370
~VERSION INFORMATION
#------------------------------------------------------------------------------
 VERS. 2.0 : CWLS LOG ASCII STANDARD - VERSION 2.0
 WRAP. NO  : ONE LINE PER DEPTH STEP
~WELL INFORMATION
#MNEM.UNIT         DATA                                DESCRIPTION OF MNEMONIC
#------------------------------------------------------------------------------
 STRT.M         50.0700                            :   START DEPTH
 STOP.M        138.5000                            :   STOP DEPTH
 STEP.M          0.0100                            :   STEP VALUE
 NULL.        -999.2500                            :   NULL VALUE
 COMP.    White Young Green                        :   COMPANY NAME
 WELL.    Lumley 6 Pit                             :   WELL NAME
 FLD.     lumley                                   :   FIELD NAME
 LOC.     N/A                                      :   LOCATION
 PROV.    N/A                                      :   PROVINCE
 SRVC.    N/A                                      :   SERVICE COMPANY NAME
 DATE.    06 Oct 05                                :   DATE
 UWI.     N/A                                      :   UNIQUE WELL IDENTIFIER
~PARAMETER INFORMATION
#MNEMO.UNIT         VALUE                 DESCRIPTION OF MNEMONIC
#------------------------------------------------------------------------------
~OTHER INFORMATION SECTION
#------------------------------------------------------------------------------
 TCGS1365
 Hole finnished 133 .Probe would not penatrate crust as seen on CCTV
~CURVE INFORMATION
#MNEMO.UNIT         API CODE              CURVE DESCRIPTION
#------------------------------------------------------------------------------
 DEPTH.M                                 :   0     Depth
 TEMP.DegC                               :   1     Temperature
 CN25.mS/cm                              :   2     Conductivity@25DegC
 COND.mS/cm                              :   3     Conductivity
 DELT.DegC                               :   4     Delta T
 DELC.mS/cm                              :   5     Delta C
 NGAM.CPS                                :   6     Natural Gamma
#------------------------------------------------------------------------------
~A  DEPTH     TEMP      CN25      COND      DELT      DELC      NGAM      
# ...
    90.75     13.49     11.37      5.04      0.13      0.26      1.47 
    90.76     13.49     11.37      5.04      0.13      0.25      1.12 
    90.77     13.49     11.37      5.04      0.13      0.25      0.71 
    90.78     13.49     11.36      5.04      0.13      0.24      1.06 
    90.79     13.50     11.37      5.04      0.13      0.23      1.47 
    90.80     13.50     11.37      5.05      0.12      0.23      1.47 
    90.81     13.50     11.37      5.05      0.12      0.22      1.47 
    90.82     13.49     11.37      5.05      0.12      0.22      2.29 
    90.83     13.49     11.37      5.05      0.12      0.22      2.29 
    90.84     13.49     11.38      5.05      0.11      0.22      2.29 
    90.85     13.49     11.38      5.05      0.11      0.21      2.65 
    90.86     13.49     11.38      5.05      0.11      0.21      2.65 
    90.87     13.49     11.38      5.05      0.10      0.20      3.06 
    90.88     13.49     11.39      5.05      0.10      0.20      3.06 
    90.89     13.49     11.39      5.05      0.10      0.19      3.06 
    90.90     13.49     11.39      5.06      0.10      0.19      3.06 
    90.91     13.49     11.39      5.06      0.10      0.19      3.06 
    90.92     13.49     11.39      5.06      0.10      0.18      2.35 
    90.93     13.49     11.39      5.06      0.10      0.18      2.35 
    90.94     13.49     11.39      5.06      0.10      0.17      2.35 
    90.95     13.50     11.39      5.06      0.10      0.17      2.00 
    90.96     13.50     11.39      5.07      0.11      0.17      1.59 
    90.97     13.50     11.40      5.07      0.10      0.17      1.59 
    90.98     13.50     11.40      5.07      0.10      0.17      1.59 
    90.99     13.50     11.40      5.07      0.10      0.16      0.76 
    91.00     13.50     11.40      5.07      0.10      0.16      0.76 
    91.01     13.50     11.40      5.07      0.10      0.16      0.76 
    91.02     13.50     11.40      5.07      0.10      0.16      0.41 
    91.03     13.50     11.40      5.07      0.10      0.15      0.41 
    91.04     13.50     11.40      5.07      0.10      0.15      0.00 
    91.05     13.50     11.41      5.08      0.10      0.15      0.35 
    91.06     13.50     11.41      5.08      0.10      0.16      0.35 
    91.07     13.50     11.41      5.08      0.09      0.15      0.35 
    91.08     13.50     11.41      5.08      0.10      0.15      0.35 
    91.09     13.50     11.41      5.08      0.10      0.15      0.35 
    91.10     13.50     11.41      5.08      0.09      0.15      0.35 
    91.11     13.51     11.41      5.08      0.09      0.15      0.35 
    91.12     13.51     11.41      5.09      0.09      0.15      0.76 
    91.13     13.51     11.41      5.09      0.09      0.15      0.76 
    91.14     13.51     11.41      5.09      0.09      0.15      0.76 
    91.15     13.51     11.41      5.09      0.09      0.15      0.76 
    91.16     13.51     11.41      5.09      0.08      0.15      0.76 
    91.17     13.51     11.41      5.09      0.08      0.15      0.76 
    91.18     13.51     11.41      5.09      0.08      0.15      0.76 
    91.19     13.51     11.41      5.10      0.08      0.15      0.76 
    91.20     13.51     11.41      5.10      0.08      0.16      0.76 
    91.21     13.51     11.41      5.10      0.08      0.15      0.76 
    91.22     13.52     11.42      5.10      0.08      0.15      0.41 
    91.23     13.52     11.42      5.10      0.08      0.15      0.41 
    91.24     13.52     11.42      5.10      0.08      0.15      0.41 
    91.25     13.52     11.42      5.10      0.08      0.15      0.41 
    91.26     13.52     11.42      5.10      0.08      0.15      0.41 
    91.27     13.52     11.42      5.11      0.08      0.14      0.41 
    91.28     13.52     11.42      5.11      0.08      0.14      0.76 
    91.29     13.52     11.42      5.11      0.08      0.14      0.35 
    91.30     13.52     11.42      5.11      0.08      0.14      0.35 
    91.31     13.52     11.42      5.11      0.08      0.14      0.76 
    91.32     13.52     11.42      5.11      0.08      0.14      1.12 
    91.33     13.52     11.43      5.11      0.08      0.14      1.12 
    91.34     13.52     11.43      5.12      0.08      0.13      1.53 
    91.35     13.52     11.43      5.12      0.08      0.13      1.53 
    91.36     13.52     11.43      5.11      0.08      0.13      1.53 
    91.37     13.52     11.44      5.12      0.07      0.13      1.53 
    91.38     13.52     11.44      5.12      0.07      0.13      1.53 
    91.39     13.52     11.44      5.12      0.07      0.13      1.53 
    91.40     13.51     11.45      5.12      0.07      0.13      1.53 
    91.41     13.51     11.45      5.12      0.07      0.13      1.53 
    91.42     13.51     11.45      5.12      0.07      0.12      1.53 
    91.43     13.51     11.46      5.13      0.07      0.12      1.53 
    91.44     13.51     11.45      5.13      0.07      0.12      1.53 
    91.45     13.51     11.46      5.13      0.07      0.12      1.18 
    91.46     13.51     11.47      5.13      0.07      0.13      1.18 
    91.47     13.51     11.47      5.13      0.07      0.13      1.18 
    91.48     13.51     11.47      5.13      0.07      0.12      0.76 
    91.49     13.51     11.46      5.14      0.06      0.12      0.41 
    91.50     13.52     11.46      5.14      0.06      0.12      0.41 
    91.51     13.52     11.46      5.14      0.06      0.12      0.00 
    91.52     13.52     11.46      5.14      0.06      0.11      0.00 
    91.53     13.52     11.46      5.14      0.07      0.11      0.00 
    91.54     13.52     11.46      5.14      0.06      0.11      0.00 
    91.55     13.53     11.46      5.14      0.07      0.10      0.00 
    91.56     13.53     11.46      5.14      0.07      0.10      0.00 
    91.57     13.53     11.46      5.14      0.07      0.10      0.00 
    91.58     13.53     11.46      5.14      0.07      0.10      0.00 
    91.59     13.53     11.46      5.15      0.07      0.09      0.00 
    91.60     13.53     11.46      5.15      0.07      0.09      0.00 
    91.61     13.53     11.46      5.15      0.07      0.09      0.00 
    91.62     13.53     11.46      5.15      0.06      0.09      0.00 
    91.63     13.53     11.47      5.15      0.06      0.10      0.00 
    91.64     13.53     11.47      5.15      0.06      0.10      0.00 
    91.65     13.53     11.46      5.15      0.06      0.09      0.00 
    91.66     13.53     11.47      5.15      0.06      0.10      0.00 
    91.67     13.53     11.46      5.15      0.06      0.09      0.00 
    91.68     13.53     11.47      5.16      0.06      0.10      0.00 
    91.69     13.53     11.47      5.16      0.06      0.09      0.00 
    91.70     13.53     11.47      5.16      0.05      0.10      0.00 
    91.71     13.53     11.47      5.16      0.05      0.10      0.00 
    91.72     13.53     11.47      5.16      0.05      0.10      0.00 
    91.73     13.53     11.47      5.16      0.05      0.10      0.00 
    91.74     13.53     11.47      5.16      0.04      0.11      0.00 
    91.75     13.53     11.47      5.16      0.04      0.10      0.41 
    91.76     13.53     11.48      5.16      0.04      0.11      0.82 
    91.77     13.53     11.48      5.16      0.04      0.11      0.82 
    91.78     13.54     11.47      5.16      0.04      0.11      0.82 
    91.79     13.54     11.47      5.16      0.04      0.10      0.82 
    91.80     13.54     11.48      5.17      0.04      0.11      1.18 
    91.81     13.54     11.48      5.17      0.04      0.10      1.18 
    91.82     13.54     11.48      5.17      0.05      0.10      1.18 
    91.83     13.54     11.47      5.17      0.05      0.10      1.18 
    91.84     13.54     11.47      5.17      0.05      0.09      1.18 
    91.85     13.54     11.47      5.17      0.05      0.09      1.59 
    91.86     13.55     11.47      5.17      0.06      0.09      1.59 
    91.87     13.55     11.48      5.17      0.06      0.09      1.59 
