#Written by Robertson Geologging WinLogger V1.0/406
~VERSION INFORMATION
#------------------------------------------------------------------------------
 VERS. 2.0 : CWLS LOG ASCII STANDARD - VERSION 2.0
 WRAP. NO  : ONE LINE PER DEPTH STEP
~WELL INFORMATION
#MNEM.UNIT         DATA                                DESCRIPTION OF MNEMONIC
#------------------------------------------------------------------------------
 STRT.M         58.0600                            :   START DEPTH
 STOP.M        154.1000                            :   STOP DEPTH
 STEP.M          0.0100                            :   STEP VALUE
 NULL.        -999.2500                            :   NULL VALUE
 COMP.    Coal Authority                           :   COMPANY NAME
 WELL.    Lumley                                   :   WELL NAME
 FLD.     N/A                                      :   FIELD NAME
 LOC.     N/A                                      :   LOCATION
 PROV.    N/A                                      :   PROVINCE
 SRVC.    N/A                                      :   SERVICE COMPANY NAME
 DATE.    01 Oct 08                                :   DATE
 UWI.     N/A                                      :   UNIQUE WELL IDENTIFIER
~PARAMETER INFORMATION
#MNEMO.UNIT         VALUE                 DESCRIPTION OF MNEMONIC
#------------------------------------------------------------------------------
~OTHER INFORMATION SECTION
#------------------------------------------------------------------------------
 TCGS2822
~CURVE INFORMATION
#MNEMO.UNIT         API CODE              CURVE DESCRIPTION
#------------------------------------------------------------------------------
 DEPTH.M                                 :   0     Depth
 TEMP.DegC                               :   1     Temperature
 COND.uS/cm                              :   2     Conductivity
 DELT.DegC                               :   3     Delta T
 DELC.uS/cm                              :   4     Delta C
 NGAM.CPS                                :   5     Natural Gamma
#------------------------------------------------------------------------------
~A  DEPTH     TEMP      COND      DELT      DELC      NGAM      
    58.06     14.22    299.63      0.00      0.00     33.00 
    58.07     14.23    302.29      0.00      0.00     28.00 
    58.08     14.23    467.14      0.00      0.00     35.00 
    58.09     14.24    373.17      0.00      0.00     66.00 
    58.10     14.24    314.69      0.00      0.00     57.00 
    58.11     14.25    373.17      0.00      0.00     25.00 
    58.12     14.23    251.82      0.00      0.00     35.00 
    58.13     14.22    321.78      0.00      0.00     41.00 
    58.14     14.22    277.49      0.00      0.00     41.00 
    58.15     14.21    461.82      0.00      0.00     58.00 
    58.16     14.23    543.44      0.00      0.00     58.00 
    58.17     14.24    491.98      0.00      0.00     42.00 
    58.18     14.24   1054.79      0.00      0.00     41.00 
    58.19     14.23   2593.51      0.00      0.00     50.00 
    58.20     14.22   3582.59      0.00      0.00     41.00 
    58.21     14.21   4900.46      0.00      0.00     25.00 
    58.22     14.20   4930.78      0.00      0.00     33.00 
    58.23     14.21   4946.40      0.00      0.00     50.00 
    58.24     14.21   4953.75      0.00      0.00     25.00 
    58.25     14.23   4930.78      0.00      0.00      0.00 
    58.26     14.23   4915.16      0.00      0.00     33.00 
    58.27     14.22   4892.19      0.00      0.00     66.00 
    58.28     14.22   4854.54      0.00      0.00     25.00 
    58.29     14.21   4831.58      0.00      0.00     83.00 
    58.30     14.22   4808.63      0.00      0.00     50.00 
    58.31     14.22   4808.63      0.00      0.00     33.00 
    58.32     14.22   4804.96      0.00      0.00     21.00 
    58.33     14.21   4767.33      0.00      0.00     30.00 
    58.34     14.20   4731.55      0.00      0.00     25.00 
    58.35     14.20   4708.62      0.00      0.00     58.00 
    58.36     14.19   4685.69      0.00      0.00     41.00 
    58.37     14.20   4678.35      0.00      0.00     33.00 
    58.38     14.19   4662.77      0.00      0.00     41.00 
    58.39     14.18   4648.10      0.00      0.00     58.00 
    58.40     14.17   4640.76      0.00      0.00     28.00 
    58.41     14.16   4625.18      0.00      0.00     16.00 
    58.42     14.17   4625.18      0.00      0.00     33.00 
    58.43     14.16   4616.93      0.00      0.00     16.00 
    58.44     14.16   4616.93      0.00      0.00     16.00 
    58.45     14.15   4625.18      0.00      0.00     33.00 
    58.46     14.14   4609.60      0.00      0.00     58.00 
    58.47     14.14   4609.60      0.00      0.00     25.00 
    58.48     14.12   4602.27      0.00      0.00     41.00 
    58.49     14.12   4602.27      0.00      0.00     16.00 
    58.50     14.11   4602.27      0.00      0.00      8.00 
    58.51     14.09   4586.69      0.00      0.00     16.00 
    58.52     14.09   4586.69      0.00      0.00     41.00 
    58.53     14.08   4594.02      0.00      0.00      8.00 
    58.54     14.08   4586.69      0.00      0.00      0.00 
    58.55     14.07   4586.69      0.00      0.00     16.00 
    58.56     14.07   4579.36      0.00      0.00      8.00 
    58.57     14.05   4586.69      0.00      0.00      0.00 
    58.58     14.05   4594.02      0.00      0.00      8.00 
    58.59     14.04   4586.69      0.00      0.00      8.00 
    58.60     14.02   4586.69      0.00      0.00      0.00 
    58.61     14.02   4594.02      0.00      0.00     33.00 
    58.62     14.02   4586.69      0.00      0.00      8.00 
    58.63     14.01   4594.02      0.00      0.00      0.00 
    58.64     14.00   4586.69      0.00      0.00      0.00 
    58.65     14.00   4594.02      0.00      0.00      8.00 
    58.66     13.98   4586.69      0.00      0.00     25.00 
    58.67     13.97   4602.27      0.00      0.00     16.00 
    58.68     13.98   4594.02      0.00      0.00      8.00 
    58.69     13.98   4594.02      0.00      0.00      8.00 
    58.70     13.97   4602.27      0.00      0.00     16.00 
    58.71     13.96   4602.27      0.00      0.00      8.00 
    58.72     13.96   4609.60      0.00      0.00      0.00 
    58.73     13.94   4602.27      0.00      0.00      8.00 
    58.74     13.95   4602.27      0.00      0.00      0.00 
    58.75     13.94   4609.60      0.00      0.00      8.00 
    58.76     13.94   4609.60      0.00      0.00      8.00 
    58.77     13.95   4602.27      0.00      0.00      0.00 
    58.78     13.97   4602.27      0.00      0.00      8.00 
    58.79     13.98   4594.02      0.00      0.00      0.00 
    58.80     13.98   4571.11      0.00      0.00      0.00 
    58.81     13.97   4556.45     -0.23   4230.24      0.00 
    58.82     13.95   4540.88     -0.26   4250.10      8.00 
    58.83     13.93   4517.98     -0.29   4309.53     16.00 
    58.84     13.92   4510.65     -0.33   4250.86      8.00 
    58.85     13.92   4502.41     -0.32   4207.20      0.00 
    58.86     13.92   4502.41     -0.30   4207.20      0.00 
    58.87     13.93   4502.41     -0.29   4167.34      0.00 
    58.88     13.92   4502.41     -0.29   4207.20      0.00 
    58.89     13.93   4502.41     -0.29   4205.43      0.00 
    58.90     13.93   4495.08     -0.30   4267.17      0.00 
    58.91     13.91   4487.76     -0.33   4259.84      0.00 
    58.92     13.91   4502.41     -0.33   4214.29      8.00 
    58.93     13.90   4510.65     -0.32   4213.67      0.00 
    58.94     13.90   4517.98     -0.33   4235.17      0.00 
    58.95     13.90   4525.30     -0.33   4247.81      0.00 
    58.96     13.90   4525.30     -0.33   4281.45      0.00 
    58.97     13.89   4510.65     -0.34   4266.80      8.00 
    58.98     13.88   4510.65     -0.34   4272.11      0.00 
    58.99     13.88   4495.08     -0.33   4249.46     33.00 
    59.00     13.88   4487.76     -0.31   4266.04      0.00 
    59.01     13.88   4479.52     -0.31   4240.09      8.00 
    59.02     13.89   4479.52     -0.31   4221.50      0.00 
    59.03     13.90   4472.19     -0.31   4226.57      0.00 
    59.04     13.90   4472.19     -0.32   4157.50      0.00 
    59.05     13.89   4479.52     -0.33   4179.88      8.00 
    59.06     13.88   4472.19     -0.35   4169.90      8.00 
    59.07     13.86   4464.87     -0.37   3997.72      8.00 
    59.08     13.86   4472.19     -0.38   4099.02      0.00 
    59.09     13.87   4472.19     -0.37   4157.50      0.00 
    59.10     13.87   4479.52     -0.38   4106.35      0.00 
    59.11     13.87   4487.76     -0.36   4235.94      0.00 
    59.12     13.87   4496.91     -0.35   4175.13      7.00 
    59.13     13.86   4502.41     -0.36   4224.91      8.00 
    59.14     13.87   4510.65     -0.34   4048.83      0.00 
    59.15     13.88   4510.65     -0.35   3967.21      0.00 
    59.16     13.88   4517.98     -0.35   4026.00      0.00 
    59.17     13.88   4510.65     -0.35   3455.86      0.00 
    59.18     13.89   4510.65     -0.34   1917.14      0.00 
    59.19     13.87   4502.41     -0.35    919.82      0.00 
    59.20     13.87   4502.41     -0.34   -398.05      0.00 
    59.21     13.88   4496.91     -0.33   -433.86      0.00 
    59.22     13.88   4487.76     -0.33   -458.64      0.00 
    59.23     13.88   4487.76     -0.34   -465.99      8.00 
    59.24     13.87   4487.76     -0.36   -443.02      0.00 
    59.25     13.86   4479.52     -0.36   -435.64      0.00 
    59.26     13.84   4479.52     -0.39   -412.68      8.00 
    59.27     13.85   4479.52     -0.37   -375.02      0.00 
    59.28     13.84   4479.52     -0.38   -352.07      8.00 
    59.29     13.83   4479.52     -0.39   -329.12      0.00 
    59.30     13.85   4472.19     -0.38   -336.44      0.00 
    59.31     13.84   4472.19     -0.39   -332.77      0.00 
    59.32     13.84   4471.28     -0.37   -296.06      0.00 
    59.33     13.85   4464.87     -0.34   -266.68      0.00 
    59.34     13.84   4464.87     -0.35   -243.75      0.00 
    59.35     13.85   4472.19     -0.34   -213.50      0.00 
    59.36     13.87   4456.63     -0.32   -221.73      0.00 
    59.37     13.87   4464.87     -0.32   -197.90      0.00 
