#Written by Robertson Geologging WinLogger V1.0/370
~VERSION INFORMATION
#------------------------------------------------------------------------------
 VERS. 2.0 : CWLS LOG ASCII STANDARD - VERSION 2.0
 WRAP. NO  : ONE LINE PER DEPTH STEP
~WELL INFORMATION
#MNEM.UNIT         DATA                                DESCRIPTION OF MNEMONIC
#------------------------------------------------------------------------------
 STRT.M         50.0700                            :   START DEPTH
 STOP.M        138.5000                            :   STOP DEPTH
 STEP.M          0.0100                            :   STEP VALUE
 NULL.        -999.2500                            :   NULL VALUE
 COMP.    White Young Green                        :   COMPANY NAME
 WELL.    Lumley 6 Pit                             :   WELL NAME
 FLD.     lumley                                   :   FIELD NAME
 LOC.     N/A                                      :   LOCATION
 PROV.    N/A                                      :   PROVINCE
 SRVC.    N/A                                      :   SERVICE COMPANY NAME
 DATE.    06 Oct 05                                :   DATE
 UWI.     N/A                                      :   UNIQUE WELL IDENTIFIER
~PARAMETER INFORMATION
#MNEMO.UNIT         VALUE                 DESCRIPTION OF MNEMONIC
#------------------------------------------------------------------------------
~OTHER INFORMATION SECTION
#------------------------------------------------------------------------------
 TCGS1365
 Hole finnished 133 .Probe would not penatrate crust as seen on CCTV
~CURVE INFORMATION
#MNEMO.UNIT         API CODE              CURVE DESCRIPTION
#------------------------------------------------------------------------------
 DEPTH.M                                 :   0     Depth
 TEMP.DegC                               :   1     Temperature
 CN25.mS/cm                              :   2     Conductivity@25DegC
 COND.mS/cm                              :   3     Conductivity
 DELT.DegC                               :   4     Delta T
 DELC.mS/cm                              :   5     Delta C
 NGAM.CPS                                :   6     Natural Gamma
#------------------------------------------------------------------------------
~A  DEPTH     TEMP      CN25      COND      DELT      DELC      NGAM      
# ...
   137.08     14.32     10.78      5.36      0.01     -0.01      1.47 
   137.09     14.32     10.79      5.36      0.00     -0.01      1.06 
   137.10     14.32     10.78      5.36      0.00     -0.01      1.06 
   137.11     14.32     10.79      5.36      0.01     -0.01      1.06 
   137.12     14.32     10.78      5.36      0.01     -0.01      1.06 
   137.13     14.32     10.78      5.36      0.01     -0.01      0.71 
   137.14     14.32     10.78      5.36      0.01     -0.01      0.71 
   137.15     14.32     10.79      5.36      0.01     -0.01      0.71 
   137.16     14.32     10.79      5.36      0.01     -0.01      0.35 
   137.17     14.32     10.79      5.36      0.00     -0.01      0.35 
   137.18     14.32     10.79      5.36      0.00     -0.00      0.35 
   137.19     14.32     10.79      5.36      0.00     -0.00      0.35 
   137.20     14.32     10.79      5.36     -0.00     -0.00      0.35 
   137.21     14.32     10.79      5.36     -0.00      0.00      0.35 
   137.22     14.32     10.79      5.36     -0.00      0.00      0.35 
   137.23     14.31     10.79      5.36     -0.00      0.00      0.35 
   137.24     14.31     10.79      5.36     -0.00      0.01      0.35 
   137.25     14.31     10.79      5.36     -0.01      0.00      0.35 
   137.26     14.31     10.79      5.36     -0.01      0.01      0.35 
   137.27     14.31     10.79      5.36     -0.01      0.01      0.35 
   137.28     14.31     10.79      5.36     -0.01      0.01      0.35 
   137.29     14.31     10.79      5.36     -0.01      0.01      0.35 
   137.30     14.31     10.79      5.36     -0.00      0.00      0.35 
   137.31     14.31     10.79      5.36     -0.00     -0.00      0.35 
   137.32     14.31     10.79      5.36      0.00     -0.00      0.35 
   137.33     14.32     10.79      5.36      0.00     -0.01      0.35 
   137.34     14.32     10.79      5.36      0.00     -0.00      0.35 
   137.35     14.32     10.79      5.36      0.00     -0.00      0.41 
   137.36     14.32     10.78      5.36      0.00     -0.00      0.41 
   137.37     14.32     10.78      5.36      0.01     -0.01      0.41 
   137.38     14.32     10.78      5.36      0.01     -0.01      0.41 
   137.39     14.32     10.78      5.36      0.01     -0.01      0.41 
   137.40     14.32     10.78      5.36      0.01     -0.01      0.41 
   137.41     14.32     10.78      5.36      0.01     -0.01      0.41 
   137.42     14.32     10.78      5.36      0.00     -0.01      0.41 
   137.43     14.32     10.78      5.36      0.00     -0.01      0.41 
   137.44     14.31     10.79      5.36     -0.00     -0.00      0.41 
   137.45     14.31     10.79      5.36     -0.00     -0.00      0.41 
   137.46     14.31     10.79      5.36     -0.00     -0.00      0.41 
   137.47     14.31     10.79      5.36     -0.00      0.00      0.41 
   137.48     14.31     10.79      5.36     -0.00      0.00      0.41 
   137.49     14.31     10.79      5.36     -0.01      0.01      0.41 
   137.50     14.31     10.79      5.36     -0.01      0.00      0.41 
   137.51     14.31     10.79      5.36     -0.01      0.01      0.41 
   137.52     14.31     10.80      5.36     -0.00      0.00      0.35 
   137.53     14.31     10.79      5.36     -0.00      0.00      0.35 
   137.54     14.31     10.79      5.36     -0.00      0.00      0.35 
   137.55     14.31     10.79      5.36      0.00     -0.00      0.35 
   137.56     14.31     10.79      5.36      0.00     -0.01      0.35 
   137.57     14.31     10.79      5.36      0.00     -0.01      0.35 
   137.58     14.31     10.79      5.36      0.01     -0.01      0.35 
   137.59     14.31     10.79      5.36      0.01     -0.01      0.35 
   137.60     14.32     10.78      5.36      0.01     -0.02      0.35 
   137.61     14.32     10.78      5.36      0.01     -0.02      0.35 
   137.62     14.32     10.78      5.36      0.01     -0.02      0.35 
   137.63     14.32     10.78      5.36      0.01     -0.02      0.35 
   137.64     14.32     10.78      5.36      0.01     -0.02      0.35 
   137.65     14.32     10.78      5.36      0.01     -0.02      0.35 
   137.66     14.32     10.78      5.35      0.01     -0.02      0.71 
   137.67     14.32     10.78      5.36      0.01     -0.01      0.71 
   137.68     14.32     10.78      5.35      0.01     -0.01      1.12 
   137.69     14.32     10.78      5.36      0.01     -0.01      0.76 
   137.70     14.31     10.78      5.35      0.00     -0.01      0.76 
   137.71     14.31     10.79      5.36      0.00     -0.00      1.18 
   137.72     14.31     10.79      5.35     -0.00     -0.00      1.18 
   137.73     14.31     10.79      5.35     -0.00     -0.00      1.18 
   137.74     14.31     10.79      5.35     -0.00      0.00      1.18 
   137.75     14.31     10.79      5.35     -0.00      0.00      1.18 
   137.76     14.31     10.79      5.35     -0.00      0.00      1.18 
   137.77     14.31     10.79      5.35     -0.00     -0.00      1.18 
   137.78     14.31     10.79      5.35     -0.00      0.00      1.18 
   137.79     14.31     10.79      5.35     -0.00     -0.00      1.18 
   137.80     14.31     10.79      5.35     -0.00      0.00      1.18 
   137.81     14.31     10.79      5.35     -0.00     -0.00      1.18 
   137.82     14.31     10.79      5.35      0.00     -0.00      1.88 
   137.83     14.31     10.78      5.36      0.00     -0.01      1.53 
   137.84     14.32     10.79      5.36      0.00     -0.01      2.24 
   137.85     14.32     10.78      5.35      0.00     -0.01      1.82 
   137.86     14.32     10.79      5.36      0.00     -0.01      1.82 
   137.87     14.32     10.78      5.36      0.00     -0.01      1.82 
   137.88     14.32     10.79      5.36      0.00     -0.00      1.41 
   137.89     14.32     10.78      5.36      0.00     -0.01      1.82 
   137.90     14.32     10.78      5.36      0.00     -0.01      1.82 
   137.91     14.32     10.78      5.36      0.00     -0.01      1.82 
   137.92     14.32     10.78      5.36      0.00     -0.01      1.82 
   137.93     14.32     10.78      5.36      0.00     -0.00      1.82 
   137.94     14.32     10.78      5.36      0.00     -0.00      1.82 
   137.95     14.32     10.78      5.35      0.00     -0.00      1.82 
   137.96     14.32     10.78      5.36      0.00     -0.01      1.82 
   137.97     14.32     10.78      5.35      0.00     -0.01      1.82 
   137.98     14.32     10.78      5.36      0.00     -0.01      2.24 
   137.99     14.32     10.78      5.35      0.00     -0.00      1.53 
   138.00     14.31     10.79      5.36     -0.00     -0.00      1.53 
   138.01     14.31     10.79      5.36     -0.00      0.00      0.82 
   138.02     14.31     10.79      5.36     -0.00      0.00      1.18 
   138.03     14.31     10.79      5.36     -0.00      0.01      1.18 
   138.04     14.31     10.79      5.36     -0.01      0.00      1.18 
   138.05     14.31     10.79      5.36     -0.01      0.01      1.53 
   138.06     14.31     10.79      5.36     -0.01      0.01      1.12 
   138.07     14.31     10.79      5.36     -0.01      0.01      1.12 
   138.08     14.31     10.79      5.36     -0.01      0.00      1.12 
   138.09     14.31     10.79      5.36     -0.00      0.00      1.12 
   138.10     14.31     10.79      5.36     -0.00      0.00      1.12 
   138.11     14.32     10.78      5.36     -0.00      0.00      1.47 
   138.12     14.32     10.78      5.36      0.00     -0.00      1.82 
   138.13     14.32     10.78      5.35      0.00     -0.00      1.82 
   138.14     14.32     10.78      5.36      0.00     -0.00      1.82 
   138.15     14.32     10.78      5.35      0.00     -0.01      1.41 
   138.16     14.32     10.78      5.36      0.01     -0.01      1.41 
   138.17     14.32     10.78      5.36      0.01     -0.01      1.41 
   138.18     14.32     10.78      5.36      0.01     -0.01      1.41 
   138.19     14.32     10.78      5.36      0.01     -0.01      1.06 
   138.20     14.32     10.78      5.36      0.00     -0.01      1.06 
